{
  "type": "FeatureCollection",
  "features": [
    {
      "type": "Feature",
      "properties": {
        "name": "Zimmi"
      },
      "geometry": {
        "coordinates": [
          -11.30818,
          7.31356
        ],
        "type": "Point"
      }
    },
    {
      "type": "Feature",
      "properties": {
        "name": "Yonibana"
      },
      "geometry": {
        "coordinates": [
          -12.23929,
          8.44347
        ],
        "type": "Point"
      }
    },
    {
      "type": "Feature",
      "properties": {
        "name": "Yengema"
      },
      "geometry": {
        "coordinates": [
          -11.17057,
          8.71441
        ],
        "type": "Point"
      }
    },
    {
      "type": "Feature",
      "properties": {
        "name": "Wima"
      },
      "geometry": {
        "coordinates": [
          -11.20455,
          8.30052
        ],
        "type": "Point"
      }
    },
    {
      "type": "Feature",
      "properties": {
        "name": "Waterloo"
      },
      "geometry": {
        "coordinates": [
          -13.07091,
          8.3389
        ],
        "type": "Point"
      }
    },
    {
      "type": "Feature",
      "properties": {
        "name": "Tongole"
      },
      "geometry": {
        "coordinates": [
          -11.90071,
          7.45092
        ],
        "type": "Point"
      }
    },
    {
      "type": "Feature",
      "properties": {
        "name": "Tombu"
      },
      "geometry": {
        "coordinates": [
          -10.73132,
          8.53991
        ],
        "type": "Point"
      }
    },
    {
      "type": "Feature",
      "properties": {
        "name": "Tombodu"
      },
      "geometry": {
        "coordinates": [
          -10.6196,
          8.13526
        ],
        "type": "Point"
      }
    },
    {
      "type": "Feature",
      "properties": {
        "name": "Tintafor"
      },
      "geometry": {
        "coordinates": [
          -13.215,
          8.62667
        ],
        "type": "Point"
      }
    },
    {
      "type": "Feature",
      "properties": {
        "name": "Tefeya"
      },
      "geometry": {
        "coordinates": [
          -11.2126,
          8.70395
        ],
        "type": "Point"
      }
    },
    {
      "type": "Feature",
      "properties": {
        "name": "Sumbuya"
      },
      "geometry": {
        "coordinates": [
          -11.9606,
          7.64789
        ],
        "type": "Point"
      }
    },
    {
      "type": "Feature",
      "properties": {
        "name": "Simbakoro"
      },
      "geometry": {
        "coordinates": [
          -11.00755,
          8.61243
        ],
        "type": "Point"
      }
    },
    {
      "type": "Feature",
      "properties": {
        "name": "Serabu"
      },
      "geometry": {
        "coordinates": [
          -12.05294,
          7.79311
        ],
        "type": "Point"
      }
    },
    {
      "type": "Feature",
      "properties": {
        "name": "Seidu"
      },
      "geometry": {
        "coordinates": [
          -10.59496,
          9.01801
        ],
        "type": "Point"
      }
    },
    {
      "type": "Feature",
      "properties": {
        "name": "Segbwema"
      },
      "geometry": {
        "coordinates": [
          -10.9502,
          7.99471
        ],
        "type": "Point"
      }
    },
    {
      "type": "Feature",
      "properties": {
        "name": "Sawkta"
      },
      "geometry": {
        "coordinates": [
          -13.2025,
          8.6323
        ],
        "type": "Point"
      }
    },
    {
      "type": "Feature",
      "properties": {
        "name": "Rotifunk"
      },
      "geometry": {
        "coordinates": [
          -12.6776,
          8.22591
        ],
        "type": "Point"
      }
    },
    {
      "type": "Feature",
      "properties": {
        "name": "Rokupr"
      },
      "geometry": {
        "coordinates": [
          -12.38497,
          8.67121
        ],
        "type": "Point"
      }
    },
    {
      "type": "Feature",
      "properties": {
        "name": "Potoru"
      },
      "geometry": {
        "coordinates": [
          -11.47897,
          7.50596
        ],
        "type": "Point"
      }
    },
    {
      "type": "Feature",
      "properties": {
        "name": "Port Loko"
      },
      "geometry": {
        "coordinates": [
          -12.78696,
          8.76609
        ],
        "type": "Point"
      }
    },
    {
      "type": "Feature",
      "properties": {
        "name": "Koyima"
      },
      "geometry": {
        "coordinates": [
          -11.02241,
          8.70552
        ],
        "type": "Point"
      }
    },
    {
      "type": "Feature",
      "properties": {
        "name": "Pepel"
      },
      "geometry": {
        "coordinates": [
          -13.05444,
          8.58611
        ],
        "type": "Point"
      }
    },
    {
      "type": "Feature",
      "properties": {
        "name": "Pendembu"
      },
      "geometry": {
        "coordinates": [
          -10.69429,
          8.09807
        ],
        "type": "Point"
      }
    },
    {
      "type": "Feature",
      "properties": {
        "name": "Panguma"
      },
      "geometry": {
        "coordinates": [
          -11.1329,
          8.18507
        ],
        "type": "Point"
      }
    },
    {
      "type": "Feature",
      "properties": {
        "name": "Giehun"
      },
      "geometry": {
        "coordinates": [
          -11.04278,
          8.55518
        ],
        "type": "Point"
      }
    },
    {
      "type": "Feature",
      "properties": {
        "name": "Moyamba"
      },
      "geometry": {
        "coordinates": [
          -12.43168,
          8.15898
        ],
        "type": "Point"
      }
    },
    {
      "type": "Feature",
      "properties": {
        "name": "Motema"
      },
      "geometry": {
        "coordinates": [
          -11.01252,
          8.61427
        ],
        "type": "Point"
      }
    },
    {
      "type": "Feature",
      "properties": {
        "name": "Mogbwemo"
      },
      "geometry": {
        "coordinates": [
          -12.30864,
          7.76237
        ],
        "type": "Point"
      }
    },
    {
      "type": "Feature",
      "properties": {
        "name": "Mobai"
      },
      "geometry": {
        "coordinates": [
          -10.75355,
          7.99343
        ],
        "type": "Point"
      }
    },
    {
      "type": "Feature",
      "properties": {
        "name": "Masoyila"
      },
      "geometry": {
        "coordinates": [
          -13.19101,
          8.61119
        ],
        "type": "Point"
      }
    },
    {
      "type": "Feature",
      "properties": {
        "name": "Masingbi"
      },
      "geometry": {
        "coordinates": [
          -11.95171,
          8.78197
        ],
        "type": "Point"
      }
    },
    {
      "type": "Feature",
      "properties": {
        "name": "Masaka"
      },
      "geometry": {
        "coordinates": [
          -11.8026,
          8.66492
        ],
        "type": "Point"
      }
    },
    {
      "type": "Feature",
      "properties": {
        "name": "Manowa"
      },
      "geometry": {
        "coordinates": [
          -10.74834,
          8.17392
        ],
        "type": "Point"
      }
    },
    {
      "type": "Feature",
      "properties": {
        "name": "Mange"
      },
      "geometry": {
        "coordinates": [
          -12.85688,
          8.92262
        ],
        "type": "Point"
      }
    },
    {
      "type": "Feature",
      "properties": {
        "name": "Mamboma"
      },
      "geometry": {
        "coordinates": [
          -11.68841,
          8.08742
        ],
        "type": "Point"
      }
    },
    {
      "type": "Feature",
      "properties": {
        "name": "Mambolo"
      },
      "geometry": {
        "coordinates": [
          -13.03674,
          8.9186
        ],
        "type": "Point"
      }
    },
    {
      "type": "Feature",
      "properties": {
        "name": "Makeni"
      },
      "geometry": {
        "coordinates": [
          -12.04417,
          8.88605
        ],
        "type": "Point"
      }
    },
    {
      "type": "Feature",
      "properties": {
        "name": "Makali"
      },
      "geometry": {
        "coordinates": [
          -11.66168,
          8.62964
        ],
        "type": "Point"
      }
    },
    {
      "type": "Feature",
      "properties": {
        "name": "Magburaka"
      },
      "geometry": {
        "coordinates": [
          -11.9488,
          8.72306
        ],
        "type": "Point"
      }
    },
    {
      "type": "Feature",
      "properties": {
        "name": "Lunsar"
      },
      "geometry": {
        "coordinates": [
          -12.53499,
          8.68439
        ],
        "type": "Point"
      }
    },
    {
      "type": "Feature",
      "properties": {
        "name": "Loma"
      },
      "geometry": {
        "coordinates": [
          -12.03383,
          9.75931
        ],
        "type": "Point"
      }
    },
    {
      "type": "Feature",
      "properties": {
        "name": "Largo"
      },
      "geometry": {
        "coordinates": [
          -12.1578,
          8.27903
        ],
        "type": "Point"
      }
    },
    {
      "type": "Feature",
      "properties": {
        "name": "Kukuna"
      },
      "geometry": {
        "coordinates": [
          -12.66476,
          9.39841
        ],
        "type": "Point"
      }
    },
    {
      "type": "Feature",
      "properties": {
        "name": "Koribundu"
      },
      "geometry": {
        "coordinates": [
          -11.69354,
          7.70952
        ],
        "type": "Point"
      }
    },
    {
      "type": "Feature",
      "properties": {
        "name": "Koidu"
      },
      "geometry": {
        "coordinates": [
          -10.9714,
          8.64387
        ],
        "type": "Point"
      }
    },
    {
      "type": "Feature",
      "properties": {
        "name": "Kenema"
      },
      "geometry": {
        "coordinates": [
          -11.19025,
          7.87687
        ],
        "type": "Point"
      }
    },
    {
      "type": "Feature",
      "properties": {
        "name": "Kayima"
      },
      "geometry": {
        "coordinates": [
          -11.15932,
          8.8879
        ],
        "type": "Point"
      }
    },
    {
      "type": "Feature",
      "properties": {
        "name": "Kassiri"
      },
      "geometry": {
        "coordinates": [
          -13.11541,
          8.93814
        ],
        "type": "Point"
      }
    },
    {
      "type": "Feature",
      "properties": {
        "name": "Kambia"
      },
      "geometry": {
        "coordinates": [
          -12.91816,
          9.12504
        ],
        "type": "Point"
      }
    },
    {
      "type": "Feature",
      "properties": {
        "name": "Kamakwie"
      },
      "geometry": {
        "coordinates": [
          -12.24061,
          9.49689
        ],
        "type": "Point"
      }
    },
    {
      "type": "Feature",
      "properties": {
        "name": "Kailahun"
      },
      "geometry": {
        "coordinates": [
          -10.573,
          8.2789
        ],
        "type": "Point"
      }
    },
    {
      "type": "Feature",
      "properties": {
        "name": "Kabala"
      },
      "geometry": {
        "coordinates": [
          -11.55256,
          9.58893
        ],
        "type": "Point"
      }
    },
    {
      "type": "Feature",
      "properties": {
        "name": "Jojoima"
      },
      "geometry": {
        "coordinates": [
          -10.78976,
          7.87815
        ],
        "type": "Point"
      }
    },
    {
      "type": "Feature",
      "properties": {
        "name": "Hastings"
      },
      "geometry": {
        "coordinates": [
          -13.13693,
          8.37994
        ],
        "type": "Point"
      }
    },
    {
      "type": "Feature",
      "properties": {
        "name": "Hangha"
      },
      "geometry": {
        "coordinates": [
          -11.14132,
          7.93974
        ],
        "type": "Point"
      }
    },
    {
      "type": "Feature",
      "properties": {
        "name": "Gorahun"
      },
      "geometry": {
        "coordinates": [
          -11.23952,
          7.46439
        ],
        "type": "Point"
      }
    },
    {
      "type": "Feature",
      "properties": {
        "name": "Freetown"
      },
      "geometry": {
        "coordinates": [
          -13.28972,
          8.43194
        ],
        "type": "Point"
      }
    },
    {
      "type": "Feature",
      "properties": {
        "name": "Giehun"
      },
      "geometry": {
        "coordinates": [
          -11.04908,
          7.88405
        ],
        "type": "Point"
      }
    },
    {
      "type": "Feature",
      "properties": {
        "name": "Gberia Fotombu"
      },
      "geometry": {
        "coordinates": [
          -11.16548,
          9.87852
        ],
        "type": "Point"
      }
    },
    {
      "type": "Feature",
      "properties": {
        "name": "Gandorhun"
      },
      "geometry": {
        "coordinates": [
          -11.6926,
          7.55502
        ],
        "type": "Point"
      }
    },
    {
      "type": "Feature",
      "properties": {
        "name": "Gandorhun"
      },
      "geometry": {
        "coordinates": [
          -11.83064,
          7.49431
        ],
        "type": "Point"
      }
    },
    {
      "type": "Feature",
      "properties": {
        "name": "Freetown"
      },
      "geometry": {
        "coordinates": [
          -13.22994,
          8.484
        ],
        "type": "Point"
      }
    },
    {
      "type": "Feature",
      "properties": {
        "name": "Foindu"
      },
      "geometry": {
        "coordinates": [
          -11.54328,
          7.40906
        ],
        "type": "Point"
      }
    },
    {
      "type": "Feature",
      "properties": {
        "name": "Daru"
      },
      "geometry": {
        "coordinates": [
          -10.84223,
          7.98976
        ],
        "type": "Point"
      }
    },
    {
      "type": "Feature",
      "properties": {
        "name": "Buedu"
      },
      "geometry": {
        "coordinates": [
          -10.37135,
          8.2796
        ],
        "type": "Point"
      }
    },
    {
      "type": "Feature",
      "properties": {
        "name": "Bunumbu"
      },
      "geometry": {
        "coordinates": [
          -10.86432,
          8.17421
        ],
        "type": "Point"
      }
    },
    {
      "type": "Feature",
      "properties": {
        "name": "Bumpe"
      },
      "geometry": {
        "coordinates": [
          -11.90541,
          7.89209
        ],
        "type": "Point"
      }
    },
    {
      "type": "Feature",
      "properties": {
        "name": "Bumbuna"
      },
      "geometry": {
        "coordinates": [
          -11.74576,
          9.04466
        ],
        "type": "Point"
      }
    },
    {
      "type": "Feature",
      "properties": {
        "name": "Bonthe"
      },
      "geometry": {
        "coordinates": [
          -12.505,
          7.52639
        ],
        "type": "Point"
      }
    },
    {
      "type": "Feature",
      "properties": {
        "name": "Bomi"
      },
      "geometry": {
        "coordinates": [
          -11.52583,
          7.24611
        ],
        "type": "Point"
      }
    },
    {
      "type": "Feature",
      "properties": {
        "name": "Boajibu"
      },
      "geometry": {
        "coordinates": [
          -11.34026,
          8.18763
        ],
        "type": "Point"
      }
    },
    {
      "type": "Feature",
      "properties": {
        "name": "Bo"
      },
      "geometry": {
        "coordinates": [
          -11.73833,
          7.96472
        ],
        "type": "Point"
      }
    },
    {
      "type": "Feature",
      "properties": {
        "name": "Blama"
      },
      "geometry": {
        "coordinates": [
          -11.34548,
          7.87481
        ],
        "type": "Point"
      }
    },
    {
      "type": "Feature",
      "properties": {
        "name": "Binkolo"
      },
      "geometry": {
        "coordinates": [
          -11.98029,
          8.95225
        ],
        "type": "Point"
      }
    },
    {
      "type": "Feature",
      "properties": {
        "name": "Bindi"
      },
      "geometry": {
        "coordinates": [
          -11.44669,
          9.91376
        ],
        "type": "Point"
      }
    },
    {
      "type": "Feature",
      "properties": {
        "name": "Barma"
      },
      "geometry": {
        "coordinates": [
          -11.33059,
          8.34959
        ],
        "type": "Point"
      }
    },
    {
      "type": "Feature",
      "properties": {
        "name": "Baoma"
      },
      "geometry": {
        "coordinates": [
          -11.71468,
          7.99344
        ],
        "type": "Point"
      }
    },
    {
      "type": "Feature",
      "properties": {
        "name": "Palima"
      },
      "geometry": {
        "coordinates": [
          -11.50702,
          8.11996
        ],
        "type": "Point"
      }
    },
    {
      "type": "Feature",
      "properties": {
        "name": "Baiima"
      },
      "geometry": {
        "coordinates": [
          -11.84772,
          8.10826
        ],
        "type": "Point"
      }
    },
    {
      "type": "Feature",
      "properties": {
        "name": "Alikalia"
      },
      "geometry": {
        "coordinates": [
          -11.38712,
          9.15356
        ],
        "type": "Point"
      }
    },
    {
      "type": "Feature",
      "properties": {
        "name": "Konakridee"
      },
      "geometry": {
        "coordinates": [
          -13.23917,
          8.69778
        ],
        "type": "Point"
      }
    },
    {
      "type": "Feature",
      "properties": {
        "name": "Gbewebu"
      },
      "geometry": {
        "coordinates": [
          -11.6075,
          7.55091
        ],
        "type": "Point"
      }
    },
    {
      "type": "Feature",
      "properties": {
        "name": "Pujehun"
      },
      "geometry": {
        "coordinates": [
          -11.72083,
          7.35806
        ],
        "type": "Point"
      }
    },
    {
      "type": "Feature",
      "properties": {
        "name": "Kent"
      },
      "geometry": {
        "coordinates": [
          -13.06667,
          8.33333
        ],
        "type": "Point"
      }
    }
  ]
}