{
  "type": "FeatureCollection",
  "features": [
    {
      "type": "Feature",
      "properties": {
        "name": "Zifta"
      },
      "geometry": {
        "coordinates": [
          31.24425,
          30.7142
        ],
        "type": "Point"
      }
    },
    {
      "type": "Feature",
      "properties": {
        "name": "Toukh"
      },
      "geometry": {
        "coordinates": [
          31.20071,
          30.35394
        ],
        "type": "Point"
      }
    },
    {
      "type": "Feature",
      "properties": {
        "name": "Tanda"
      },
      "geometry": {
        "coordinates": [
          31.00192,
          30.78847
        ],
        "type": "Point"
      }
    },
    {
      "type": "Feature",
      "properties": {
        "name": "Tamiyah"
      },
      "geometry": {
        "coordinates": [
          30.96119,
          29.47639
        ],
        "type": "Point"
      }
    },
    {
      "type": "Feature",
      "properties": {
        "name": "Talkha"
      },
      "geometry": {
        "coordinates": [
          31.37787,
          31.0539
        ],
        "type": "Point"
      }
    },
    {
      "type": "Feature",
      "properties": {
        "name": "Tala"
      },
      "geometry": {
        "coordinates": [
          30.94292,
          30.68025
        ],
        "type": "Point"
      }
    },
    {
      "type": "Feature",
      "properties": {
        "name": "Tahta"
      },
      "geometry": {
        "coordinates": [
          31.50214,
          26.7693
        ],
        "type": "Point"
      }
    },
    {
      "type": "Feature",
      "properties": {
        "name": "Sumusta as Sultani"
      },
      "geometry": {
        "coordinates": [
          30.85,
          28.91667
        ],
        "type": "Point"
      }
    },
    {
      "type": "Feature",
      "properties": {
        "name": "Sohag"
      },
      "geometry": {
        "coordinates": [
          31.69478,
          26.55695
        ],
        "type": "Point"
      }
    },
    {
      "type": "Feature",
      "properties": {
        "name": "Siwa Oasis"
      },
      "geometry": {
        "coordinates": [
          25.51965,
          29.2032
        ],
        "type": "Point"
      }
    },
    {
      "type": "Feature",
      "properties": {
        "name": "Sidi Salim"
      },
      "geometry": {
        "coordinates": [
          30.78617,
          31.27133
        ],
        "type": "Point"
      }
    },
    {
      "type": "Feature",
      "properties": {
        "name": "Shirbin"
      },
      "geometry": {
        "coordinates": [
          31.5243,
          31.19688
        ],
        "type": "Point"
      }
    },
    {
      "type": "Feature",
      "properties": {
        "name": "Shibin al Qanatir"
      },
      "geometry": {
        "coordinates": [
          31.32018,
          30.31269
        ],
        "type": "Point"
      }
    },
    {
      "type": "Feature",
      "properties": {
        "name": "Shibin al Kawm"
      },
      "geometry": {
        "coordinates": [
          31.00904,
          30.55258
        ],
        "type": "Point"
      }
    },
    {
      "type": "Feature",
      "properties": {
        "name": "Sharm el-Sheikh"
      },
      "geometry": {
        "coordinates": [
          34.32995,
          27.91582
        ],
        "type": "Point"
      }
    },
    {
      "type": "Feature",
      "properties": {
        "name": "Samannud"
      },
      "geometry": {
        "coordinates": [
          31.24069,
          30.9616
        ],
        "type": "Point"
      }
    },
    {
      "type": "Feature",
      "properties": {
        "name": "Samalut"
      },
      "geometry": {
        "coordinates": [
          30.71007,
          28.31214
        ],
        "type": "Point"
      }
    },
    {
      "type": "Feature",
      "properties": {
        "name": "Rosetta"
      },
      "geometry": {
        "coordinates": [
          30.41718,
          31.39951
        ],
        "type": "Point"
      }
    },
    {
      "type": "Feature",
      "properties": {
        "name": "Ras Gharib"
      },
      "geometry": {
        "coordinates": [
          33.07829,
          28.35831
        ],
        "type": "Point"
      }
    },
    {
      "type": "Feature",
      "properties": {
        "name": "Rafah"
      },
      "geometry": {
        "coordinates": [
          34.23869,
          31.28204
        ],
        "type": "Point"
      }
    },
    {
      "type": "Feature",
      "properties": {
        "name": "Quwaysina"
      },
      "geometry": {
        "coordinates": [
          31.15777,
          30.56482
        ],
        "type": "Point"
      }
    },
    {
      "type": "Feature",
      "properties": {
        "name": "Qutur"
      },
      "geometry": {
        "coordinates": [
          30.95614,
          30.97225
        ],
        "type": "Point"
      }
    },
    {
      "type": "Feature",
      "properties": {
        "name": "Kousa"
      },
      "geometry": {
        "coordinates": [
          32.76362,
          25.91407
        ],
        "type": "Point"
      }
    },
    {
      "type": "Feature",
      "properties": {
        "name": "Qina"
      },
      "geometry": {
        "coordinates": [
          32.72671,
          26.16418
        ],
        "type": "Point"
      }
    },
    {
      "type": "Feature",
      "properties": {
        "name": "Qasr al Farafirah"
      },
      "geometry": {
        "coordinates": [
          27.96979,
          27.0568
        ],
        "type": "Point"
      }
    },
    {
      "type": "Feature",
      "properties": {
        "name": "Qalyub"
      },
      "geometry": {
        "coordinates": [
          31.2056,
          30.17922
        ],
        "type": "Point"
      }
    },
    {
      "type": "Feature",
      "properties": {
        "name": "Nuwaybi`a"
      },
      "geometry": {
        "coordinates": [
          34.6634,
          29.04681
        ],
        "type": "Point"
      }
    },
    {
      "type": "Feature",
      "properties": {
        "name": "Naj` Hammadi"
      },
      "geometry": {
        "coordinates": [
          32.24142,
          26.04949
        ],
        "type": "Point"
      }
    },
    {
      "type": "Feature",
      "properties": {
        "name": "Minyat an Nasr"
      },
      "geometry": {
        "coordinates": [
          31.64313,
          31.12624
        ],
        "type": "Point"
      }
    },
    {
      "type": "Feature",
      "properties": {
        "name": "Munuf"
      },
      "geometry": {
        "coordinates": [
          30.93199,
          30.46597
        ],
        "type": "Point"
      }
    },
    {
      "type": "Feature",
      "properties": {
        "name": "Matay"
      },
      "geometry": {
        "coordinates": [
          30.77924,
          28.41899
        ],
        "type": "Point"
      }
    },
    {
      "type": "Feature",
      "properties": {
        "name": "Mashtul as Suq"
      },
      "geometry": {
        "coordinates": [
          31.3776,
          30.36056
        ],
        "type": "Point"
      }
    },
    {
      "type": "Feature",
      "properties": {
        "name": "Mersa Matruh"
      },
      "geometry": {
        "coordinates": [
          27.23725,
          31.3529
        ],
        "type": "Point"
      }
    },
    {
      "type": "Feature",
      "properties": {
        "name": "Marsa Alam"
      },
      "geometry": {
        "coordinates": [
          34.89005,
          25.06305
        ],
        "type": "Point"
      }
    },
    {
      "type": "Feature",
      "properties": {
        "name": "Manfalut"
      },
      "geometry": {
        "coordinates": [
          30.97004,
          27.3104
        ],
        "type": "Point"
      }
    },
    {
      "type": "Feature",
      "properties": {
        "name": "Mallawi"
      },
      "geometry": {
        "coordinates": [
          30.84165,
          27.7314
        ],
        "type": "Point"
      }
    },
    {
      "type": "Feature",
      "properties": {
        "name": "Madinat Sittah Uktubar"
      },
      "geometry": {
        "coordinates": [
          31.05,
          29.81667
        ],
        "type": "Point"
      }
    },
    {
      "type": "Feature",
      "properties": {
        "name": "Ash Shaykh Zuwayd"
      },
      "geometry": {
        "coordinates": [
          34.11074,
          31.2163
        ],
        "type": "Point"
      }
    },
    {
      "type": "Feature",
      "properties": {
        "name": "Kawm Umbu"
      },
      "geometry": {
        "coordinates": [
          32.94626,
          24.47669
        ],
        "type": "Point"
      }
    },
    {
      "type": "Feature",
      "properties": {
        "name": "Kawm Hamadah"
      },
      "geometry": {
        "coordinates": [
          30.69733,
          30.76095
        ],
        "type": "Point"
      }
    },
    {
      "type": "Feature",
      "properties": {
        "name": "Kafr Saqr"
      },
      "geometry": {
        "coordinates": [
          31.62575,
          30.79336
        ],
        "type": "Point"
      }
    },
    {
      "type": "Feature",
      "properties": {
        "name": "Kafr az Zayyat"
      },
      "geometry": {
        "coordinates": [
          30.81805,
          30.8248
        ],
        "type": "Point"
      }
    },
    {
      "type": "Feature",
      "properties": {
        "name": "Kafr ash Shaykh"
      },
      "geometry": {
        "coordinates": [
          30.93991,
          31.11174
        ],
        "type": "Point"
      }
    },
    {
      "type": "Feature",
      "properties": {
        "name": "Kafr ad Dawwar"
      },
      "geometry": {
        "coordinates": [
          30.12969,
          31.13379
        ],
        "type": "Point"
      }
    },
    {
      "type": "Feature",
      "properties": {
        "name": "Juhaynah"
      },
      "geometry": {
        "coordinates": [
          31.4976,
          26.67319
        ],
        "type": "Point"
      }
    },
    {
      "type": "Feature",
      "properties": {
        "name": "Jirja"
      },
      "geometry": {
        "coordinates": [
          31.89161,
          26.33826
        ],
        "type": "Point"
      }
    },
    {
      "type": "Feature",
      "properties": {
        "name": "`Izbat al Burj"
      },
      "geometry": {
        "coordinates": [
          31.84106,
          31.5084
        ],
        "type": "Point"
      }
    },
    {
      "type": "Feature",
      "properties": {
        "name": "Itsa"
      },
      "geometry": {
        "coordinates": [
          30.78944,
          29.2376
        ],
        "type": "Point"
      }
    },
    {
      "type": "Feature",
      "properties": {
        "name": "Isna"
      },
      "geometry": {
        "coordinates": [
          32.55402,
          25.29336
        ],
        "type": "Point"
      }
    },
    {
      "type": "Feature",
      "properties": {
        "name": "Idku"
      },
      "geometry": {
        "coordinates": [
          30.2981,
          31.3073
        ],
        "type": "Point"
      }
    },
    {
      "type": "Feature",
      "properties": {
        "name": "Idfu"
      },
      "geometry": {
        "coordinates": [
          32.87722,
          24.97916
        ],
        "type": "Point"
      }
    },
    {
      "type": "Feature",
      "properties": {
        "name": "Ibshaway"
      },
      "geometry": {
        "coordinates": [
          30.68142,
          29.35805
        ],
        "type": "Point"
      }
    },
    {
      "type": "Feature",
      "properties": {
        "name": "Halwan"
      },
      "geometry": {
        "coordinates": [
          31.30084,
          29.84144
        ],
        "type": "Point"
      }
    },
    {
      "type": "Feature",
      "properties": {
        "name": "Hihya"
      },
      "geometry": {
        "coordinates": [
          31.58801,
          30.6713
        ],
        "type": "Point"
      }
    },
    {
      "type": "Feature",
      "properties": {
        "name": "Hawsh `Isa"
      },
      "geometry": {
        "coordinates": [
          30.29019,
          30.9128
        ],
        "type": "Point"
      }
    },
    {
      "type": "Feature",
      "properties": {
        "name": "Fuwwah"
      },
      "geometry": {
        "coordinates": [
          30.54908,
          31.20365
        ],
        "type": "Point"
      }
    },
    {
      "type": "Feature",
      "properties": {
        "name": "Farshut"
      },
      "geometry": {
        "coordinates": [
          32.16329,
          26.05494
        ],
        "type": "Point"
      }
    },
    {
      "type": "Feature",
      "properties": {
        "name": "Faraskur"
      },
      "geometry": {
        "coordinates": [
          31.71507,
          31.32977
        ],
        "type": "Point"
      }
    },
    {
      "type": "Feature",
      "properties": {
        "name": "Faqus"
      },
      "geometry": {
        "coordinates": [
          31.79697,
          30.72816
        ],
        "type": "Point"
      }
    },
    {
      "type": "Feature",
      "properties": {
        "name": "Damietta"
      },
      "geometry": {
        "coordinates": [
          31.81332,
          31.41648
        ],
        "type": "Point"
      }
    },
    {
      "type": "Feature",
      "properties": {
        "name": "Diyarb Najm"
      },
      "geometry": {
        "coordinates": [
          31.44016,
          30.75438
        ],
        "type": "Point"
      }
    },
    {
      "type": "Feature",
      "properties": {
        "name": "Disuq"
      },
      "geometry": {
        "coordinates": [
          30.64784,
          31.13259
        ],
        "type": "Point"
      }
    },
    {
      "type": "Feature",
      "properties": {
        "name": "Dishna"
      },
      "geometry": {
        "coordinates": [
          32.47598,
          26.12467
        ],
        "type": "Point"
      }
    },
    {
      "type": "Feature",
      "properties": {
        "name": "Dikirnis"
      },
      "geometry": {
        "coordinates": [
          31.59478,
          31.08898
        ],
        "type": "Point"
      }
    },
    {
      "type": "Feature",
      "properties": {
        "name": "Dhahab"
      },
      "geometry": {
        "coordinates": [
          34.51338,
          28.50098
        ],
        "type": "Point"
      }
    },
    {
      "type": "Feature",
      "properties": {
        "name": "Dayrut"
      },
      "geometry": {
        "coordinates": [
          30.80764,
          27.55602
        ],
        "type": "Point"
      }
    },
    {
      "type": "Feature",
      "properties": {
        "name": "Dayr Mawas"
      },
      "geometry": {
        "coordinates": [
          30.84662,
          27.64176
        ],
        "type": "Point"
      }
    },
    {
      "type": "Feature",
      "properties": {
        "name": "Damanhur"
      },
      "geometry": {
        "coordinates": [
          30.46823,
          31.03408
        ],
        "type": "Point"
      }
    },
    {
      "type": "Feature",
      "properties": {
        "name": "Bush"
      },
      "geometry": {
        "coordinates": [
          31.12733,
          29.14816
        ],
        "type": "Point"
      }
    },
    {
      "type": "Feature",
      "properties": {
        "name": "Port Said"
      },
      "geometry": {
        "coordinates": [
          32.28411,
          31.25654
        ],
        "type": "Point"
      }
    },
    {
      "type": "Feature",
      "properties": {
        "name": "Safaga"
      },
      "geometry": {
        "coordinates": [
          33.93891,
          26.74906
        ],
        "type": "Point"
      }
    },
    {
      "type": "Feature",
      "properties": {
        "name": "Bilqas"
      },
      "geometry": {
        "coordinates": [
          31.35798,
          31.21452
        ],
        "type": "Point"
      }
    },
    {
      "type": "Feature",
      "properties": {
        "name": "Bilbays"
      },
      "geometry": {
        "coordinates": [
          31.56223,
          30.42039
        ],
        "type": "Point"
      }
    },
    {
      "type": "Feature",
      "properties": {
        "name": "Basyun"
      },
      "geometry": {
        "coordinates": [
          30.81338,
          30.93976
        ],
        "type": "Point"
      }
    },
    {
      "type": "Feature",
      "properties": {
        "name": "Bani Suwayf"
      },
      "geometry": {
        "coordinates": [
          31.09785,
          29.07441
        ],
        "type": "Point"
      }
    },
    {
      "type": "Feature",
      "properties": {
        "name": "Bani Mazar"
      },
      "geometry": {
        "coordinates": [
          30.8004,
          28.5036
        ],
        "type": "Point"
      }
    },
    {
      "type": "Feature",
      "properties": {
        "name": "Banha"
      },
      "geometry": {
        "coordinates": [
          31.17858,
          30.45906
        ],
        "type": "Point"
      }
    },
    {
      "type": "Feature",
      "properties": {
        "name": "Zagazig"
      },
      "geometry": {
        "coordinates": [
          31.502,
          30.58768
        ],
        "type": "Point"
      }
    },
    {
      "type": "Feature",
      "properties": {
        "name": "Awsim"
      },
      "geometry": {
        "coordinates": [
          31.13571,
          30.12303
        ],
        "type": "Point"
      }
    },
    {
      "type": "Feature",
      "properties": {
        "name": "El-Tor"
      },
      "geometry": {
        "coordinates": [
          33.6222,
          28.24168
        ],
        "type": "Point"
      }
    },
    {
      "type": "Feature",
      "properties": {
        "name": "At Tall al Kabir"
      },
      "geometry": {
        "coordinates": [
          31.78504,
          30.54323
        ],
        "type": "Point"
      }
    },
    {
      "type": "Feature",
      "properties": {
        "name": "Asyut"
      },
      "geometry": {
        "coordinates": [
          31.18368,
          27.18096
        ],
        "type": "Point"
      }
    },
    {
      "type": "Feature",
      "properties": {
        "name": "Aswan"
      },
      "geometry": {
        "coordinates": [
          32.89942,
          24.09082
        ],
        "type": "Point"
      }
    },
    {
      "type": "Feature",
      "properties": {
        "name": "Suez"
      },
      "geometry": {
        "coordinates": [
          32.52627,
          29.97371
        ],
        "type": "Point"
      }
    },
    {
      "type": "Feature",
      "properties": {
        "name": "As Saff"
      },
      "geometry": {
        "coordinates": [
          31.28111,
          29.56472
        ],
        "type": "Point"
      }
    },
    {
      "type": "Feature",
      "properties": {
        "name": "Ash Shuhada'"
      },
      "geometry": {
        "coordinates": [
          30.89875,
          30.59618
        ],
        "type": "Point"
      }
    },
    {
      "type": "Feature",
      "properties": {
        "name": "Ashmun"
      },
      "geometry": {
        "coordinates": [
          30.97641,
          30.29735
        ],
        "type": "Point"
      }
    },
    {
      "type": "Feature",
      "properties": {
        "name": "Al Wasitah"
      },
      "geometry": {
        "coordinates": [
          31.20556,
          29.33778
        ],
        "type": "Point"
      }
    },
    {
      "type": "Feature",
      "properties": {
        "name": "Luxor"
      },
      "geometry": {
        "coordinates": [
          32.6421,
          25.69893
        ],
        "type": "Point"
      }
    },
    {
      "type": "Feature",
      "properties": {
        "name": "Al Qusiyah"
      },
      "geometry": {
        "coordinates": [
          30.81841,
          27.4402
        ],
        "type": "Point"
      }
    },
    {
      "type": "Feature",
      "properties": {
        "name": "Al Qusayr"
      },
      "geometry": {
        "coordinates": [
          34.27793,
          26.10426
        ],
        "type": "Point"
      }
    },
    {
      "type": "Feature",
      "properties": {
        "name": "Al Qurayn"
      },
      "geometry": {
        "coordinates": [
          31.73514,
          30.61618
        ],
        "type": "Point"
      }
    },
    {
      "type": "Feature",
      "properties": {
        "name": "Al Qanayat"
      },
      "geometry": {
        "coordinates": [
          31.46099,
          30.6188
        ],
        "type": "Point"
      }
    },
    {
      "type": "Feature",
      "properties": {
        "name": "Al Qanatir al Khayriyah"
      },
      "geometry": {
        "coordinates": [
          31.13703,
          30.19327
        ],
        "type": "Point"
      }
    },
    {
      "type": "Feature",
      "properties": {
        "name": "Cairo"
      },
      "geometry": {
        "coordinates": [
          31.24967,
          30.06263
        ],
        "type": "Point"
      }
    },
    {
      "type": "Feature",
      "properties": {
        "name": "Al Minya"
      },
      "geometry": {
        "coordinates": [
          30.7503,
          28.10988
        ],
        "type": "Point"
      }
    },
    {
      "type": "Feature",
      "properties": {
        "name": "Al Matariyah"
      },
      "geometry": {
        "coordinates": [
          32.03108,
          31.18287
        ],
        "type": "Point"
      }
    },
    {
      "type": "Feature",
      "properties": {
        "name": "Al Manzalah"
      },
      "geometry": {
        "coordinates": [
          31.936,
          31.15823
        ],
        "type": "Point"
      }
    },
    {
      "type": "Feature",
      "properties": {
        "name": "Al Mansurah"
      },
      "geometry": {
        "coordinates": [
          31.38069,
          31.03637
        ],
        "type": "Point"
      }
    },
    {
      "type": "Feature",
      "properties": {
        "name": "Al Manshah"
      },
      "geometry": {
        "coordinates": [
          31.8035,
          26.47686
        ],
        "type": "Point"
      }
    },
    {
      "type": "Feature",
      "properties": {
        "name": "Al Mahallah al Kubra"
      },
      "geometry": {
        "coordinates": [
          31.1669,
          30.97063
        ],
        "type": "Point"
      }
    },
    {
      "type": "Feature",
      "properties": {
        "name": "Al Kharijah"
      },
      "geometry": {
        "coordinates": [
          30.54635,
          25.45141
        ],
        "type": "Point"
      }
    },
    {
      "type": "Feature",
      "properties": {
        "name": "Al Khankah"
      },
      "geometry": {
        "coordinates": [
          31.36812,
          30.21035
        ],
        "type": "Point"
      }
    },
    {
      "type": "Feature",
      "properties": {
        "name": "Giza"
      },
      "geometry": {
        "coordinates": [
          31.21093,
          30.00808
        ],
        "type": "Point"
      }
    },
    {
      "type": "Feature",
      "properties": {
        "name": "Al Jammaliyah"
      },
      "geometry": {
        "coordinates": [
          31.86497,
          31.18065
        ],
        "type": "Point"
      }
    },
    {
      "type": "Feature",
      "properties": {
        "name": "Ismailia"
      },
      "geometry": {
        "coordinates": [
          32.27225,
          30.60427
        ],
        "type": "Point"
      }
    },
    {
      "type": "Feature",
      "properties": {
        "name": "Alexandria"
      },
      "geometry": {
        "coordinates": [
          29.95527,
          31.21564
        ],
        "type": "Point"
      }
    },
    {
      "type": "Feature",
      "properties": {
        "name": "Al Ibrahimiyah"
      },
      "geometry": {
        "coordinates": [
          31.56299,
          30.71877
        ],
        "type": "Point"
      }
    },
    {
      "type": "Feature",
      "properties": {
        "name": "Al Hawamidiyah"
      },
      "geometry": {
        "coordinates": [
          31.25,
          29.9
        ],
        "type": "Point"
      }
    },
    {
      "type": "Feature",
      "properties": {
        "name": "Al Hamul"
      },
      "geometry": {
        "coordinates": [
          31.14766,
          31.31146
        ],
        "type": "Point"
      }
    },
    {
      "type": "Feature",
      "properties": {
        "name": "Hurghada"
      },
      "geometry": {
        "coordinates": [
          33.81291,
          27.25738
        ],
        "type": "Point"
      }
    },
    {
      "type": "Feature",
      "properties": {
        "name": "Al Fayyum"
      },
      "geometry": {
        "coordinates": [
          30.8418,
          29.30995
        ],
        "type": "Point"
      }
    },
    {
      "type": "Feature",
      "properties": {
        "name": "Al Fashn"
      },
      "geometry": {
        "coordinates": [
          30.89948,
          28.82431
        ],
        "type": "Point"
      }
    },
    {
      "type": "Feature",
      "properties": {
        "name": "Al Bawiti"
      },
      "geometry": {
        "coordinates": [
          28.86591,
          28.34919
        ],
        "type": "Point"
      }
    },
    {
      "type": "Feature",
      "properties": {
        "name": "Al Balyana"
      },
      "geometry": {
        "coordinates": [
          32.00347,
          26.23568
        ],
        "type": "Point"
      }
    },
    {
      "type": "Feature",
      "properties": {
        "name": "Al Bajur"
      },
      "geometry": {
        "coordinates": [
          31.03681,
          30.43026
        ],
        "type": "Point"
      }
    },
    {
      "type": "Feature",
      "properties": {
        "name": "Al Badari"
      },
      "geometry": {
        "coordinates": [
          31.41554,
          26.99257
        ],
        "type": "Point"
      }
    },
    {
      "type": "Feature",
      "properties": {
        "name": "Al `Ayyat"
      },
      "geometry": {
        "coordinates": [
          31.2575,
          29.61972
        ],
        "type": "Point"
      }
    },
    {
      "type": "Feature",
      "properties": {
        "name": "Arish"
      },
      "geometry": {
        "coordinates": [
          33.79844,
          31.13159
        ],
        "type": "Point"
      }
    },
    {
      "type": "Feature",
      "properties": {
        "name": "Al `Alamayn"
      },
      "geometry": {
        "coordinates": [
          28.95502,
          30.83007
        ],
        "type": "Point"
      }
    },
    {
      "type": "Feature",
      "properties": {
        "name": "Akhmim"
      },
      "geometry": {
        "coordinates": [
          31.74503,
          26.56217
        ],
        "type": "Point"
      }
    },
    {
      "type": "Feature",
      "properties": {
        "name": "Aja"
      },
      "geometry": {
        "coordinates": [
          31.29039,
          30.94162
        ],
        "type": "Point"
      }
    },
    {
      "type": "Feature",
      "properties": {
        "name": "Ad Dilinjat"
      },
      "geometry": {
        "coordinates": [
          30.53633,
          30.82791
        ],
        "type": "Point"
      }
    },
    {
      "type": "Feature",
      "properties": {
        "name": "Abu Tij"
      },
      "geometry": {
        "coordinates": [
          31.31897,
          27.04411
        ],
        "type": "Point"
      }
    },
    {
      "type": "Feature",
      "properties": {
        "name": "Abu Simbel"
      },
      "geometry": {
        "coordinates": [
          31.61624,
          22.3457
        ],
        "type": "Point"
      }
    },
    {
      "type": "Feature",
      "properties": {
        "name": "Abu Qurqas"
      },
      "geometry": {
        "coordinates": [
          30.83841,
          27.9312
        ],
        "type": "Point"
      }
    },
    {
      "type": "Feature",
      "properties": {
        "name": "Abu Kabir"
      },
      "geometry": {
        "coordinates": [
          31.67148,
          30.72508
        ],
        "type": "Point"
      }
    },
    {
      "type": "Feature",
      "properties": {
        "name": "Abu al Matamir"
      },
      "geometry": {
        "coordinates": [
          30.17438,
          30.91018
        ],
        "type": "Point"
      }
    },
    {
      "type": "Feature",
      "properties": {
        "name": "Abnub"
      },
      "geometry": {
        "coordinates": [
          31.15105,
          27.2696
        ],
        "type": "Point"
      }
    },
    {
      "type": "Feature",
      "properties": {
        "name": "Bi'r al `Abd"
      },
      "geometry": {
        "coordinates": [
          33.0098,
          31.01887
        ],
        "type": "Point"
      }
    },
    {
      "type": "Feature",
      "properties": {
        "name": "Az Zarqa"
      },
      "geometry": {
        "coordinates": [
          31.63528,
          31.20864
        ],
        "type": "Point"
      }
    },
    {
      "type": "Feature",
      "properties": {
        "name": "El Gouna"
      },
      "geometry": {
        "coordinates": [
          33.67825,
          27.39417
        ],
        "type": "Point"
      }
    },
    {
      "type": "Feature",
      "properties": {
        "name": "Makadi Bay"
      },
      "geometry": {
        "coordinates": [
          33.89952,
          26.99123
        ],
        "type": "Point"
      }
    },
    {
      "type": "Feature",
      "properties": {
        "name": "Ain Sukhna"
      },
      "geometry": {
        "coordinates": [
          32.31671,
          29.60018
        ],
        "type": "Point"
      }
    },
    {
      "type": "Feature",
      "properties": {
        "name": "Beheira"
      },
      "geometry": {
        "coordinates": [
          30.34355,
          30.51478
        ],
        "type": "Point"
      }
    },
    {
      "type": "Feature",
      "properties": {
        "name": "Saint Catherine"
      },
      "geometry": {
        "coordinates": [
          33.94934,
          28.56191
        ],
        "type": "Point"
      }
    }
  ]
}