{
  "type": "FeatureCollection",
  "features": [
    {
      "type": "Feature",
      "properties": {
        "name": "Sibiti"
      },
      "geometry": {
        "coordinates": [
          13.34985,
          -3.68192
        ],
        "type": "Point"
      }
    },
    {
      "type": "Feature",
      "properties": {
        "name": "Sembe"
      },
      "geometry": {
        "coordinates": [
          14.58056,
          1.64806
        ],
        "type": "Point"
      }
    },
    {
      "type": "Feature",
      "properties": {
        "name": "Pointe-Noire"
      },
      "geometry": {
        "coordinates": [
          11.86352,
          -4.77609
        ],
        "type": "Point"
      }
    },
    {
      "type": "Feature",
      "properties": {
        "name": "Owando"
      },
      "geometry": {
        "coordinates": [
          15.89988,
          -0.48193
        ],
        "type": "Point"
      }
    },
    {
      "type": "Feature",
      "properties": {
        "name": "Ouesso"
      },
      "geometry": {
        "coordinates": [
          16.05167,
          1.61361
        ],
        "type": "Point"
      }
    },
    {
      "type": "Feature",
      "properties": {
        "name": "Mossendjo"
      },
      "geometry": {
        "coordinates": [
          12.70423,
          -2.94968
        ],
        "type": "Point"
      }
    },
    {
      "type": "Feature",
      "properties": {
        "name": "Makoua"
      },
      "geometry": {
        "coordinates": [
          15.63333,
          0.00694
        ],
        "type": "Point"
      }
    },
    {
      "type": "Feature",
      "properties": {
        "name": "Madingou"
      },
      "geometry": {
        "coordinates": [
          13.55,
          -4.15361
        ],
        "type": "Point"
      }
    },
    {
      "type": "Feature",
      "properties": {
        "name": "Dolisie"
      },
      "geometry": {
        "coordinates": [
          12.66664,
          -4.19834
        ],
        "type": "Point"
      }
    },
    {
      "type": "Feature",
      "properties": {
        "name": "Loango"
      },
      "geometry": {
        "coordinates": [
          11.8125,
          -4.65194
        ],
        "type": "Point"
      }
    },
    {
      "type": "Feature",
      "properties": {
        "name": "Loandjili"
      },
      "geometry": {
        "coordinates": [
          11.85778,
          -4.75611
        ],
        "type": "Point"
      }
    },
    {
      "type": "Feature",
      "properties": {
        "name": "Kinkala"
      },
      "geometry": {
        "coordinates": [
          14.76444,
          -4.36139
        ],
        "type": "Point"
      }
    },
    {
      "type": "Feature",
      "properties": {
        "name": "Kayes"
      },
      "geometry": {
        "coordinates": [
          13.28608,
          -4.20493
        ],
        "type": "Point"
      }
    },
    {
      "type": "Feature",
      "properties": {
        "name": "Impfondo"
      },
      "geometry": {
        "coordinates": [
          18.05981,
          1.61804
        ],
        "type": "Point"
      }
    },
    {
      "type": "Feature",
      "properties": {
        "name": "Gamboma"
      },
      "geometry": {
        "coordinates": [
          15.86444,
          -1.87639
        ],
        "type": "Point"
      }
    },
    {
      "type": "Feature",
      "properties": {
        "name": "Ewo"
      },
      "geometry": {
        "coordinates": [
          14.82056,
          -0.8725
        ],
        "type": "Point"
      }
    },
    {
      "type": "Feature",
      "properties": {
        "name": "Djambala"
      },
      "geometry": {
        "coordinates": [
          14.75333,
          -2.54472
        ],
        "type": "Point"
      }
    },
    {
      "type": "Feature",
      "properties": {
        "name": "Brazzaville"
      },
      "geometry": {
        "coordinates": [
          15.28318,
          -4.26613
        ],
        "type": "Point"
      }
    },
    {
      "type": "Feature",
      "properties": {
        "name": "Nkayi"
      },
      "geometry": {
        "coordinates": [
          13.2859,
          -4.18396
        ],
        "type": "Point"
      }
    }
  ]
}