{
  "type": "FeatureCollection",
  "features": [
    {
      "type": "Feature",
      "properties": {
        "name": "Youwarou"
      },
      "geometry": {
        "coordinates": [
          -4.2628,
          15.3684
        ],
        "type": "Point"
      }
    },
    {
      "type": "Feature",
      "properties": {
        "name": "Yorosso"
      },
      "geometry": {
        "coordinates": [
          -4.77688,
          12.35811
        ],
        "type": "Point"
      }
    },
    {
      "type": "Feature",
      "properties": {
        "name": "Yelimane"
      },
      "geometry": {
        "coordinates": [
          -10.57729,
          15.11868
        ],
        "type": "Point"
      }
    },
    {
      "type": "Feature",
      "properties": {
        "name": "Yanfolila"
      },
      "geometry": {
        "coordinates": [
          -8.15,
          11.18333
        ],
        "type": "Point"
      }
    },
    {
      "type": "Feature",
      "properties": {
        "name": "Tominian"
      },
      "geometry": {
        "coordinates": [
          -4.59317,
          13.28737
        ],
        "type": "Point"
      }
    },
    {
      "type": "Feature",
      "properties": {
        "name": "Timbuktu"
      },
      "geometry": {
        "coordinates": [
          -3.00742,
          16.77348
        ],
        "type": "Point"
      }
    },
    {
      "type": "Feature",
      "properties": {
        "name": "Tessalit"
      },
      "geometry": {
        "coordinates": [
          1.01186,
          20.20126
        ],
        "type": "Point"
      }
    },
    {
      "type": "Feature",
      "properties": {
        "name": "Tenenkou"
      },
      "geometry": {
        "coordinates": [
          -4.9169,
          14.45722
        ],
        "type": "Point"
      }
    },
    {
      "type": "Feature",
      "properties": {
        "name": "Taoudenni"
      },
      "geometry": {
        "coordinates": [
          -3.97891,
          22.67443
        ],
        "type": "Point"
      }
    },
    {
      "type": "Feature",
      "properties": {
        "name": "Sokolo"
      },
      "geometry": {
        "coordinates": [
          -6.1219,
          14.7328
        ],
        "type": "Point"
      }
    },
    {
      "type": "Feature",
      "properties": {
        "name": "Sikasso"
      },
      "geometry": {
        "coordinates": [
          -5.66654,
          11.31755
        ],
        "type": "Point"
      }
    },
    {
      "type": "Feature",
      "properties": {
        "name": "Seguela"
      },
      "geometry": {
        "coordinates": [
          -6.72865,
          14.11266
        ],
        "type": "Point"
      }
    },
    {
      "type": "Feature",
      "properties": {
        "name": "Segou"
      },
      "geometry": {
        "coordinates": [
          -6.2157,
          13.4317
        ],
        "type": "Point"
      }
    },
    {
      "type": "Feature",
      "properties": {
        "name": "San"
      },
      "geometry": {
        "coordinates": [
          -4.89562,
          13.30335
        ],
        "type": "Point"
      }
    },
    {
      "type": "Feature",
      "properties": {
        "name": "Sagalo"
      },
      "geometry": {
        "coordinates": [
          -10.7,
          12.2
        ],
        "type": "Point"
      }
    },
    {
      "type": "Feature",
      "properties": {
        "name": "Ntossoni"
      },
      "geometry": {
        "coordinates": [
          -5.77003,
          12.5304
        ],
        "type": "Point"
      }
    },
    {
      "type": "Feature",
      "properties": {
        "name": "Nioro"
      },
      "geometry": {
        "coordinates": [
          -9.59277,
          15.22932
        ],
        "type": "Point"
      }
    },
    {
      "type": "Feature",
      "properties": {
        "name": "Niono"
      },
      "geometry": {
        "coordinates": [
          -5.993,
          14.2526
        ],
        "type": "Point"
      }
    },
    {
      "type": "Feature",
      "properties": {
        "name": "Niafunke"
      },
      "geometry": {
        "coordinates": [
          -3.9906,
          15.9322
        ],
        "type": "Point"
      }
    },
    {
      "type": "Feature",
      "properties": {
        "name": "Nara"
      },
      "geometry": {
        "coordinates": [
          -7.28466,
          15.16875
        ],
        "type": "Point"
      }
    },
    {
      "type": "Feature",
      "properties": {
        "name": "Mopti"
      },
      "geometry": {
        "coordinates": [
          -4.18296,
          14.4843
        ],
        "type": "Point"
      }
    },
    {
      "type": "Feature",
      "properties": {
        "name": "Menaka"
      },
      "geometry": {
        "coordinates": [
          2.4022,
          15.9182
        ],
        "type": "Point"
      }
    },
    {
      "type": "Feature",
      "properties": {
        "name": "Markala"
      },
      "geometry": {
        "coordinates": [
          -6.0659,
          13.7021
        ],
        "type": "Point"
      }
    },
    {
      "type": "Feature",
      "properties": {
        "name": "Koutiala"
      },
      "geometry": {
        "coordinates": [
          -5.46421,
          12.39173
        ],
        "type": "Point"
      }
    },
    {
      "type": "Feature",
      "properties": {
        "name": "Koulikoro"
      },
      "geometry": {
        "coordinates": [
          -7.55985,
          12.86273
        ],
        "type": "Point"
      }
    },
    {
      "type": "Feature",
      "properties": {
        "name": "Koro"
      },
      "geometry": {
        "coordinates": [
          -3.07539,
          14.064
        ],
        "type": "Point"
      }
    },
    {
      "type": "Feature",
      "properties": {
        "name": "Kolondieba"
      },
      "geometry": {
        "coordinates": [
          -6.8929,
          11.08943
        ],
        "type": "Point"
      }
    },
    {
      "type": "Feature",
      "properties": {
        "name": "Kolokani"
      },
      "geometry": {
        "coordinates": [
          -8.0339,
          13.5728
        ],
        "type": "Point"
      }
    },
    {
      "type": "Feature",
      "properties": {
        "name": "Kokofata"
      },
      "geometry": {
        "coordinates": [
          -9.95,
          12.88333
        ],
        "type": "Point"
      }
    },
    {
      "type": "Feature",
      "properties": {
        "name": "Kita"
      },
      "geometry": {
        "coordinates": [
          -9.4895,
          13.0349
        ],
        "type": "Point"
      }
    },
    {
      "type": "Feature",
      "properties": {
        "name": "Kidal"
      },
      "geometry": {
        "coordinates": [
          1.40778,
          18.44111
        ],
        "type": "Point"
      }
    },
    {
      "type": "Feature",
      "properties": {
        "name": "Kinmparana"
      },
      "geometry": {
        "coordinates": [
          -4.9245,
          12.84217
        ],
        "type": "Point"
      }
    },
    {
      "type": "Feature",
      "properties": {
        "name": "Ke-Macina"
      },
      "geometry": {
        "coordinates": [
          -5.35791,
          13.9641
        ],
        "type": "Point"
      }
    },
    {
      "type": "Feature",
      "properties": {
        "name": "Kayes"
      },
      "geometry": {
        "coordinates": [
          -11.44448,
          14.44693
        ],
        "type": "Point"
      }
    },
    {
      "type": "Feature",
      "properties": {
        "name": "Kati"
      },
      "geometry": {
        "coordinates": [
          -8.07257,
          12.74409
        ],
        "type": "Point"
      }
    },
    {
      "type": "Feature",
      "properties": {
        "name": "Kangaba"
      },
      "geometry": {
        "coordinates": [
          -8.41667,
          11.93333
        ],
        "type": "Point"
      }
    },
    {
      "type": "Feature",
      "properties": {
        "name": "Kadiolo"
      },
      "geometry": {
        "coordinates": [
          -5.76667,
          10.55
        ],
        "type": "Point"
      }
    },
    {
      "type": "Feature",
      "properties": {
        "name": "Gourma Rharous"
      },
      "geometry": {
        "coordinates": [
          -1.92306,
          16.87778
        ],
        "type": "Point"
      }
    },
    {
      "type": "Feature",
      "properties": {
        "name": "Goundam"
      },
      "geometry": {
        "coordinates": [
          -3.67075,
          16.41453
        ],
        "type": "Point"
      }
    },
    {
      "type": "Feature",
      "properties": {
        "name": "Gao"
      },
      "geometry": {
        "coordinates": [
          -0.04472,
          16.27167
        ],
        "type": "Point"
      }
    },
    {
      "type": "Feature",
      "properties": {
        "name": "Douentza"
      },
      "geometry": {
        "coordinates": [
          -2.94978,
          15.00155
        ],
        "type": "Point"
      }
    },
    {
      "type": "Feature",
      "properties": {
        "name": "Djenne"
      },
      "geometry": {
        "coordinates": [
          -4.55332,
          13.90608
        ],
        "type": "Point"
      }
    },
    {
      "type": "Feature",
      "properties": {
        "name": "Dire"
      },
      "geometry": {
        "coordinates": [
          -3.40126,
          16.25705
        ],
        "type": "Point"
      }
    },
    {
      "type": "Feature",
      "properties": {
        "name": "Dire"
      },
      "geometry": {
        "coordinates": [
          -10.96667,
          12.28333
        ],
        "type": "Point"
      }
    },
    {
      "type": "Feature",
      "properties": {
        "name": "Dioila"
      },
      "geometry": {
        "coordinates": [
          -6.7911,
          12.4822
        ],
        "type": "Point"
      }
    },
    {
      "type": "Feature",
      "properties": {
        "name": "Diema"
      },
      "geometry": {
        "coordinates": [
          -9.1921,
          14.54
        ],
        "type": "Point"
      }
    },
    {
      "type": "Feature",
      "properties": {
        "name": "Bourem"
      },
      "geometry": {
        "coordinates": [
          -0.34861,
          16.955
        ],
        "type": "Point"
      }
    },
    {
      "type": "Feature",
      "properties": {
        "name": "Bougouni"
      },
      "geometry": {
        "coordinates": [
          -7.48323,
          11.41769
        ],
        "type": "Point"
      }
    },
    {
      "type": "Feature",
      "properties": {
        "name": "Bla"
      },
      "geometry": {
        "coordinates": [
          -5.76024,
          12.95007
        ],
        "type": "Point"
      }
    },
    {
      "type": "Feature",
      "properties": {
        "name": "Baroueli"
      },
      "geometry": {
        "coordinates": [
          -6.8312,
          13.077
        ],
        "type": "Point"
      }
    },
    {
      "type": "Feature",
      "properties": {
        "name": "Bankass"
      },
      "geometry": {
        "coordinates": [
          -3.51594,
          14.0775
        ],
        "type": "Point"
      }
    },
    {
      "type": "Feature",
      "properties": {
        "name": "Bandiagara"
      },
      "geometry": {
        "coordinates": [
          -3.61038,
          14.35005
        ],
        "type": "Point"
      }
    },
    {
      "type": "Feature",
      "properties": {
        "name": "Banamba"
      },
      "geometry": {
        "coordinates": [
          -7.44808,
          13.54773
        ],
        "type": "Point"
      }
    },
    {
      "type": "Feature",
      "properties": {
        "name": "Bamako"
      },
      "geometry": {
        "coordinates": [
          -8.0,
          12.65
        ],
        "type": "Point"
      }
    },
    {
      "type": "Feature",
      "properties": {
        "name": "Bafoulabe"
      },
      "geometry": {
        "coordinates": [
          -10.8321,
          13.8065
        ],
        "type": "Point"
      }
    },
    {
      "type": "Feature",
      "properties": {
        "name": "Araouane"
      },
      "geometry": {
        "coordinates": [
          -3.52649,
          18.90476
        ],
        "type": "Point"
      }
    },
    {
      "type": "Feature",
      "properties": {
        "name": "Ansongo"
      },
      "geometry": {
        "coordinates": [
          0.5022,
          15.6597
        ],
        "type": "Point"
      }
    },
    {
      "type": "Feature",
      "properties": {
        "name": "Abeibara"
      },
      "geometry": {
        "coordinates": [
          1.75,
          19.11667
        ],
        "type": "Point"
      }
    },
    {
      "type": "Feature",
      "properties": {
        "name": "Inekar"
      },
      "geometry": {
        "coordinates": [
          3.14111,
          15.95944
        ],
        "type": "Point"
      }
    },
    {
      "type": "Feature",
      "properties": {
        "name": "Ti-n-Essako"
      },
      "geometry": {
        "coordinates": [
          2.48795,
          18.45059
        ],
        "type": "Point"
      }
    },
    {
      "type": "Feature",
      "properties": {
        "name": "Leleni"
      },
      "geometry": {
        "coordinates": [
          -5.24528,
          12.38944
        ],
        "type": "Point"
      }
    },
    {
      "type": "Feature",
      "properties": {
        "name": "Figuira-Toma"
      },
      "geometry": {
        "coordinates": [
          -8.36667,
          11.91667
        ],
        "type": "Point"
      }
    }
  ]
}