{
  "type": "FeatureCollection",
  "features": [
    {
      "type": "Feature",
      "properties": {
        "name": "Wellingara Ba"
      },
      "geometry": {
        "coordinates": [
          -15.4,
          13.41667
        ],
        "type": "Point"
      }
    },
    {
      "type": "Feature",
      "properties": {
        "name": "Wassu"
      },
      "geometry": {
        "coordinates": [
          -14.87884,
          13.69094
        ],
        "type": "Point"
      }
    },
    {
      "type": "Feature",
      "properties": {
        "name": "Toniataba"
      },
      "geometry": {
        "coordinates": [
          -15.58333,
          13.43333
        ],
        "type": "Point"
      }
    },
    {
      "type": "Feature",
      "properties": {
        "name": "Sutukung"
      },
      "geometry": {
        "coordinates": [
          -15.26667,
          13.46667
        ],
        "type": "Point"
      }
    },
    {
      "type": "Feature",
      "properties": {
        "name": "Sutukoba"
      },
      "geometry": {
        "coordinates": [
          -14.01667,
          13.5
        ],
        "type": "Point"
      }
    },
    {
      "type": "Feature",
      "properties": {
        "name": "Sun Kunda"
      },
      "geometry": {
        "coordinates": [
          -13.85,
          13.38333
        ],
        "type": "Point"
      }
    },
    {
      "type": "Feature",
      "properties": {
        "name": "Sukuta"
      },
      "geometry": {
        "coordinates": [
          -14.91667,
          13.61667
        ],
        "type": "Point"
      }
    },
    {
      "type": "Feature",
      "properties": {
        "name": "Sukuta"
      },
      "geometry": {
        "coordinates": [
          -16.70815,
          13.41033
        ],
        "type": "Point"
      }
    },
    {
      "type": "Feature",
      "properties": {
        "name": "Sudowol"
      },
      "geometry": {
        "coordinates": [
          -13.96667,
          13.36667
        ],
        "type": "Point"
      }
    },
    {
      "type": "Feature",
      "properties": {
        "name": "Somita"
      },
      "geometry": {
        "coordinates": [
          -16.30556,
          13.20583
        ],
        "type": "Point"
      }
    },
    {
      "type": "Feature",
      "properties": {
        "name": "Soma"
      },
      "geometry": {
        "coordinates": [
          -15.53333,
          13.43333
        ],
        "type": "Point"
      }
    },
    {
      "type": "Feature",
      "properties": {
        "name": "Si Kunda"
      },
      "geometry": {
        "coordinates": [
          -15.56667,
          13.43333
        ],
        "type": "Point"
      }
    },
    {
      "type": "Feature",
      "properties": {
        "name": "Saruja"
      },
      "geometry": {
        "coordinates": [
          -14.91667,
          13.55
        ],
        "type": "Point"
      }
    },
    {
      "type": "Feature",
      "properties": {
        "name": "Sara Kunda"
      },
      "geometry": {
        "coordinates": [
          -15.41667,
          13.53333
        ],
        "type": "Point"
      }
    },
    {
      "type": "Feature",
      "properties": {
        "name": "Sankwia"
      },
      "geometry": {
        "coordinates": [
          -15.51667,
          13.46667
        ],
        "type": "Point"
      }
    },
    {
      "type": "Feature",
      "properties": {
        "name": "Sami"
      },
      "geometry": {
        "coordinates": [
          -15.2,
          13.58333
        ],
        "type": "Point"
      }
    },
    {
      "type": "Feature",
      "properties": {
        "name": "Sabi"
      },
      "geometry": {
        "coordinates": [
          -14.2,
          13.23333
        ],
        "type": "Point"
      }
    },
    {
      "type": "Feature",
      "properties": {
        "name": "Saba"
      },
      "geometry": {
        "coordinates": [
          -16.04917,
          13.51639
        ],
        "type": "Point"
      }
    },
    {
      "type": "Feature",
      "properties": {
        "name": "Perai"
      },
      "geometry": {
        "coordinates": [
          -14.03333,
          13.38333
        ],
        "type": "Point"
      }
    },
    {
      "type": "Feature",
      "properties": {
        "name": "Pateh Sam"
      },
      "geometry": {
        "coordinates": [
          -15.06667,
          13.61667
        ],
        "type": "Point"
      }
    },
    {
      "type": "Feature",
      "properties": {
        "name": "Nyamanari"
      },
      "geometry": {
        "coordinates": [
          -13.86667,
          13.33333
        ],
        "type": "Point"
      }
    },
    {
      "type": "Feature",
      "properties": {
        "name": "No Kunda"
      },
      "geometry": {
        "coordinates": [
          -15.83333,
          13.56667
        ],
        "type": "Point"
      }
    },
    {
      "type": "Feature",
      "properties": {
        "name": "Nioro"
      },
      "geometry": {
        "coordinates": [
          -15.75,
          13.35
        ],
        "type": "Point"
      }
    },
    {
      "type": "Feature",
      "properties": {
        "name": "Mansa Konko"
      },
      "geometry": {
        "coordinates": [
          -15.5357,
          13.44325
        ],
        "type": "Point"
      }
    },
    {
      "type": "Feature",
      "properties": {
        "name": "Lamin"
      },
      "geometry": {
        "coordinates": [
          -16.43389,
          13.35222
        ],
        "type": "Point"
      }
    },
    {
      "type": "Feature",
      "properties": {
        "name": "Kunting"
      },
      "geometry": {
        "coordinates": [
          -14.66667,
          13.53333
        ],
        "type": "Point"
      }
    },
    {
      "type": "Feature",
      "properties": {
        "name": "Kuntaur"
      },
      "geometry": {
        "coordinates": [
          -14.88977,
          13.67085
        ],
        "type": "Point"
      }
    },
    {
      "type": "Feature",
      "properties": {
        "name": "Kumbija"
      },
      "geometry": {
        "coordinates": [
          -14.18333,
          13.26667
        ],
        "type": "Point"
      }
    },
    {
      "type": "Feature",
      "properties": {
        "name": "Koina"
      },
      "geometry": {
        "coordinates": [
          -13.86667,
          13.48333
        ],
        "type": "Point"
      }
    },
    {
      "type": "Feature",
      "properties": {
        "name": "Kerewan"
      },
      "geometry": {
        "coordinates": [
          -16.08879,
          13.4898
        ],
        "type": "Point"
      }
    },
    {
      "type": "Feature",
      "properties": {
        "name": "Keneba"
      },
      "geometry": {
        "coordinates": [
          -16.015,
          13.32889
        ],
        "type": "Point"
      }
    },
    {
      "type": "Feature",
      "properties": {
        "name": "Katchang"
      },
      "geometry": {
        "coordinates": [
          -15.75,
          13.5
        ],
        "type": "Point"
      }
    },
    {
      "type": "Feature",
      "properties": {
        "name": "Kass Wollof"
      },
      "geometry": {
        "coordinates": [
          -14.93333,
          13.78333
        ],
        "type": "Point"
      }
    },
    {
      "type": "Feature",
      "properties": {
        "name": "Karantaba"
      },
      "geometry": {
        "coordinates": [
          -15.03333,
          13.66667
        ],
        "type": "Point"
      }
    },
    {
      "type": "Feature",
      "properties": {
        "name": "Karantaba"
      },
      "geometry": {
        "coordinates": [
          -15.51667,
          13.43333
        ],
        "type": "Point"
      }
    },
    {
      "type": "Feature",
      "properties": {
        "name": "Kaiaf"
      },
      "geometry": {
        "coordinates": [
          -15.61667,
          13.4
        ],
        "type": "Point"
      }
    },
    {
      "type": "Feature",
      "properties": {
        "name": "Jifarong"
      },
      "geometry": {
        "coordinates": [
          -15.86667,
          13.3
        ],
        "type": "Point"
      }
    },
    {
      "type": "Feature",
      "properties": {
        "name": "Jenoi"
      },
      "geometry": {
        "coordinates": [
          -15.56667,
          13.48333
        ],
        "type": "Point"
      }
    },
    {
      "type": "Feature",
      "properties": {
        "name": "Jarreng"
      },
      "geometry": {
        "coordinates": [
          -15.18333,
          13.61667
        ],
        "type": "Point"
      }
    },
    {
      "type": "Feature",
      "properties": {
        "name": "Jali"
      },
      "geometry": {
        "coordinates": [
          -15.96667,
          13.35
        ],
        "type": "Point"
      }
    },
    {
      "type": "Feature",
      "properties": {
        "name": "Jakhaly"
      },
      "geometry": {
        "coordinates": [
          -14.96667,
          13.55
        ],
        "type": "Point"
      }
    },
    {
      "type": "Feature",
      "properties": {
        "name": "Gunjur Kuta"
      },
      "geometry": {
        "coordinates": [
          -14.11667,
          13.53333
        ],
        "type": "Point"
      }
    },
    {
      "type": "Feature",
      "properties": {
        "name": "Gunjur"
      },
      "geometry": {
        "coordinates": [
          -16.02778,
          13.52278
        ],
        "type": "Point"
      }
    },
    {
      "type": "Feature",
      "properties": {
        "name": "Gunjur"
      },
      "geometry": {
        "coordinates": [
          -16.73389,
          13.20194
        ],
        "type": "Point"
      }
    },
    {
      "type": "Feature",
      "properties": {
        "name": "Georgetown"
      },
      "geometry": {
        "coordinates": [
          -14.76374,
          13.54039
        ],
        "type": "Point"
      }
    },
    {
      "type": "Feature",
      "properties": {
        "name": "Galleh Manda"
      },
      "geometry": {
        "coordinates": [
          -14.78333,
          13.43333
        ],
        "type": "Point"
      }
    },
    {
      "type": "Feature",
      "properties": {
        "name": "Farafenni"
      },
      "geometry": {
        "coordinates": [
          -15.6,
          13.56667
        ],
        "type": "Point"
      }
    },
    {
      "type": "Feature",
      "properties": {
        "name": "Essau"
      },
      "geometry": {
        "coordinates": [
          -16.53472,
          13.48389
        ],
        "type": "Point"
      }
    },
    {
      "type": "Feature",
      "properties": {
        "name": "Diabugu Basilla"
      },
      "geometry": {
        "coordinates": [
          -13.95,
          13.33333
        ],
        "type": "Point"
      }
    },
    {
      "type": "Feature",
      "properties": {
        "name": "Diabugu"
      },
      "geometry": {
        "coordinates": [
          -14.4,
          13.38333
        ],
        "type": "Point"
      }
    },
    {
      "type": "Feature",
      "properties": {
        "name": "Denton"
      },
      "geometry": {
        "coordinates": [
          -14.93333,
          13.5
        ],
        "type": "Point"
      }
    },
    {
      "type": "Feature",
      "properties": {
        "name": "Demba Kunda"
      },
      "geometry": {
        "coordinates": [
          -14.26667,
          13.25
        ],
        "type": "Point"
      }
    },
    {
      "type": "Feature",
      "properties": {
        "name": "Daru Rilwan"
      },
      "geometry": {
        "coordinates": [
          -15.98333,
          13.55
        ],
        "type": "Point"
      }
    },
    {
      "type": "Feature",
      "properties": {
        "name": "Dankunku"
      },
      "geometry": {
        "coordinates": [
          -15.31667,
          13.56667
        ],
        "type": "Point"
      }
    },
    {
      "type": "Feature",
      "properties": {
        "name": "Daba Kunda"
      },
      "geometry": {
        "coordinates": [
          -14.3,
          13.31667
        ],
        "type": "Point"
      }
    },
    {
      "type": "Feature",
      "properties": {
        "name": "Chilla"
      },
      "geometry": {
        "coordinates": [
          -16.28333,
          13.55
        ],
        "type": "Point"
      }
    },
    {
      "type": "Feature",
      "properties": {
        "name": "Bureng"
      },
      "geometry": {
        "coordinates": [
          -15.28333,
          13.41667
        ],
        "type": "Point"
      }
    },
    {
      "type": "Feature",
      "properties": {
        "name": "Brikama Nding"
      },
      "geometry": {
        "coordinates": [
          -14.93333,
          13.53333
        ],
        "type": "Point"
      }
    },
    {
      "type": "Feature",
      "properties": {
        "name": "Brikama"
      },
      "geometry": {
        "coordinates": [
          -16.64944,
          13.27136
        ],
        "type": "Point"
      }
    },
    {
      "type": "Feature",
      "properties": {
        "name": "Brifu"
      },
      "geometry": {
        "coordinates": [
          -13.93333,
          13.5
        ],
        "type": "Point"
      }
    },
    {
      "type": "Feature",
      "properties": {
        "name": "Basse Santa Su"
      },
      "geometry": {
        "coordinates": [
          -14.21373,
          13.30995
        ],
        "type": "Point"
      }
    },
    {
      "type": "Feature",
      "properties": {
        "name": "Barra"
      },
      "geometry": {
        "coordinates": [
          -16.54556,
          13.48278
        ],
        "type": "Point"
      }
    },
    {
      "type": "Feature",
      "properties": {
        "name": "Baro Kunda"
      },
      "geometry": {
        "coordinates": [
          -15.26667,
          13.48333
        ],
        "type": "Point"
      }
    },
    {
      "type": "Feature",
      "properties": {
        "name": "Bantanto"
      },
      "geometry": {
        "coordinates": [
          -14.65,
          13.41667
        ],
        "type": "Point"
      }
    },
    {
      "type": "Feature",
      "properties": {
        "name": "Bansang"
      },
      "geometry": {
        "coordinates": [
          -14.65,
          13.43333
        ],
        "type": "Point"
      }
    },
    {
      "type": "Feature",
      "properties": {
        "name": "Banjul"
      },
      "geometry": {
        "coordinates": [
          -16.57803,
          13.45274
        ],
        "type": "Point"
      }
    },
    {
      "type": "Feature",
      "properties": {
        "name": "Bambali"
      },
      "geometry": {
        "coordinates": [
          -15.33333,
          13.48333
        ],
        "type": "Point"
      }
    },
    {
      "type": "Feature",
      "properties": {
        "name": "Bakau"
      },
      "geometry": {
        "coordinates": [
          -16.68194,
          13.47806
        ],
        "type": "Point"
      }
    },
    {
      "type": "Feature",
      "properties": {
        "name": "Bakadagy"
      },
      "geometry": {
        "coordinates": [
          -14.38333,
          13.3
        ],
        "type": "Point"
      }
    },
    {
      "type": "Feature",
      "properties": {
        "name": "Abuko"
      },
      "geometry": {
        "coordinates": [
          -16.65583,
          13.40417
        ],
        "type": "Point"
      }
    }
  ]
}