{
  "type": "FeatureCollection",
  "features": [
    {
      "type": "Feature",
      "properties": {
        "name": "Sao Geraldo do Araguaia"
      },
      "geometry": {
        "coordinates": [
          -48.555,
          -6.40056
        ],
        "type": "Point"
      }
    },
    {
      "type": "Feature",
      "properties": {
        "name": "Porto Franco"
      },
      "geometry": {
        "coordinates": [
          -47.39917,
          -6.33833
        ],
        "type": "Point"
      }
    },
    {
      "type": "Feature",
      "properties": {
        "name": "Araguaina"
      },
      "geometry": {
        "coordinates": [
          -48.20722,
          -7.19111
        ],
        "type": "Point"
      }
    },
    {
      "type": "Feature",
      "properties": {
        "name": "Taguatinga"
      },
      "geometry": {
        "coordinates": [
          -46.43611,
          -12.40389
        ],
        "type": "Point"
      }
    },
    {
      "type": "Feature",
      "properties": {
        "name": "Gurupi"
      },
      "geometry": {
        "coordinates": [
          -49.06861,
          -11.72917
        ],
        "type": "Point"
      }
    },
    {
      "type": "Feature",
      "properties": {
        "name": "Alvorada"
      },
      "geometry": {
        "coordinates": [
          -49.12472,
          -12.48
        ],
        "type": "Point"
      }
    },
    {
      "type": "Feature",
      "properties": {
        "name": "Palmas"
      },
      "geometry": {
        "coordinates": [
          -48.32766,
          -10.16745
        ],
        "type": "Point"
      }
    }
  ]
}