{
  "type": "FeatureCollection",
  "features": [
    {
      "type": "Feature",
      "properties": {
        "name": "Santa Martha"
      },
      "geometry": {
        "coordinates": [
          -98.70639,
          22.34278
        ],
        "type": "Point"
      }
    },
    {
      "type": "Feature",
      "properties": {
        "name": "Nueva Primavera"
      },
      "geometry": {
        "coordinates": [
          -98.85785,
          21.91342
        ],
        "type": "Point"
      }
    },
    {
      "type": "Feature",
      "properties": {
        "name": "Tamcuime"
      },
      "geometry": {
        "coordinates": [
          -99.01077,
          21.60137
        ],
        "type": "Point"
      }
    },
    {
      "type": "Feature",
      "properties": {
        "name": "Tampate"
      },
      "geometry": {
        "coordinates": [
          -99.02552,
          21.63639
        ],
        "type": "Point"
      }
    },
    {
      "type": "Feature",
      "properties": {
        "name": "Zumpango"
      },
      "geometry": {
        "coordinates": [
          -99.09946,
          19.7967
        ],
        "type": "Point"
      }
    },
    {
      "type": "Feature",
      "properties": {
        "name": "Zumpango del Rio"
      },
      "geometry": {
        "coordinates": [
          -99.52725,
          17.65437
        ],
        "type": "Point"
      }
    },
    {
      "type": "Feature",
      "properties": {
        "name": "Zumpahuacan"
      },
      "geometry": {
        "coordinates": [
          -99.56568,
          18.91642
        ],
        "type": "Point"
      }
    },
    {
      "type": "Feature",
      "properties": {
        "name": "Zozocolco de Hidalgo"
      },
      "geometry": {
        "coordinates": [
          -97.57567,
          20.14048
        ],
        "type": "Point"
      }
    },
    {
      "type": "Feature",
      "properties": {
        "name": "Zoquitlan"
      },
      "geometry": {
        "coordinates": [
          -97.01745,
          18.33523
        ],
        "type": "Point"
      }
    },
    {
      "type": "Feature",
      "properties": {
        "name": "Zoquiopan"
      },
      "geometry": {
        "coordinates": [
          -97.59606,
          20.00898
        ],
        "type": "Point"
      }
    },
    {
      "type": "Feature",
      "properties": {
        "name": "Zoogocho"
      },
      "geometry": {
        "coordinates": [
          -96.24299,
          17.24009
        ],
        "type": "Point"
      }
    },
    {
      "type": "Feature",
      "properties": {
        "name": "Zongozotla"
      },
      "geometry": {
        "coordinates": [
          -97.72751,
          19.9793
        ],
        "type": "Point"
      }
    },
    {
      "type": "Feature",
      "properties": {
        "name": "Zongolica"
      },
      "geometry": {
        "coordinates": [
          -96.99707,
          18.66673
        ],
        "type": "Point"
      }
    },
    {
      "type": "Feature",
      "properties": {
        "name": "Santa Maria Zolotepec"
      },
      "geometry": {
        "coordinates": [
          -99.49327,
          19.41728
        ],
        "type": "Point"
      }
    },
    {
      "type": "Feature",
      "properties": {
        "name": "Zitlala"
      },
      "geometry": {
        "coordinates": [
          -99.18642,
          17.69049
        ],
        "type": "Point"
      }
    },
    {
      "type": "Feature",
      "properties": {
        "name": "Zinacantan"
      },
      "geometry": {
        "coordinates": [
          -92.72257,
          16.7602
        ],
        "type": "Point"
      }
    },
    {
      "type": "Feature",
      "properties": {
        "name": "Zimatlan de Alvarez"
      },
      "geometry": {
        "coordinates": [
          -96.78435,
          16.86939
        ],
        "type": "Point"
      }
    },
    {
      "type": "Feature",
      "properties": {
        "name": "Zimapan"
      },
      "geometry": {
        "coordinates": [
          -99.3818,
          20.73814
        ],
        "type": "Point"
      }
    },
    {
      "type": "Feature",
      "properties": {
        "name": "Zempoala"
      },
      "geometry": {
        "coordinates": [
          -98.666,
          19.91587
        ],
        "type": "Point"
      }
    },
    {
      "type": "Feature",
      "properties": {
        "name": "Villa Zempoala"
      },
      "geometry": {
        "coordinates": [
          -96.40773,
          19.44422
        ],
        "type": "Point"
      }
    },
    {
      "type": "Feature",
      "properties": {
        "name": "Zaragoza"
      },
      "geometry": {
        "coordinates": [
          -97.72055,
          21.27975
        ],
        "type": "Point"
      }
    },
    {
      "type": "Feature",
      "properties": {
        "name": "Zaragoza"
      },
      "geometry": {
        "coordinates": [
          -97.55506,
          19.77097
        ],
        "type": "Point"
      }
    },
    {
      "type": "Feature",
      "properties": {
        "name": "Zaragoza de Guadalupe"
      },
      "geometry": {
        "coordinates": [
          -99.64405,
          19.1483
        ],
        "type": "Point"
      }
    },
    {
      "type": "Feature",
      "properties": {
        "name": "Zapotlan de Juarez"
      },
      "geometry": {
        "coordinates": [
          -98.8642,
          19.97709
        ],
        "type": "Point"
      }
    },
    {
      "type": "Feature",
      "properties": {
        "name": "Zapotitlan"
      },
      "geometry": {
        "coordinates": [
          -97.47399,
          18.3296
        ],
        "type": "Point"
      }
    },
    {
      "type": "Feature",
      "properties": {
        "name": "Zapotitlan Palmas"
      },
      "geometry": {
        "coordinates": [
          -97.81849,
          17.88965
        ],
        "type": "Point"
      }
    },
    {
      "type": "Feature",
      "properties": {
        "name": "Zacualtipan"
      },
      "geometry": {
        "coordinates": [
          -98.65628,
          20.65002
        ],
        "type": "Point"
      }
    },
    {
      "type": "Feature",
      "properties": {
        "name": "Zacualpan"
      },
      "geometry": {
        "coordinates": [
          -99.77605,
          18.71895
        ],
        "type": "Point"
      }
    },
    {
      "type": "Feature",
      "properties": {
        "name": "Zacatlan"
      },
      "geometry": {
        "coordinates": [
          -97.96125,
          19.9355
        ],
        "type": "Point"
      }
    },
    {
      "type": "Feature",
      "properties": {
        "name": "Zacatepec"
      },
      "geometry": {
        "coordinates": [
          -97.5328,
          19.26631
        ],
        "type": "Point"
      }
    },
    {
      "type": "Feature",
      "properties": {
        "name": "Zacatepec"
      },
      "geometry": {
        "coordinates": [
          -99.18981,
          18.65409
        ],
        "type": "Point"
      }
    },
    {
      "type": "Feature",
      "properties": {
        "name": "Zacapoaxtla"
      },
      "geometry": {
        "coordinates": [
          -97.58899,
          19.87271
        ],
        "type": "Point"
      }
    },
    {
      "type": "Feature",
      "properties": {
        "name": "Zacapala"
      },
      "geometry": {
        "coordinates": [
          -98.06583,
          18.59415
        ],
        "type": "Point"
      }
    },
    {
      "type": "Feature",
      "properties": {
        "name": "Zacamixtle"
      },
      "geometry": {
        "coordinates": [
          -97.72155,
          21.24762
        ],
        "type": "Point"
      }
    },
    {
      "type": "Feature",
      "properties": {
        "name": "Villa de Zaachila"
      },
      "geometry": {
        "coordinates": [
          -96.74938,
          16.95098
        ],
        "type": "Point"
      }
    },
    {
      "type": "Feature",
      "properties": {
        "name": "Yucuyachi"
      },
      "geometry": {
        "coordinates": [
          -98.19675,
          17.60858
        ],
        "type": "Point"
      }
    },
    {
      "type": "Feature",
      "properties": {
        "name": "San Pedro Martir Yucuxaco"
      },
      "geometry": {
        "coordinates": [
          -97.611,
          17.43245
        ],
        "type": "Point"
      }
    },
    {
      "type": "Feature",
      "properties": {
        "name": "Santiago Yogana"
      },
      "geometry": {
        "coordinates": [
          -96.78786,
          16.4613
        ],
        "type": "Point"
      }
    },
    {
      "type": "Feature",
      "properties": {
        "name": "Magdalena Yodocono de Porfirio Diaz"
      },
      "geometry": {
        "coordinates": [
          -97.3553,
          17.3847
        ],
        "type": "Point"
      }
    },
    {
      "type": "Feature",
      "properties": {
        "name": "San Agustin Yatareni"
      },
      "geometry": {
        "coordinates": [
          -96.66578,
          17.08198
        ],
        "type": "Point"
      }
    },
    {
      "type": "Feature",
      "properties": {
        "name": "Yehualtepec"
      },
      "geometry": {
        "coordinates": [
          -97.6616,
          18.79518
        ],
        "type": "Point"
      }
    },
    {
      "type": "Feature",
      "properties": {
        "name": "Yecuatla"
      },
      "geometry": {
        "coordinates": [
          -96.77836,
          19.86614
        ],
        "type": "Point"
      }
    },
    {
      "type": "Feature",
      "properties": {
        "name": "Yecapixtla"
      },
      "geometry": {
        "coordinates": [
          -98.865,
          18.88333
        ],
        "type": "Point"
      }
    },
    {
      "type": "Feature",
      "properties": {
        "name": "Yaxe"
      },
      "geometry": {
        "coordinates": [
          -96.47191,
          16.72595
        ],
        "type": "Point"
      }
    },
    {
      "type": "Feature",
      "properties": {
        "name": "Yautepec"
      },
      "geometry": {
        "coordinates": [
          -99.06715,
          18.88188
        ],
        "type": "Point"
      }
    },
    {
      "type": "Feature",
      "properties": {
        "name": "Yatzachi"
      },
      "geometry": {
        "coordinates": [
          -96.22137,
          17.22588
        ],
        "type": "Point"
      }
    },
    {
      "type": "Feature",
      "properties": {
        "name": "Yaonahuac"
      },
      "geometry": {
        "coordinates": [
          -97.46587,
          19.87076
        ],
        "type": "Point"
      }
    },
    {
      "type": "Feature",
      "properties": {
        "name": "Yanga"
      },
      "geometry": {
        "coordinates": [
          -96.79837,
          18.83288
        ],
        "type": "Point"
      }
    },
    {
      "type": "Feature",
      "properties": {
        "name": "Yajalon"
      },
      "geometry": {
        "coordinates": [
          -92.33315,
          17.17276
        ],
        "type": "Point"
      }
    },
    {
      "type": "Feature",
      "properties": {
        "name": "Xoxolpa"
      },
      "geometry": {
        "coordinates": [
          -98.42386,
          20.87574
        ],
        "type": "Point"
      }
    },
    {
      "type": "Feature",
      "properties": {
        "name": "Xoxocotla"
      },
      "geometry": {
        "coordinates": [
          -99.24577,
          18.68415
        ],
        "type": "Point"
      }
    },
    {
      "type": "Feature",
      "properties": {
        "name": "Xopilapa"
      },
      "geometry": {
        "coordinates": [
          -97.07944,
          18.50472
        ],
        "type": "Point"
      }
    },
    {
      "type": "Feature",
      "properties": {
        "name": "Xonacatlan"
      },
      "geometry": {
        "coordinates": [
          -99.52807,
          19.40513
        ],
        "type": "Point"
      }
    },
    {
      "type": "Feature",
      "properties": {
        "name": "Xometla"
      },
      "geometry": {
        "coordinates": [
          -98.88171,
          19.64281
        ],
        "type": "Point"
      }
    },
    {
      "type": "Feature",
      "properties": {
        "name": "Xocotla"
      },
      "geometry": {
        "coordinates": [
          -97.10092,
          19.01511
        ],
        "type": "Point"
      }
    },
    {
      "type": "Feature",
      "properties": {
        "name": "Xochitlan Todos Santos"
      },
      "geometry": {
        "coordinates": [
          -97.77609,
          18.70395
        ],
        "type": "Point"
      }
    },
    {
      "type": "Feature",
      "properties": {
        "name": "Xochitepec"
      },
      "geometry": {
        "coordinates": [
          -99.23049,
          18.7808
        ],
        "type": "Point"
      }
    },
    {
      "type": "Feature",
      "properties": {
        "name": "Xochistlahuaca"
      },
      "geometry": {
        "coordinates": [
          -98.24172,
          16.78915
        ],
        "type": "Point"
      }
    },
    {
      "type": "Feature",
      "properties": {
        "name": "Xochimilco"
      },
      "geometry": {
        "coordinates": [
          -99.10356,
          19.25465
        ],
        "type": "Point"
      }
    },
    {
      "type": "Feature",
      "properties": {
        "name": "Xochiltepec"
      },
      "geometry": {
        "coordinates": [
          -98.3445,
          18.65095
        ],
        "type": "Point"
      }
    },
    {
      "type": "Feature",
      "properties": {
        "name": "Xochihuehuetlan"
      },
      "geometry": {
        "coordinates": [
          -98.48818,
          17.90619
        ],
        "type": "Point"
      }
    },
    {
      "type": "Feature",
      "properties": {
        "name": "Xilitla"
      },
      "geometry": {
        "coordinates": [
          -98.99009,
          21.38681
        ],
        "type": "Point"
      }
    },
    {
      "type": "Feature",
      "properties": {
        "name": "Xicotepec de Juarez"
      },
      "geometry": {
        "coordinates": [
          -97.96111,
          20.27605
        ],
        "type": "Point"
      }
    },
    {
      "type": "Feature",
      "properties": {
        "name": "Xico"
      },
      "geometry": {
        "coordinates": [
          -97.00819,
          19.42178
        ],
        "type": "Point"
      }
    },
    {
      "type": "Feature",
      "properties": {
        "name": "San Miguel Xico Viejo"
      },
      "geometry": {
        "coordinates": [
          -98.93588,
          19.27022
        ],
        "type": "Point"
      }
    },
    {
      "type": "Feature",
      "properties": {
        "name": "Xayacatlan de Bravo"
      },
      "geometry": {
        "coordinates": [
          -97.97524,
          18.23712
        ],
        "type": "Point"
      }
    },
    {
      "type": "Feature",
      "properties": {
        "name": "Santa Maria Xadani"
      },
      "geometry": {
        "coordinates": [
          -95.01826,
          16.36198
        ],
        "type": "Point"
      }
    },
    {
      "type": "Feature",
      "properties": {
        "name": "Xaltianguis"
      },
      "geometry": {
        "coordinates": [
          -99.71557,
          17.09834
        ],
        "type": "Point"
      }
    },
    {
      "type": "Feature",
      "properties": {
        "name": "Xaltepuxtla"
      },
      "geometry": {
        "coordinates": [
          -97.97208,
          20.17546
        ],
        "type": "Point"
      }
    },
    {
      "type": "Feature",
      "properties": {
        "name": "Xaltepec"
      },
      "geometry": {
        "coordinates": [
          -97.60825,
          18.88163
        ],
        "type": "Point"
      }
    },
    {
      "type": "Feature",
      "properties": {
        "name": "Xalpatlahuac"
      },
      "geometry": {
        "coordinates": [
          -98.60675,
          17.47066
        ],
        "type": "Point"
      }
    },
    {
      "type": "Feature",
      "properties": {
        "name": "Xaloztoc"
      },
      "geometry": {
        "coordinates": [
          -98.04602,
          19.40775
        ],
        "type": "Point"
      }
    },
    {
      "type": "Feature",
      "properties": {
        "name": "Santa Ana Xalmimilulco"
      },
      "geometry": {
        "coordinates": [
          -98.38207,
          19.21287
        ],
        "type": "Point"
      }
    },
    {
      "type": "Feature",
      "properties": {
        "name": "Vista Hermosa"
      },
      "geometry": {
        "coordinates": [
          -99.22335,
          19.51616
        ],
        "type": "Point"
      }
    },
    {
      "type": "Feature",
      "properties": {
        "name": "San Antonio Virreyes"
      },
      "geometry": {
        "coordinates": [
          -97.63697,
          19.40989
        ],
        "type": "Point"
      }
    },
    {
      "type": "Feature",
      "properties": {
        "name": "Villa Victoria"
      },
      "geometry": {
        "coordinates": [
          -99.99589,
          19.43693
        ],
        "type": "Point"
      }
    },
    {
      "type": "Feature",
      "properties": {
        "name": "Camaron de Tejeda"
      },
      "geometry": {
        "coordinates": [
          -96.61513,
          19.02166
        ],
        "type": "Point"
      }
    },
    {
      "type": "Feature",
      "properties": {
        "name": "Alvaro Obregon"
      },
      "geometry": {
        "coordinates": [
          -99.20329,
          19.35867
        ],
        "type": "Point"
      }
    },
    {
      "type": "Feature",
      "properties": {
        "name": "Villahermosa"
      },
      "geometry": {
        "coordinates": [
          -92.93028,
          17.98689
        ],
        "type": "Point"
      }
    },
    {
      "type": "Feature",
      "properties": {
        "name": "Gustavo Adolfo Madero"
      },
      "geometry": {
        "coordinates": [
          -99.11075,
          19.49392
        ],
        "type": "Point"
      }
    },
    {
      "type": "Feature",
      "properties": {
        "name": "Villa Guerrero"
      },
      "geometry": {
        "coordinates": [
          -99.64061,
          18.96211
        ],
        "type": "Point"
      }
    },
    {
      "type": "Feature",
      "properties": {
        "name": "El Triunfo"
      },
      "geometry": {
        "coordinates": [
          -91.16946,
          17.92241
        ],
        "type": "Point"
      }
    },
    {
      "type": "Feature",
      "properties": {
        "name": "Villa del Carbon"
      },
      "geometry": {
        "coordinates": [
          -99.46362,
          19.72875
        ],
        "type": "Point"
      }
    },
    {
      "type": "Feature",
      "properties": {
        "name": "Villa Cuauhtemoc"
      },
      "geometry": {
        "coordinates": [
          -97.83472,
          22.18439
        ],
        "type": "Point"
      }
    },
    {
      "type": "Feature",
      "properties": {
        "name": "Villa Cuauhtemoc Otzolotepec"
      },
      "geometry": {
        "coordinates": [
          -99.55872,
          19.41676
        ],
        "type": "Point"
      }
    },
    {
      "type": "Feature",
      "properties": {
        "name": "Villa Corzo"
      },
      "geometry": {
        "coordinates": [
          -93.26881,
          16.1851
        ],
        "type": "Point"
      }
    },
    {
      "type": "Feature",
      "properties": {
        "name": "Villa Comaltitlan"
      },
      "geometry": {
        "coordinates": [
          -92.57659,
          15.21397
        ],
        "type": "Point"
      }
    },
    {
      "type": "Feature",
      "properties": {
        "name": "Tesechoacan"
      },
      "geometry": {
        "coordinates": [
          -95.65835,
          18.13749
        ],
        "type": "Point"
      }
    },
    {
      "type": "Feature",
      "properties": {
        "name": "Villa Aldama"
      },
      "geometry": {
        "coordinates": [
          -97.22333,
          19.64861
        ],
        "type": "Point"
      }
    },
    {
      "type": "Feature",
      "properties": {
        "name": "Veracruz"
      },
      "geometry": {
        "coordinates": [
          -96.1429,
          19.18095
        ],
        "type": "Point"
      }
    },
    {
      "type": "Feature",
      "properties": {
        "name": "Venustiano Carranza"
      },
      "geometry": {
        "coordinates": [
          -92.563,
          16.33815
        ],
        "type": "Point"
      }
    },
    {
      "type": "Feature",
      "properties": {
        "name": "Veinte de Noviembre"
      },
      "geometry": {
        "coordinates": [
          -92.26509,
          14.9773
        ],
        "type": "Point"
      }
    },
    {
      "type": "Feature",
      "properties": {
        "name": "Vega de Alatorre"
      },
      "geometry": {
        "coordinates": [
          -96.64751,
          20.02823
        ],
        "type": "Point"
      }
    },
    {
      "type": "Feature",
      "properties": {
        "name": "Ursulo Galvan"
      },
      "geometry": {
        "coordinates": [
          -96.3609,
          19.40531
        ],
        "type": "Point"
      }
    },
    {
      "type": "Feature",
      "properties": {
        "name": "Union Hidalgo"
      },
      "geometry": {
        "coordinates": [
          -94.82952,
          16.4723
        ],
        "type": "Point"
      }
    },
    {
      "type": "Feature",
      "properties": {
        "name": "San Salvador Tzompantepec"
      },
      "geometry": {
        "coordinates": [
          -98.08701,
          19.3722
        ],
        "type": "Point"
      }
    },
    {
      "type": "Feature",
      "properties": {
        "name": "Tzinacapan"
      },
      "geometry": {
        "coordinates": [
          -97.54047,
          20.02944
        ],
        "type": "Point"
      }
    },
    {
      "type": "Feature",
      "properties": {
        "name": "Tzimol"
      },
      "geometry": {
        "coordinates": [
          -92.26667,
          16.26667
        ],
        "type": "Point"
      }
    },
    {
      "type": "Feature",
      "properties": {
        "name": "Tuzantan"
      },
      "geometry": {
        "coordinates": [
          -92.42237,
          15.14711
        ],
        "type": "Point"
      }
    },
    {
      "type": "Feature",
      "properties": {
        "name": "Tuzamapan"
      },
      "geometry": {
        "coordinates": [
          -97.5752,
          20.06572
        ],
        "type": "Point"
      }
    },
    {
      "type": "Feature",
      "properties": {
        "name": "Tuzamapan"
      },
      "geometry": {
        "coordinates": [
          -96.8636,
          19.40253
        ],
        "type": "Point"
      }
    },
    {
      "type": "Feature",
      "properties": {
        "name": "Tuxtla"
      },
      "geometry": {
        "coordinates": [
          -93.11308,
          16.75973
        ],
        "type": "Point"
      }
    },
    {
      "type": "Feature",
      "properties": {
        "name": "Tuxtla Chico"
      },
      "geometry": {
        "coordinates": [
          -92.1673,
          14.93945
        ],
        "type": "Point"
      }
    },
    {
      "type": "Feature",
      "properties": {
        "name": "Tuxtla"
      },
      "geometry": {
        "coordinates": [
          -97.65526,
          20.00037
        ],
        "type": "Point"
      }
    },
    {
      "type": "Feature",
      "properties": {
        "name": "Tuxpam de Rodriguez Cano"
      },
      "geometry": {
        "coordinates": [
          -97.40805,
          20.95777
        ],
        "type": "Point"
      }
    },
    {
      "type": "Feature",
      "properties": {
        "name": "Tultitlan"
      },
      "geometry": {
        "coordinates": [
          -99.16787,
          19.64655
        ],
        "type": "Point"
      }
    },
    {
      "type": "Feature",
      "properties": {
        "name": "Tultepec"
      },
      "geometry": {
        "coordinates": [
          -99.12806,
          19.685
        ],
        "type": "Point"
      }
    },
    {
      "type": "Feature",
      "properties": {
        "name": "Tulcingo de Valle"
      },
      "geometry": {
        "coordinates": [
          -98.44074,
          18.0437
        ],
        "type": "Point"
      }
    },
    {
      "type": "Feature",
      "properties": {
        "name": "Tulancingo"
      },
      "geometry": {
        "coordinates": [
          -98.36288,
          20.08355
        ],
        "type": "Point"
      }
    },
    {
      "type": "Feature",
      "properties": {
        "name": "Tula de Allende"
      },
      "geometry": {
        "coordinates": [
          -99.34397,
          20.05161
        ],
        "type": "Point"
      }
    },
    {
      "type": "Feature",
      "properties": {
        "name": "Trinidad Zaachila"
      },
      "geometry": {
        "coordinates": [
          -96.76384,
          16.92135
        ],
        "type": "Point"
      }
    },
    {
      "type": "Feature",
      "properties": {
        "name": "Tres Picos"
      },
      "geometry": {
        "coordinates": [
          -93.52867,
          15.88209
        ],
        "type": "Point"
      }
    },
    {
      "type": "Feature",
      "properties": {
        "name": "Trapiche del Rosario"
      },
      "geometry": {
        "coordinates": [
          -96.74111,
          19.54306
        ],
        "type": "Point"
      }
    },
    {
      "type": "Feature",
      "properties": {
        "name": "Totutla"
      },
      "geometry": {
        "coordinates": [
          -96.96118,
          19.21169
        ],
        "type": "Point"
      }
    },
    {
      "type": "Feature",
      "properties": {
        "name": "Totontepec Villa de Morelos"
      },
      "geometry": {
        "coordinates": [
          -96.02786,
          17.25679
        ],
        "type": "Point"
      }
    },
    {
      "type": "Feature",
      "properties": {
        "name": "Totoltepec de Guerrero"
      },
      "geometry": {
        "coordinates": [
          -97.85511,
          18.2256
        ],
        "type": "Point"
      }
    },
    {
      "type": "Feature",
      "properties": {
        "name": "Totolapan"
      },
      "geometry": {
        "coordinates": [
          -98.92073,
          18.98487
        ],
        "type": "Point"
      }
    },
    {
      "type": "Feature",
      "properties": {
        "name": "Totolapa"
      },
      "geometry": {
        "coordinates": [
          -92.68019,
          16.54357
        ],
        "type": "Point"
      }
    },
    {
      "type": "Feature",
      "properties": {
        "name": "San Miguel Totocuitlapilco"
      },
      "geometry": {
        "coordinates": [
          -99.59116,
          19.23107
        ],
        "type": "Point"
      }
    },
    {
      "type": "Feature",
      "properties": {
        "name": "Santo Domingo Tomaltepec"
      },
      "geometry": {
        "coordinates": [
          -96.6228,
          17.06117
        ],
        "type": "Point"
      }
    },
    {
      "type": "Feature",
      "properties": {
        "name": "Tonalixco"
      },
      "geometry": {
        "coordinates": [
          -97.05972,
          18.78194
        ],
        "type": "Point"
      }
    },
    {
      "type": "Feature",
      "properties": {
        "name": "Tomatlan"
      },
      "geometry": {
        "coordinates": [
          -97.00986,
          19.03102
        ],
        "type": "Point"
      }
    },
    {
      "type": "Feature",
      "properties": {
        "name": "Toluca"
      },
      "geometry": {
        "coordinates": [
          -99.65324,
          19.28786
        ],
        "type": "Point"
      }
    },
    {
      "type": "Feature",
      "properties": {
        "name": "Tolome"
      },
      "geometry": {
        "coordinates": [
          -96.39472,
          19.26667
        ],
        "type": "Point"
      }
    },
    {
      "type": "Feature",
      "properties": {
        "name": "Tolcayuca"
      },
      "geometry": {
        "coordinates": [
          -98.91941,
          19.95814
        ],
        "type": "Point"
      }
    },
    {
      "type": "Feature",
      "properties": {
        "name": "Tocuila"
      },
      "geometry": {
        "coordinates": [
          -97.01667,
          18.95
        ],
        "type": "Point"
      }
    },
    {
      "type": "Feature",
      "properties": {
        "name": "Tochtepec"
      },
      "geometry": {
        "coordinates": [
          -97.82282,
          18.83928
        ],
        "type": "Point"
      }
    },
    {
      "type": "Feature",
      "properties": {
        "name": "Tochimilco"
      },
      "geometry": {
        "coordinates": [
          -98.57154,
          18.89062
        ],
        "type": "Point"
      }
    },
    {
      "type": "Feature",
      "properties": {
        "name": "Tocatlan"
      },
      "geometry": {
        "coordinates": [
          -98.0274,
          19.38865
        ],
        "type": "Point"
      }
    },
    {
      "type": "Feature",
      "properties": {
        "name": "Tlazala de Fabela"
      },
      "geometry": {
        "coordinates": [
          -99.41469,
          19.55857
        ],
        "type": "Point"
      }
    },
    {
      "type": "Feature",
      "properties": {
        "name": "Tlayacapan"
      },
      "geometry": {
        "coordinates": [
          -98.98111,
          18.95556
        ],
        "type": "Point"
      }
    },
    {
      "type": "Feature",
      "properties": {
        "name": "Tlaxco"
      },
      "geometry": {
        "coordinates": [
          -98.11997,
          19.61442
        ],
        "type": "Point"
      }
    },
    {
      "type": "Feature",
      "properties": {
        "name": "Tlaxcoapan"
      },
      "geometry": {
        "coordinates": [
          -99.22042,
          20.09163
        ],
        "type": "Point"
      }
    },
    {
      "type": "Feature",
      "properties": {
        "name": "Tlaxco"
      },
      "geometry": {
        "coordinates": [
          -98.02917,
          20.42345
        ],
        "type": "Point"
      }
    },
    {
      "type": "Feature",
      "properties": {
        "name": "San Bernardino Tlaxcalancingo"
      },
      "geometry": {
        "coordinates": [
          -98.27698,
          19.02867
        ],
        "type": "Point"
      }
    },
    {
      "type": "Feature",
      "properties": {
        "name": "Tlatlauquitepec"
      },
      "geometry": {
        "coordinates": [
          -97.49718,
          19.84765
        ],
        "type": "Point"
      }
    },
    {
      "type": "Feature",
      "properties": {
        "name": "Tlatenchi"
      },
      "geometry": {
        "coordinates": [
          -99.18639,
          18.59639
        ],
        "type": "Point"
      }
    },
    {
      "type": "Feature",
      "properties": {
        "name": "Tlaquiltenango"
      },
      "geometry": {
        "coordinates": [
          -99.1632,
          18.63429
        ],
        "type": "Point"
      }
    },
    {
      "type": "Feature",
      "properties": {
        "name": "Tlapa de Comonfort"
      },
      "geometry": {
        "coordinates": [
          -98.57599,
          17.54528
        ],
        "type": "Point"
      }
    },
    {
      "type": "Feature",
      "properties": {
        "name": "Tlapacoyan"
      },
      "geometry": {
        "coordinates": [
          -97.21141,
          19.96268
        ],
        "type": "Point"
      }
    },
    {
      "type": "Feature",
      "properties": {
        "name": "Tlanepantla"
      },
      "geometry": {
        "coordinates": [
          -97.88701,
          18.8631
        ],
        "type": "Point"
      }
    },
    {
      "type": "Feature",
      "properties": {
        "name": "Tlanchinol"
      },
      "geometry": {
        "coordinates": [
          -98.65715,
          20.9919
        ],
        "type": "Point"
      }
    },
    {
      "type": "Feature",
      "properties": {
        "name": "Tlanalapa"
      },
      "geometry": {
        "coordinates": [
          -98.60396,
          19.81868
        ],
        "type": "Point"
      }
    },
    {
      "type": "Feature",
      "properties": {
        "name": "Tlanalapan"
      },
      "geometry": {
        "coordinates": [
          -97.27604,
          19.25084
        ],
        "type": "Point"
      }
    },
    {
      "type": "Feature",
      "properties": {
        "name": "Tlamixtlahuacan"
      },
      "geometry": {
        "coordinates": [
          -99.22583,
          17.50306
        ],
        "type": "Point"
      }
    },
    {
      "type": "Feature",
      "properties": {
        "name": "Tlamacazapa"
      },
      "geometry": {
        "coordinates": [
          -99.50037,
          18.49649
        ],
        "type": "Point"
      }
    },
    {
      "type": "Feature",
      "properties": {
        "name": "Tlaltizapan"
      },
      "geometry": {
        "coordinates": [
          -99.11868,
          18.6863
        ],
        "type": "Point"
      }
    },
    {
      "type": "Feature",
      "properties": {
        "name": "Tlaltenango"
      },
      "geometry": {
        "coordinates": [
          -98.34072,
          19.17165
        ],
        "type": "Point"
      }
    },
    {
      "type": "Feature",
      "properties": {
        "name": "Tlalpan"
      },
      "geometry": {
        "coordinates": [
          -99.16206,
          19.29513
        ],
        "type": "Point"
      }
    },
    {
      "type": "Feature",
      "properties": {
        "name": "Tlalnepantla"
      },
      "geometry": {
        "coordinates": [
          -99.19538,
          19.54005
        ],
        "type": "Point"
      }
    },
    {
      "type": "Feature",
      "properties": {
        "name": "Tlalnepantla"
      },
      "geometry": {
        "coordinates": [
          -98.99613,
          19.00885
        ],
        "type": "Point"
      }
    },
    {
      "type": "Feature",
      "properties": {
        "name": "Tlalmanalco"
      },
      "geometry": {
        "coordinates": [
          -98.80115,
          19.20521
        ],
        "type": "Point"
      }
    },
    {
      "type": "Feature",
      "properties": {
        "name": "Tlalixtaquilla"
      },
      "geometry": {
        "coordinates": [
          -98.36727,
          17.57674
        ],
        "type": "Point"
      }
    },
    {
      "type": "Feature",
      "properties": {
        "name": "Tlalixtac de Cabrera"
      },
      "geometry": {
        "coordinates": [
          -96.6471,
          17.07112
        ],
        "type": "Point"
      }
    },
    {
      "type": "Feature",
      "properties": {
        "name": "Tlalixcoyan"
      },
      "geometry": {
        "coordinates": [
          -96.06056,
          18.80222
        ],
        "type": "Point"
      }
    },
    {
      "type": "Feature",
      "properties": {
        "name": "San Andres Tlalamac"
      },
      "geometry": {
        "coordinates": [
          -98.80778,
          18.96694
        ],
        "type": "Point"
      }
    },
    {
      "type": "Feature",
      "properties": {
        "name": "Tlahuelompa (San Francisco Tlahuelompa)"
      },
      "geometry": {
        "coordinates": [
          -98.57522,
          20.65082
        ],
        "type": "Point"
      }
    },
    {
      "type": "Feature",
      "properties": {
        "name": "Tlahuelilpan"
      },
      "geometry": {
        "coordinates": [
          -99.23145,
          20.13076
        ],
        "type": "Point"
      }
    },
    {
      "type": "Feature",
      "properties": {
        "name": "Tlahuac"
      },
      "geometry": {
        "coordinates": [
          -99.00507,
          19.28689
        ],
        "type": "Point"
      }
    },
    {
      "type": "Feature",
      "properties": {
        "name": "Tlacuilotepec"
      },
      "geometry": {
        "coordinates": [
          -98.06867,
          20.32574
        ],
        "type": "Point"
      }
    },
    {
      "type": "Feature",
      "properties": {
        "name": "San Jose Tlacotitlan"
      },
      "geometry": {
        "coordinates": [
          -98.80611,
          18.98583
        ],
        "type": "Point"
      }
    },
    {
      "type": "Feature",
      "properties": {
        "name": "Tlacotepec (San Mateo)"
      },
      "geometry": {
        "coordinates": [
          -97.84917,
          20.06028
        ],
        "type": "Point"
      }
    },
    {
      "type": "Feature",
      "properties": {
        "name": "Tlacotepec de Mejia"
      },
      "geometry": {
        "coordinates": [
          -96.83805,
          19.18946
        ],
        "type": "Point"
      }
    },
    {
      "type": "Feature",
      "properties": {
        "name": "Tlacotepec"
      },
      "geometry": {
        "coordinates": [
          -98.74514,
          18.81444
        ],
        "type": "Point"
      }
    },
    {
      "type": "Feature",
      "properties": {
        "name": "Tlacotepec"
      },
      "geometry": {
        "coordinates": [
          -97.65602,
          18.68193
        ],
        "type": "Point"
      }
    },
    {
      "type": "Feature",
      "properties": {
        "name": "Tlacotepec"
      },
      "geometry": {
        "coordinates": [
          -99.97961,
          17.78978
        ],
        "type": "Point"
      }
    },
    {
      "type": "Feature",
      "properties": {
        "name": "Tlacotalpan"
      },
      "geometry": {
        "coordinates": [
          -95.6589,
          18.61333
        ],
        "type": "Point"
      }
    },
    {
      "type": "Feature",
      "properties": {
        "name": "Tlacolula de Matamoros"
      },
      "geometry": {
        "coordinates": [
          -96.4759,
          16.95471
        ],
        "type": "Point"
      }
    },
    {
      "type": "Feature",
      "properties": {
        "name": "Tlacojalpan"
      },
      "geometry": {
        "coordinates": [
          -95.94682,
          18.23096
        ],
        "type": "Point"
      }
    },
    {
      "type": "Feature",
      "properties": {
        "name": "San Jeronimo Tlacochahuaya"
      },
      "geometry": {
        "coordinates": [
          -96.58275,
          17.00874
        ],
        "type": "Point"
      }
    },
    {
      "type": "Feature",
      "properties": {
        "name": "Tlacoachistlahuaca"
      },
      "geometry": {
        "coordinates": [
          -98.30078,
          16.81045
        ],
        "type": "Point"
      }
    },
    {
      "type": "Feature",
      "properties": {
        "name": "Tlachichuca"
      },
      "geometry": {
        "coordinates": [
          -97.41915,
          19.11485
        ],
        "type": "Point"
      }
    },
    {
      "type": "Feature",
      "properties": {
        "name": "Tizayuca"
      },
      "geometry": {
        "coordinates": [
          -98.97607,
          19.83721
        ],
        "type": "Point"
      }
    },
    {
      "type": "Feature",
      "properties": {
        "name": "Tixtla de Guerrero"
      },
      "geometry": {
        "coordinates": [
          -99.39799,
          17.56732
        ],
        "type": "Point"
      }
    },
    {
      "type": "Feature",
      "properties": {
        "name": "Tilzapotla"
      },
      "geometry": {
        "coordinates": [
          -99.27442,
          18.48916
        ],
        "type": "Point"
      }
    },
    {
      "type": "Feature",
      "properties": {
        "name": "Santiago Tillo"
      },
      "geometry": {
        "coordinates": [
          -97.32019,
          17.46085
        ],
        "type": "Point"
      }
    },
    {
      "type": "Feature",
      "properties": {
        "name": "San Martin Tilcajete"
      },
      "geometry": {
        "coordinates": [
          -96.6949,
          16.86008
        ],
        "type": "Point"
      }
    },
    {
      "type": "Feature",
      "properties": {
        "name": "Tilapa"
      },
      "geometry": {
        "coordinates": [
          -98.55156,
          18.59717
        ],
        "type": "Point"
      }
    },
    {
      "type": "Feature",
      "properties": {
        "name": "Tila"
      },
      "geometry": {
        "coordinates": [
          -92.4273,
          17.30054
        ],
        "type": "Point"
      }
    },
    {
      "type": "Feature",
      "properties": {
        "name": "Tihuatlan"
      },
      "geometry": {
        "coordinates": [
          -97.53335,
          20.71449
        ],
        "type": "Point"
      }
    },
    {
      "type": "Feature",
      "properties": {
        "name": "Tierra Colorada"
      },
      "geometry": {
        "coordinates": [
          -99.52791,
          17.16571
        ],
        "type": "Point"
      }
    },
    {
      "type": "Feature",
      "properties": {
        "name": "Santiago Tianguistenco"
      },
      "geometry": {
        "coordinates": [
          -99.46644,
          19.18024
        ],
        "type": "Point"
      }
    },
    {
      "type": "Feature",
      "properties": {
        "name": "Tezontepec de Aldama"
      },
      "geometry": {
        "coordinates": [
          -99.27429,
          20.19073
        ],
        "type": "Point"
      }
    },
    {
      "type": "Feature",
      "properties": {
        "name": "Tezontepec"
      },
      "geometry": {
        "coordinates": [
          -98.81972,
          19.88063
        ],
        "type": "Point"
      }
    },
    {
      "type": "Feature",
      "properties": {
        "name": "Tezoatlan de Segura y Luna"
      },
      "geometry": {
        "coordinates": [
          -97.81068,
          17.65388
        ],
        "type": "Point"
      }
    },
    {
      "type": "Feature",
      "properties": {
        "name": "Teziutlan"
      },
      "geometry": {
        "coordinates": [
          -97.35992,
          19.8173
        ],
        "type": "Point"
      }
    },
    {
      "type": "Feature",
      "properties": {
        "name": "Texistepec"
      },
      "geometry": {
        "coordinates": [
          -94.81711,
          17.89476
        ],
        "type": "Point"
      }
    },
    {
      "type": "Feature",
      "properties": {
        "name": "Texhuacan"
      },
      "geometry": {
        "coordinates": [
          -97.04025,
          18.62233
        ],
        "type": "Point"
      }
    },
    {
      "type": "Feature",
      "properties": {
        "name": "Texcoco"
      },
      "geometry": {
        "coordinates": [
          -98.88293,
          19.51194
        ],
        "type": "Point"
      }
    },
    {
      "type": "Feature",
      "properties": {
        "name": "Texcalyacac"
      },
      "geometry": {
        "coordinates": [
          -99.50163,
          19.13253
        ],
        "type": "Point"
      }
    },
    {
      "type": "Feature",
      "properties": {
        "name": "San Juan Texcalpan"
      },
      "geometry": {
        "coordinates": [
          -98.92889,
          18.93583
        ],
        "type": "Point"
      }
    },
    {
      "type": "Feature",
      "properties": {
        "name": "Texcala"
      },
      "geometry": {
        "coordinates": [
          -98.79472,
          18.93444
        ],
        "type": "Point"
      }
    },
    {
      "type": "Feature",
      "properties": {
        "name": "San Gabriel Tetzoyocan"
      },
      "geometry": {
        "coordinates": [
          -97.70324,
          18.75727
        ],
        "type": "Point"
      }
    },
    {
      "type": "Feature",
      "properties": {
        "name": "Tetipac"
      },
      "geometry": {
        "coordinates": [
          -99.64778,
          18.64778
        ],
        "type": "Point"
      }
    },
    {
      "type": "Feature",
      "properties": {
        "name": "Tetepango"
      },
      "geometry": {
        "coordinates": [
          -99.15108,
          20.10168
        ],
        "type": "Point"
      }
    },
    {
      "type": "Feature",
      "properties": {
        "name": "Teteltzingo"
      },
      "geometry": {
        "coordinates": [
          -97.14465,
          19.05141
        ],
        "type": "Point"
      }
    },
    {
      "type": "Feature",
      "properties": {
        "name": "Teteles de Avila Castillo"
      },
      "geometry": {
        "coordinates": [
          -97.45703,
          19.85748
        ],
        "type": "Point"
      }
    },
    {
      "type": "Feature",
      "properties": {
        "name": "Tetela de Ocampo"
      },
      "geometry": {
        "coordinates": [
          -97.80691,
          19.8177
        ],
        "type": "Point"
      }
    },
    {
      "type": "Feature",
      "properties": {
        "name": "Tetela del Volcan"
      },
      "geometry": {
        "coordinates": [
          -98.72972,
          18.89306
        ],
        "type": "Point"
      }
    },
    {
      "type": "Feature",
      "properties": {
        "name": "Tetecala"
      },
      "geometry": {
        "coordinates": [
          -99.40021,
          18.73009
        ],
        "type": "Point"
      }
    },
    {
      "type": "Feature",
      "properties": {
        "name": "Terrenate"
      },
      "geometry": {
        "coordinates": [
          -97.9202,
          19.47666
        ],
        "type": "Point"
      }
    },
    {
      "type": "Feature",
      "properties": {
        "name": "Tequixquiac"
      },
      "geometry": {
        "coordinates": [
          -99.14472,
          19.90944
        ],
        "type": "Point"
      }
    },
    {
      "type": "Feature",
      "properties": {
        "name": "Tequisquiapan"
      },
      "geometry": {
        "coordinates": [
          -99.89167,
          20.5225
        ],
        "type": "Point"
      }
    },
    {
      "type": "Feature",
      "properties": {
        "name": "Tequila"
      },
      "geometry": {
        "coordinates": [
          -97.06991,
          18.72998
        ],
        "type": "Point"
      }
    },
    {
      "type": "Feature",
      "properties": {
        "name": "San Martin Tequesquipan (Tequesquipan)"
      },
      "geometry": {
        "coordinates": [
          -99.94667,
          19.05806
        ],
        "type": "Point"
      }
    },
    {
      "type": "Feature",
      "properties": {
        "name": "San Juan Tepulco"
      },
      "geometry": {
        "coordinates": [
          -97.98847,
          19.11709
        ],
        "type": "Point"
      }
    },
    {
      "type": "Feature",
      "properties": {
        "name": "Cuautitlan Izcalli"
      },
      "geometry": {
        "coordinates": [
          -99.21598,
          19.64388
        ],
        "type": "Point"
      }
    },
    {
      "type": "Feature",
      "properties": {
        "name": "Tepoztlan"
      },
      "geometry": {
        "coordinates": [
          -99.10051,
          18.98622
        ],
        "type": "Point"
      }
    },
    {
      "type": "Feature",
      "properties": {
        "name": "Tepotzotlan"
      },
      "geometry": {
        "coordinates": [
          -99.22391,
          19.72116
        ],
        "type": "Point"
      }
    },
    {
      "type": "Feature",
      "properties": {
        "name": "Tepeyahualco"
      },
      "geometry": {
        "coordinates": [
          -97.87702,
          18.81428
        ],
        "type": "Point"
      }
    },
    {
      "type": "Feature",
      "properties": {
        "name": "Tepexi de Rodriguez"
      },
      "geometry": {
        "coordinates": [
          -97.92606,
          18.58108
        ],
        "type": "Point"
      }
    },
    {
      "type": "Feature",
      "properties": {
        "name": "Tepetzintla"
      },
      "geometry": {
        "coordinates": [
          -97.85235,
          21.1641
        ],
        "type": "Point"
      }
    },
    {
      "type": "Feature",
      "properties": {
        "name": "Tepetzintla"
      },
      "geometry": {
        "coordinates": [
          -97.84143,
          19.9672
        ],
        "type": "Point"
      }
    },
    {
      "type": "Feature",
      "properties": {
        "name": "Tepetlaoxtoc"
      },
      "geometry": {
        "coordinates": [
          -98.81835,
          19.57437
        ],
        "type": "Point"
      }
    },
    {
      "type": "Feature",
      "properties": {
        "name": "Tepetlacolco"
      },
      "geometry": {
        "coordinates": [
          -97.69284,
          18.64104
        ],
        "type": "Point"
      }
    },
    {
      "type": "Feature",
      "properties": {
        "name": "Barrio Tepetitlan Emilio Portes Gil"
      },
      "geometry": {
        "coordinates": [
          -99.88667,
          19.65306
        ],
        "type": "Point"
      }
    },
    {
      "type": "Feature",
      "properties": {
        "name": "Santa Cecilia Tepetitlan"
      },
      "geometry": {
        "coordinates": [
          -97.43395,
          19.19254
        ],
        "type": "Point"
      }
    },
    {
      "type": "Feature",
      "properties": {
        "name": "Tepetitla"
      },
      "geometry": {
        "coordinates": [
          -98.37645,
          19.26531
        ],
        "type": "Point"
      }
    },
    {
      "type": "Feature",
      "properties": {
        "name": "Tepepa"
      },
      "geometry": {
        "coordinates": [
          -98.17131,
          20.1344
        ],
        "type": "Point"
      }
    },
    {
      "type": "Feature",
      "properties": {
        "name": "Tepeojuma"
      },
      "geometry": {
        "coordinates": [
          -98.44633,
          18.72468
        ],
        "type": "Point"
      }
    },
    {
      "type": "Feature",
      "properties": {
        "name": "Tepeji del Rio de Ocampo"
      },
      "geometry": {
        "coordinates": [
          -99.34379,
          19.90481
        ],
        "type": "Point"
      }
    },
    {
      "type": "Feature",
      "properties": {
        "name": "Tepecoacuilco de Trujano"
      },
      "geometry": {
        "coordinates": [
          -99.46423,
          18.2875
        ],
        "type": "Point"
      }
    },
    {
      "type": "Feature",
      "properties": {
        "name": "Tepeapulco"
      },
      "geometry": {
        "coordinates": [
          -98.55266,
          19.7884
        ],
        "type": "Point"
      }
    },
    {
      "type": "Feature",
      "properties": {
        "name": "Tepeaca"
      },
      "geometry": {
        "coordinates": [
          -97.8998,
          18.96688
        ],
        "type": "Point"
      }
    },
    {
      "type": "Feature",
      "properties": {
        "name": "Tepatlaxco de Hidalgo"
      },
      "geometry": {
        "coordinates": [
          -97.96595,
          19.06747
        ],
        "type": "Point"
      }
    },
    {
      "type": "Feature",
      "properties": {
        "name": "Tepatlaxco"
      },
      "geometry": {
        "coordinates": [
          -96.84481,
          19.06927
        ],
        "type": "Point"
      }
    },
    {
      "type": "Feature",
      "properties": {
        "name": "Tepatepec"
      },
      "geometry": {
        "coordinates": [
          -99.08981,
          20.24568
        ],
        "type": "Point"
      }
    },
    {
      "type": "Feature",
      "properties": {
        "name": "Tepango"
      },
      "geometry": {
        "coordinates": [
          -97.79651,
          20.00314
        ],
        "type": "Point"
      }
    },
    {
      "type": "Feature",
      "properties": {
        "name": "Tepanco"
      },
      "geometry": {
        "coordinates": [
          -97.5613,
          18.55686
        ],
        "type": "Point"
      }
    },
    {
      "type": "Feature",
      "properties": {
        "name": "Tepalcingo"
      },
      "geometry": {
        "coordinates": [
          -98.84537,
          18.59498
        ],
        "type": "Point"
      }
    },
    {
      "type": "Feature",
      "properties": {
        "name": "Teotitlan del Valle"
      },
      "geometry": {
        "coordinates": [
          -96.51926,
          17.02975
        ],
        "type": "Point"
      }
    },
    {
      "type": "Feature",
      "properties": {
        "name": "Teopisca"
      },
      "geometry": {
        "coordinates": [
          -92.47405,
          16.54182
        ],
        "type": "Point"
      }
    },
    {
      "type": "Feature",
      "properties": {
        "name": "Teopantlan"
      },
      "geometry": {
        "coordinates": [
          -98.26341,
          18.71219
        ],
        "type": "Point"
      }
    },
    {
      "type": "Feature",
      "properties": {
        "name": "Teoloyucan"
      },
      "geometry": {
        "coordinates": [
          -99.18113,
          19.74423
        ],
        "type": "Point"
      }
    },
    {
      "type": "Feature",
      "properties": {
        "name": "Teocelo"
      },
      "geometry": {
        "coordinates": [
          -96.97371,
          19.3856
        ],
        "type": "Point"
      }
    },
    {
      "type": "Feature",
      "properties": {
        "name": "Tenosique de Pino Suarez"
      },
      "geometry": {
        "coordinates": [
          -91.4236,
          17.4729
        ],
        "type": "Point"
      }
    },
    {
      "type": "Feature",
      "properties": {
        "name": "Tanetze de Zaragoza"
      },
      "geometry": {
        "coordinates": [
          -96.30111,
          17.37616
        ],
        "type": "Point"
      }
    },
    {
      "type": "Feature",
      "properties": {
        "name": "Tenejapa"
      },
      "geometry": {
        "coordinates": [
          -92.50646,
          16.81878
        ],
        "type": "Point"
      }
    },
    {
      "type": "Feature",
      "properties": {
        "name": "Tenango del Aire"
      },
      "geometry": {
        "coordinates": [
          -98.85687,
          19.15774
        ],
        "type": "Point"
      }
    },
    {
      "type": "Feature",
      "properties": {
        "name": "Tenango de Doria"
      },
      "geometry": {
        "coordinates": [
          -98.22805,
          20.33828
        ],
        "type": "Point"
      }
    },
    {
      "type": "Feature",
      "properties": {
        "name": "Tenango de Arista"
      },
      "geometry": {
        "coordinates": [
          -99.5898,
          19.10446
        ],
        "type": "Point"
      }
    },
    {
      "type": "Feature",
      "properties": {
        "name": "San Sebastian Tenango"
      },
      "geometry": {
        "coordinates": [
          -98.17392,
          18.66282
        ],
        "type": "Point"
      }
    },
    {
      "type": "Feature",
      "properties": {
        "name": "Tenango"
      },
      "geometry": {
        "coordinates": [
          -92.41667,
          16.96667
        ],
        "type": "Point"
      }
    },
    {
      "type": "Feature",
      "properties": {
        "name": "Tenancingo"
      },
      "geometry": {
        "coordinates": [
          -99.5903,
          18.96136
        ],
        "type": "Point"
      }
    },
    {
      "type": "Feature",
      "properties": {
        "name": "Tenampulco"
      },
      "geometry": {
        "coordinates": [
          -97.40496,
          20.17042
        ],
        "type": "Point"
      }
    },
    {
      "type": "Feature",
      "properties": {
        "name": "Tenampa"
      },
      "geometry": {
        "coordinates": [
          -96.8839,
          19.24877
        ],
        "type": "Point"
      }
    },
    {
      "type": "Feature",
      "properties": {
        "name": "Tempoal de Sanchez"
      },
      "geometry": {
        "coordinates": [
          -98.38829,
          21.51998
        ],
        "type": "Point"
      }
    },
    {
      "type": "Feature",
      "properties": {
        "name": "Temoaya"
      },
      "geometry": {
        "coordinates": [
          -99.59407,
          19.46747
        ],
        "type": "Point"
      }
    },
    {
      "type": "Feature",
      "properties": {
        "name": "Temoac"
      },
      "geometry": {
        "coordinates": [
          -98.7775,
          18.77222
        ],
        "type": "Point"
      }
    },
    {
      "type": "Feature",
      "properties": {
        "name": "Temixco"
      },
      "geometry": {
        "coordinates": [
          -99.22537,
          18.85254
        ],
        "type": "Point"
      }
    },
    {
      "type": "Feature",
      "properties": {
        "name": "Temascalcingo de Jose Maria Velazco"
      },
      "geometry": {
        "coordinates": [
          -100.00369,
          19.91635
        ],
        "type": "Point"
      }
    },
    {
      "type": "Feature",
      "properties": {
        "name": "Temascalapa"
      },
      "geometry": {
        "coordinates": [
          -98.90171,
          19.82766
        ],
        "type": "Point"
      }
    },
    {
      "type": "Feature",
      "properties": {
        "name": "Temapache"
      },
      "geometry": {
        "coordinates": [
          -97.64207,
          21.06611
        ],
        "type": "Point"
      }
    },
    {
      "type": "Feature",
      "properties": {
        "name": "Temamatla"
      },
      "geometry": {
        "coordinates": [
          -98.86921,
          19.20306
        ],
        "type": "Point"
      }
    },
    {
      "type": "Feature",
      "properties": {
        "name": "Teloloapan"
      },
      "geometry": {
        "coordinates": [
          -99.86776,
          18.3674
        ],
        "type": "Point"
      }
    },
    {
      "type": "Feature",
      "properties": {
        "name": "Telixtac"
      },
      "geometry": {
        "coordinates": [
          -98.77625,
          18.56031
        ],
        "type": "Point"
      }
    },
    {
      "type": "Feature",
      "properties": {
        "name": "San Felipe Tejalapam"
      },
      "geometry": {
        "coordinates": [
          -96.8542,
          17.11134
        ],
        "type": "Point"
      }
    },
    {
      "type": "Feature",
      "properties": {
        "name": "San Juan Teitipac"
      },
      "geometry": {
        "coordinates": [
          -96.60619,
          16.92799
        ],
        "type": "Point"
      }
    },
    {
      "type": "Feature",
      "properties": {
        "name": "Tehuixtla"
      },
      "geometry": {
        "coordinates": [
          -99.27119,
          18.55944
        ],
        "type": "Point"
      }
    },
    {
      "type": "Feature",
      "properties": {
        "name": "Tehuetlan"
      },
      "geometry": {
        "coordinates": [
          -98.50853,
          21.05337
        ],
        "type": "Point"
      }
    },
    {
      "type": "Feature",
      "properties": {
        "name": "Tehuacan"
      },
      "geometry": {
        "coordinates": [
          -97.39735,
          18.46422
        ],
        "type": "Point"
      }
    },
    {
      "type": "Feature",
      "properties": {
        "name": "Tecpatan"
      },
      "geometry": {
        "coordinates": [
          -93.31133,
          17.13676
        ],
        "type": "Point"
      }
    },
    {
      "type": "Feature",
      "properties": {
        "name": "Tecozautla"
      },
      "geometry": {
        "coordinates": [
          -99.63449,
          20.53359
        ],
        "type": "Point"
      }
    },
    {
      "type": "Feature",
      "properties": {
        "name": "San Marcos Tecomaxusco"
      },
      "geometry": {
        "coordinates": [
          -98.76035,
          18.98152
        ],
        "type": "Point"
      }
    },
    {
      "type": "Feature",
      "properties": {
        "name": "Tecolutla"
      },
      "geometry": {
        "coordinates": [
          -97.01309,
          20.48049
        ],
        "type": "Point"
      }
    },
    {
      "type": "Feature",
      "properties": {
        "name": "Villa Tecolutilla"
      },
      "geometry": {
        "coordinates": [
          -93.33398,
          18.28338
        ],
        "type": "Point"
      }
    },
    {
      "type": "Feature",
      "properties": {
        "name": "Barra de Tecoanapa"
      },
      "geometry": {
        "coordinates": [
          -98.73216,
          16.50864
        ],
        "type": "Point"
      }
    },
    {
      "type": "Feature",
      "properties": {
        "name": "San Pedro Techuchulco"
      },
      "geometry": {
        "coordinates": [
          -99.52425,
          19.11359
        ],
        "type": "Point"
      }
    },
    {
      "type": "Feature",
      "properties": {
        "name": "Tecamachalco"
      },
      "geometry": {
        "coordinates": [
          -97.73344,
          18.88352
        ],
        "type": "Point"
      }
    },
    {
      "type": "Feature",
      "properties": {
        "name": "Tecali"
      },
      "geometry": {
        "coordinates": [
          -97.97064,
          18.9006
        ],
        "type": "Point"
      }
    },
    {
      "type": "Feature",
      "properties": {
        "name": "Tecajec"
      },
      "geometry": {
        "coordinates": [
          -98.815,
          18.79806
        ],
        "type": "Point"
      }
    },
    {
      "type": "Feature",
      "properties": {
        "name": "Teapa"
      },
      "geometry": {
        "coordinates": [
          -92.95211,
          17.5497
        ],
        "type": "Point"
      }
    },
    {
      "type": "Feature",
      "properties": {
        "name": "Taxco de Alarcon"
      },
      "geometry": {
        "coordinates": [
          -99.60592,
          18.55462
        ],
        "type": "Point"
      }
    },
    {
      "type": "Feature",
      "properties": {
        "name": "Tatatila"
      },
      "geometry": {
        "coordinates": [
          -97.1116,
          19.6932
        ],
        "type": "Point"
      }
    },
    {
      "type": "Feature",
      "properties": {
        "name": "Tatahuicapan"
      },
      "geometry": {
        "coordinates": [
          -94.76124,
          18.24621
        ],
        "type": "Point"
      }
    },
    {
      "type": "Feature",
      "properties": {
        "name": "Tasquillo"
      },
      "geometry": {
        "coordinates": [
          -99.31352,
          20.54836
        ],
        "type": "Point"
      }
    },
    {
      "type": "Feature",
      "properties": {
        "name": "Tapilula"
      },
      "geometry": {
        "coordinates": [
          -93.0167,
          17.2495
        ],
        "type": "Point"
      }
    },
    {
      "type": "Feature",
      "properties": {
        "name": "Tapachula"
      },
      "geometry": {
        "coordinates": [
          -92.25749,
          14.90385
        ],
        "type": "Point"
      }
    },
    {
      "type": "Feature",
      "properties": {
        "name": "Tantoyuca"
      },
      "geometry": {
        "coordinates": [
          -98.2257,
          21.35064
        ],
        "type": "Point"
      }
    },
    {
      "type": "Feature",
      "properties": {
        "name": "Tanute"
      },
      "geometry": {
        "coordinates": [
          -99.03765,
          21.65243
        ],
        "type": "Point"
      }
    },
    {
      "type": "Feature",
      "properties": {
        "name": "Tanquian de Escobedo"
      },
      "geometry": {
        "coordinates": [
          -98.66275,
          21.60587
        ],
        "type": "Point"
      }
    },
    {
      "type": "Feature",
      "properties": {
        "name": "Tamulte de las Sabanas"
      },
      "geometry": {
        "coordinates": [
          -92.78354,
          18.16168
        ],
        "type": "Point"
      }
    },
    {
      "type": "Feature",
      "properties": {
        "name": "Tamuin"
      },
      "geometry": {
        "coordinates": [
          -98.77972,
          22.00554
        ],
        "type": "Point"
      }
    },
    {
      "type": "Feature",
      "properties": {
        "name": "Tamiahua"
      },
      "geometry": {
        "coordinates": [
          -97.4462,
          21.27881
        ],
        "type": "Point"
      }
    },
    {
      "type": "Feature",
      "properties": {
        "name": "Tamazunchale"
      },
      "geometry": {
        "coordinates": [
          -98.78935,
          21.25993
        ],
        "type": "Point"
      }
    },
    {
      "type": "Feature",
      "properties": {
        "name": "Tamasopo"
      },
      "geometry": {
        "coordinates": [
          -99.39365,
          21.92426
        ],
        "type": "Point"
      }
    },
    {
      "type": "Feature",
      "properties": {
        "name": "Tamapatz"
      },
      "geometry": {
        "coordinates": [
          -99.07764,
          21.56654
        ],
        "type": "Point"
      }
    },
    {
      "type": "Feature",
      "properties": {
        "name": "Tamalin"
      },
      "geometry": {
        "coordinates": [
          -97.81188,
          21.33936
        ],
        "type": "Point"
      }
    },
    {
      "type": "Feature",
      "properties": {
        "name": "San Juan Tahitic"
      },
      "geometry": {
        "coordinates": [
          -97.55082,
          19.93605
        ],
        "type": "Point"
      }
    },
    {
      "type": "Feature",
      "properties": {
        "name": "Tacotalpa"
      },
      "geometry": {
        "coordinates": [
          -92.82596,
          17.59638
        ],
        "type": "Point"
      }
    },
    {
      "type": "Feature",
      "properties": {
        "name": "Sultepec de Pedro Ascencio de Alquisiras"
      },
      "geometry": {
        "coordinates": [
          -99.96588,
          18.85855
        ],
        "type": "Point"
      }
    },
    {
      "type": "Feature",
      "properties": {
        "name": "Suchiapa"
      },
      "geometry": {
        "coordinates": [
          -93.10074,
          16.62555
        ],
        "type": "Point"
      }
    },
    {
      "type": "Feature",
      "properties": {
        "name": "San Francisco Soyaniquilpan"
      },
      "geometry": {
        "coordinates": [
          -99.53022,
          20.01488
        ],
        "type": "Point"
      }
    },
    {
      "type": "Feature",
      "properties": {
        "name": "Soyalo"
      },
      "geometry": {
        "coordinates": [
          -92.92433,
          16.8913
        ],
        "type": "Point"
      }
    },
    {
      "type": "Feature",
      "properties": {
        "name": "Soteapan"
      },
      "geometry": {
        "coordinates": [
          -94.87296,
          18.23391
        ],
        "type": "Point"
      }
    },
    {
      "type": "Feature",
      "properties": {
        "name": "Soltepec"
      },
      "geometry": {
        "coordinates": [
          -97.70861,
          19.12111
        ],
        "type": "Point"
      }
    },
    {
      "type": "Feature",
      "properties": {
        "name": "Soledad de Doblado"
      },
      "geometry": {
        "coordinates": [
          -96.42142,
          19.04637
        ],
        "type": "Point"
      }
    },
    {
      "type": "Feature",
      "properties": {
        "name": "Soconusco"
      },
      "geometry": {
        "coordinates": [
          -94.88097,
          17.96315
        ],
        "type": "Point"
      }
    },
    {
      "type": "Feature",
      "properties": {
        "name": "Socoltenango"
      },
      "geometry": {
        "coordinates": [
          -92.35038,
          16.24484
        ],
        "type": "Point"
      }
    },
    {
      "type": "Feature",
      "properties": {
        "name": "Sochiapa"
      },
      "geometry": {
        "coordinates": [
          -96.93989,
          19.19292
        ],
        "type": "Point"
      }
    },
    {
      "type": "Feature",
      "properties": {
        "name": "Santiago Apostol"
      },
      "geometry": {
        "coordinates": [
          -96.72046,
          16.80381
        ],
        "type": "Point"
      }
    },
    {
      "type": "Feature",
      "properties": {
        "name": "Singuilucan"
      },
      "geometry": {
        "coordinates": [
          -98.51935,
          19.96874
        ],
        "type": "Point"
      }
    },
    {
      "type": "Feature",
      "properties": {
        "name": "Simojovel de Allende"
      },
      "geometry": {
        "coordinates": [
          -92.63333,
          17.2
        ],
        "type": "Point"
      }
    },
    {
      "type": "Feature",
      "properties": {
        "name": "San Sebastian del Monte"
      },
      "geometry": {
        "coordinates": [
          -98.02194,
          17.67778
        ],
        "type": "Point"
      }
    },
    {
      "type": "Feature",
      "properties": {
        "name": "Sayula de Aleman"
      },
      "geometry": {
        "coordinates": [
          -94.95986,
          17.88191
        ],
        "type": "Point"
      }
    },
    {
      "type": "Feature",
      "properties": {
        "name": "Xiloxoxtla"
      },
      "geometry": {
        "coordinates": [
          -98.21399,
          19.26786
        ],
        "type": "Point"
      }
    },
    {
      "type": "Feature",
      "properties": {
        "name": "San Vicente Tancuayalab"
      },
      "geometry": {
        "coordinates": [
          -98.58769,
          21.71886
        ],
        "type": "Point"
      }
    },
    {
      "type": "Feature",
      "properties": {
        "name": "San Vicente Lachixio"
      },
      "geometry": {
        "coordinates": [
          -97.01864,
          16.70502
        ],
        "type": "Point"
      }
    },
    {
      "type": "Feature",
      "properties": {
        "name": "San Vicente Coatlan"
      },
      "geometry": {
        "coordinates": [
          -96.8439,
          16.38852
        ],
        "type": "Point"
      }
    },
    {
      "type": "Feature",
      "properties": {
        "name": "Santo Tomas Jalieza"
      },
      "geometry": {
        "coordinates": [
          -96.67063,
          16.84469
        ],
        "type": "Point"
      }
    },
    {
      "type": "Feature",
      "properties": {
        "name": "Hueyotlipan"
      },
      "geometry": {
        "coordinates": [
          -97.86575,
          18.89148
        ],
        "type": "Point"
      }
    },
    {
      "type": "Feature",
      "properties": {
        "name": "Santo Tomas Chautla"
      },
      "geometry": {
        "coordinates": [
          -98.15288,
          18.96573
        ],
        "type": "Point"
      }
    },
    {
      "type": "Feature",
      "properties": {
        "name": "Santo Tomas Atzingo"
      },
      "geometry": {
        "coordinates": [
          -98.77873,
          19.1727
        ],
        "type": "Point"
      }
    },
    {
      "type": "Feature",
      "properties": {
        "name": "Santos Reyes Tepejillo"
      },
      "geometry": {
        "coordinates": [
          -97.93845,
          17.43782
        ],
        "type": "Point"
      }
    },
    {
      "type": "Feature",
      "properties": {
        "name": "Santo Domingo Zanatepec"
      },
      "geometry": {
        "coordinates": [
          -94.34754,
          16.48307
        ],
        "type": "Point"
      }
    },
    {
      "type": "Feature",
      "properties": {
        "name": "Xagacia"
      },
      "geometry": {
        "coordinates": [
          -96.26753,
          17.15436
        ],
        "type": "Point"
      }
    },
    {
      "type": "Feature",
      "properties": {
        "name": "Santo Domingo Tlatayapam"
      },
      "geometry": {
        "coordinates": [
          -97.34581,
          17.40778
        ],
        "type": "Point"
      }
    },
    {
      "type": "Feature",
      "properties": {
        "name": "Santo Domingo Tepuxtepec"
      },
      "geometry": {
        "coordinates": [
          -96.05823,
          16.95584
        ],
        "type": "Point"
      }
    },
    {
      "type": "Feature",
      "properties": {
        "name": "Santo Domingo Tehuantepec"
      },
      "geometry": {
        "coordinates": [
          -95.24104,
          16.32463
        ],
        "type": "Point"
      }
    },
    {
      "type": "Feature",
      "properties": {
        "name": "Santo Domingo Shomege (Shomege)"
      },
      "geometry": {
        "coordinates": [
          -99.90166,
          19.84524
        ],
        "type": "Point"
      }
    },
    {
      "type": "Feature",
      "properties": {
        "name": "Santo Domingo Huehuetlan"
      },
      "geometry": {
        "coordinates": [
          -98.16438,
          18.7394
        ],
        "type": "Point"
      }
    },
    {
      "type": "Feature",
      "properties": {
        "name": "Santo Domingo Atoyatempan"
      },
      "geometry": {
        "coordinates": [
          -98.37306,
          18.90444
        ],
        "type": "Point"
      }
    },
    {
      "type": "Feature",
      "properties": {
        "name": "Albarradas"
      },
      "geometry": {
        "coordinates": [
          -96.20012,
          17.06752
        ],
        "type": "Point"
      }
    },
    {
      "type": "Feature",
      "properties": {
        "name": "Santo Domingo de Guzman"
      },
      "geometry": {
        "coordinates": [
          -99.77972,
          19.59306
        ],
        "type": "Point"
      }
    },
    {
      "type": "Feature",
      "properties": {
        "name": "Santo Domingo"
      },
      "geometry": {
        "coordinates": [
          -92.10361,
          15.03067
        ],
        "type": "Point"
      }
    },
    {
      "type": "Feature",
      "properties": {
        "name": "Santiago Zoochila"
      },
      "geometry": {
        "coordinates": [
          -96.24212,
          17.22059
        ],
        "type": "Point"
      }
    },
    {
      "type": "Feature",
      "properties": {
        "name": "Zautla"
      },
      "geometry": {
        "coordinates": [
          -97.67146,
          19.71475
        ],
        "type": "Point"
      }
    },
    {
      "type": "Feature",
      "properties": {
        "name": "Santiago Yaitepec"
      },
      "geometry": {
        "coordinates": [
          -97.26953,
          16.22628
        ],
        "type": "Point"
      }
    },
    {
      "type": "Feature",
      "properties": {
        "name": "Santiago Tuxtla"
      },
      "geometry": {
        "coordinates": [
          -95.3006,
          18.46576
        ],
        "type": "Point"
      }
    },
    {
      "type": "Feature",
      "properties": {
        "name": "Texcaltitlan"
      },
      "geometry": {
        "coordinates": [
          -99.9387,
          18.93032
        ],
        "type": "Point"
      }
    },
    {
      "type": "Feature",
      "properties": {
        "name": "Santiago Texcalcingo"
      },
      "geometry": {
        "coordinates": [
          -96.96887,
          18.20835
        ],
        "type": "Point"
      }
    },
    {
      "type": "Feature",
      "properties": {
        "name": "Seccion Primera Santiago Tetla"
      },
      "geometry": {
        "coordinates": [
          -98.10407,
          19.43276
        ],
        "type": "Point"
      }
    },
    {
      "type": "Feature",
      "properties": {
        "name": "Santiago Suchilquitongo"
      },
      "geometry": {
        "coordinates": [
          -96.87825,
          17.25316
        ],
        "type": "Point"
      }
    },
    {
      "type": "Feature",
      "properties": {
        "name": "Pinotepa Nacional"
      },
      "geometry": {
        "coordinates": [
          -98.05297,
          16.34014
        ],
        "type": "Point"
      }
    },
    {
      "type": "Feature",
      "properties": {
        "name": "Santiago Nuyoo"
      },
      "geometry": {
        "coordinates": [
          -97.76659,
          17.01449
        ],
        "type": "Point"
      }
    },
    {
      "type": "Feature",
      "properties": {
        "name": "Santiago Nundiche"
      },
      "geometry": {
        "coordinates": [
          -97.67392,
          17.33136
        ],
        "type": "Point"
      }
    },
    {
      "type": "Feature",
      "properties": {
        "name": "Santiago Nejapilla"
      },
      "geometry": {
        "coordinates": [
          -97.37411,
          17.41983
        ],
        "type": "Point"
      }
    },
    {
      "type": "Feature",
      "properties": {
        "name": "Santiago Miltepec"
      },
      "geometry": {
        "coordinates": [
          -97.69006,
          17.98461
        ],
        "type": "Point"
      }
    },
    {
      "type": "Feature",
      "properties": {
        "name": "Miahuatlan"
      },
      "geometry": {
        "coordinates": [
          -97.43953,
          18.54983
        ],
        "type": "Point"
      }
    },
    {
      "type": "Feature",
      "properties": {
        "name": "Santiago Matatlan"
      },
      "geometry": {
        "coordinates": [
          -96.38261,
          16.8647
        ],
        "type": "Point"
      }
    },
    {
      "type": "Feature",
      "properties": {
        "name": "Santiago Laxopa"
      },
      "geometry": {
        "coordinates": [
          -96.31099,
          17.21842
        ],
        "type": "Point"
      }
    },
    {
      "type": "Feature",
      "properties": {
        "name": "Santiago Lalopa"
      },
      "geometry": {
        "coordinates": [
          -96.24893,
          17.41786
        ],
        "type": "Point"
      }
    },
    {
      "type": "Feature",
      "properties": {
        "name": "Santiago Juxtlahuaca"
      },
      "geometry": {
        "coordinates": [
          -98.01147,
          17.33462
        ],
        "type": "Point"
      }
    },
    {
      "type": "Feature",
      "properties": {
        "name": "Jamiltepec"
      },
      "geometry": {
        "coordinates": [
          -97.82446,
          16.28258
        ],
        "type": "Point"
      }
    },
    {
      "type": "Feature",
      "properties": {
        "name": "Santiago Huauclilla"
      },
      "geometry": {
        "coordinates": [
          -97.07277,
          17.45179
        ],
        "type": "Point"
      }
    },
    {
      "type": "Feature",
      "properties": {
        "name": "Santiago Huajolotitlan"
      },
      "geometry": {
        "coordinates": [
          -97.73266,
          17.82783
        ],
        "type": "Point"
      }
    },
    {
      "type": "Feature",
      "properties": {
        "name": "Santiago de la Pena"
      },
      "geometry": {
        "coordinates": [
          -97.40493,
          20.94512
        ],
        "type": "Point"
      }
    },
    {
      "type": "Feature",
      "properties": {
        "name": "Santiago Comaltepec"
      },
      "geometry": {
        "coordinates": [
          -96.54873,
          17.56547
        ],
        "type": "Point"
      }
    },
    {
      "type": "Feature",
      "properties": {
        "name": "Santiago Choapam"
      },
      "geometry": {
        "coordinates": [
          -95.92219,
          17.36084
        ],
        "type": "Point"
      }
    },
    {
      "type": "Feature",
      "properties": {
        "name": "Santiago Chazumba"
      },
      "geometry": {
        "coordinates": [
          -97.67983,
          18.19012
        ],
        "type": "Point"
      }
    },
    {
      "type": "Feature",
      "properties": {
        "name": "Santiago Ayuquililla"
      },
      "geometry": {
        "coordinates": [
          -97.95769,
          17.9331
        ],
        "type": "Point"
      }
    },
    {
      "type": "Feature",
      "properties": {
        "name": "Santiago Atzitzihuacan"
      },
      "geometry": {
        "coordinates": [
          -98.58167,
          18.82472
        ],
        "type": "Point"
      }
    },
    {
      "type": "Feature",
      "properties": {
        "name": "Santiago Astata"
      },
      "geometry": {
        "coordinates": [
          -95.67571,
          15.98775
        ],
        "type": "Point"
      }
    },
    {
      "type": "Feature",
      "properties": {
        "name": "Apoala"
      },
      "geometry": {
        "coordinates": [
          -97.13608,
          17.64845
        ],
        "type": "Point"
      }
    },
    {
      "type": "Feature",
      "properties": {
        "name": "Santiago Alseseca"
      },
      "geometry": {
        "coordinates": [
          -97.70716,
          18.84511
        ],
        "type": "Point"
      }
    },
    {
      "type": "Feature",
      "properties": {
        "name": "Santiago Acutzilapan"
      },
      "geometry": {
        "coordinates": [
          -99.76569,
          19.7864
        ],
        "type": "Point"
      }
    },
    {
      "type": "Feature",
      "properties": {
        "name": "Santiago Acatlan"
      },
      "geometry": {
        "coordinates": [
          -97.93375,
          18.99334
        ],
        "type": "Point"
      }
    },
    {
      "type": "Feature",
      "properties": {
        "name": "Santiago Tulantepec"
      },
      "geometry": {
        "coordinates": [
          -98.35563,
          20.03618
        ],
        "type": "Point"
      }
    },
    {
      "type": "Feature",
      "properties": {
        "name": "Santa Rosalia"
      },
      "geometry": {
        "coordinates": [
          -93.35806,
          18.08851
        ],
        "type": "Point"
      }
    },
    {
      "type": "Feature",
      "properties": {
        "name": "Santa Rita Tlahuapan"
      },
      "geometry": {
        "coordinates": [
          -98.57688,
          19.33211
        ],
        "type": "Point"
      }
    },
    {
      "type": "Feature",
      "properties": {
        "name": "Santa Maria Zoquitlan"
      },
      "geometry": {
        "coordinates": [
          -96.35325,
          16.55886
        ],
        "type": "Point"
      }
    },
    {
      "type": "Feature",
      "properties": {
        "name": "Santa Maria Zacatepec"
      },
      "geometry": {
        "coordinates": [
          -97.99028,
          16.76369
        ],
        "type": "Point"
      }
    },
    {
      "type": "Feature",
      "properties": {
        "name": "Santa Maria Yavesia"
      },
      "geometry": {
        "coordinates": [
          -96.43062,
          17.23531
        ],
        "type": "Point"
      }
    },
    {
      "type": "Feature",
      "properties": {
        "name": "Yalina"
      },
      "geometry": {
        "coordinates": [
          -96.26233,
          17.23969
        ],
        "type": "Point"
      }
    },
    {
      "type": "Feature",
      "properties": {
        "name": "Santa Maria Xonacatepec"
      },
      "geometry": {
        "coordinates": [
          -98.10361,
          19.08944
        ],
        "type": "Point"
      }
    },
    {
      "type": "Feature",
      "properties": {
        "name": "Santa Maria Xadani"
      },
      "geometry": {
        "coordinates": [
          -96.07364,
          15.94825
        ],
        "type": "Point"
      }
    },
    {
      "type": "Feature",
      "properties": {
        "name": "Santa Maria Tonameca"
      },
      "geometry": {
        "coordinates": [
          -96.54704,
          15.74805
        ],
        "type": "Point"
      }
    },
    {
      "type": "Feature",
      "properties": {
        "name": "Tlahuitoltepec"
      },
      "geometry": {
        "coordinates": [
          -96.06279,
          17.09746
        ],
        "type": "Point"
      }
    },
    {
      "type": "Feature",
      "properties": {
        "name": "Santa Maria Tepantlali"
      },
      "geometry": {
        "coordinates": [
          -96.00883,
          16.99663
        ],
        "type": "Point"
      }
    },
    {
      "type": "Feature",
      "properties": {
        "name": "Santa Maria Teopoxco"
      },
      "geometry": {
        "coordinates": [
          -96.95488,
          18.16655
        ],
        "type": "Point"
      }
    },
    {
      "type": "Feature",
      "properties": {
        "name": "Santa Maria Sola"
      },
      "geometry": {
        "coordinates": [
          -97.01297,
          16.56615
        ],
        "type": "Point"
      }
    },
    {
      "type": "Feature",
      "properties": {
        "name": "Santa Maria Rayon"
      },
      "geometry": {
        "coordinates": [
          -99.57974,
          19.14808
        ],
        "type": "Point"
      }
    },
    {
      "type": "Feature",
      "properties": {
        "name": "Santa Maria Petapa"
      },
      "geometry": {
        "coordinates": [
          -95.11913,
          16.8206
        ],
        "type": "Point"
      }
    },
    {
      "type": "Feature",
      "properties": {
        "name": "Nopaltepec"
      },
      "geometry": {
        "coordinates": [
          -98.71046,
          19.77829
        ],
        "type": "Point"
      }
    },
    {
      "type": "Feature",
      "properties": {
        "name": "Santa Maria Nduayaco"
      },
      "geometry": {
        "coordinates": [
          -97.49321,
          17.40996
        ],
        "type": "Point"
      }
    },
    {
      "type": "Feature",
      "properties": {
        "name": "Santa Maria Nativitas"
      },
      "geometry": {
        "coordinates": [
          -99.60857,
          19.58113
        ],
        "type": "Point"
      }
    },
    {
      "type": "Feature",
      "properties": {
        "name": "Nativitas"
      },
      "geometry": {
        "coordinates": [
          -97.33566,
          17.6616
        ],
        "type": "Point"
      }
    },
    {
      "type": "Feature",
      "properties": {
        "name": "Moyotzingo"
      },
      "geometry": {
        "coordinates": [
          -98.40486,
          19.24811
        ],
        "type": "Point"
      }
    },
    {
      "type": "Feature",
      "properties": {
        "name": "Santa Maria Mazatla"
      },
      "geometry": {
        "coordinates": [
          -99.38694,
          19.51528
        ],
        "type": "Point"
      }
    },
    {
      "type": "Feature",
      "properties": {
        "name": "Santa Maria Magdalena Cahuacan"
      },
      "geometry": {
        "coordinates": [
          -99.41123,
          19.63161
        ],
        "type": "Point"
      }
    },
    {
      "type": "Feature",
      "properties": {
        "name": "Santa Maria la Alta"
      },
      "geometry": {
        "coordinates": [
          -97.65809,
          18.59982
        ],
        "type": "Point"
      }
    },
    {
      "type": "Feature",
      "properties": {
        "name": "Santa Maria la Asuncion"
      },
      "geometry": {
        "coordinates": [
          -96.81917,
          18.10722
        ],
        "type": "Point"
      }
    },
    {
      "type": "Feature",
      "properties": {
        "name": "Santa Maria Jicaltepec"
      },
      "geometry": {
        "coordinates": [
          -98.04333,
          16.37917
        ],
        "type": "Point"
      }
    },
    {
      "type": "Feature",
      "properties": {
        "name": "Santa Maria Ixtiyucan"
      },
      "geometry": {
        "coordinates": [
          -97.81094,
          19.18688
        ],
        "type": "Point"
      }
    },
    {
      "type": "Feature",
      "properties": {
        "name": "Santa Maria Huazolotitlan"
      },
      "geometry": {
        "coordinates": [
          -97.91293,
          16.30359
        ],
        "type": "Point"
      }
    },
    {
      "type": "Feature",
      "properties": {
        "name": "Santa Maria Huatulco"
      },
      "geometry": {
        "coordinates": [
          -96.32063,
          15.83267
        ],
        "type": "Point"
      }
    },
    {
      "type": "Feature",
      "properties": {
        "name": "Santa Maria Ecatepec"
      },
      "geometry": {
        "coordinates": [
          -95.87997,
          16.28498
        ],
        "type": "Point"
      }
    },
    {
      "type": "Feature",
      "properties": {
        "name": "Santa Maria del Tule"
      },
      "geometry": {
        "coordinates": [
          -96.63573,
          17.04712
        ],
        "type": "Point"
      }
    },
    {
      "type": "Feature",
      "properties": {
        "name": "Santa Maria del Monte"
      },
      "geometry": {
        "coordinates": [
          -99.82355,
          19.28973
        ],
        "type": "Point"
      }
    },
    {
      "type": "Feature",
      "properties": {
        "name": "Santa Maria Cortijo"
      },
      "geometry": {
        "coordinates": [
          -98.28549,
          16.45151
        ],
        "type": "Point"
      }
    },
    {
      "type": "Feature",
      "properties": {
        "name": "Coronango"
      },
      "geometry": {
        "coordinates": [
          -98.30594,
          19.1209
        ],
        "type": "Point"
      }
    },
    {
      "type": "Feature",
      "properties": {
        "name": "Santa Maria Colotepec"
      },
      "geometry": {
        "coordinates": [
          -96.93951,
          15.89737
        ],
        "type": "Point"
      }
    },
    {
      "type": "Feature",
      "properties": {
        "name": "Santa Maria Chimalhuacan"
      },
      "geometry": {
        "coordinates": [
          -98.95038,
          19.42155
        ],
        "type": "Point"
      }
    },
    {
      "type": "Feature",
      "properties": {
        "name": "Santa Maria Chilapa de Diaz"
      },
      "geometry": {
        "coordinates": [
          -97.68333,
          17.51667
        ],
        "type": "Point"
      }
    },
    {
      "type": "Feature",
      "properties": {
        "name": "Santa Maria Chachoapam"
      },
      "geometry": {
        "coordinates": [
          -97.28422,
          17.5257
        ],
        "type": "Point"
      }
    },
    {
      "type": "Feature",
      "properties": {
        "name": "Santa Maria Camotlan"
      },
      "geometry": {
        "coordinates": [
          -97.692,
          17.89688
        ],
        "type": "Point"
      }
    },
    {
      "type": "Feature",
      "properties": {
        "name": "Ayoquezco de Aldama"
      },
      "geometry": {
        "coordinates": [
          -96.84287,
          16.6837
        ],
        "type": "Point"
      }
    },
    {
      "type": "Feature",
      "properties": {
        "name": "Heroica Ciudad de Tlaxiaco"
      },
      "geometry": {
        "coordinates": [
          -97.68053,
          17.26916
        ],
        "type": "Point"
      }
    },
    {
      "type": "Feature",
      "properties": {
        "name": "Santa Maria Apazco"
      },
      "geometry": {
        "coordinates": [
          -97.10034,
          17.63433
        ],
        "type": "Point"
      }
    },
    {
      "type": "Feature",
      "properties": {
        "name": "Santa Maria Ajoloapan"
      },
      "geometry": {
        "coordinates": [
          -99.04472,
          19.97694
        ],
        "type": "Point"
      }
    },
    {
      "type": "Feature",
      "properties": {
        "name": "Acuexcomac"
      },
      "geometry": {
        "coordinates": [
          -98.38501,
          19.03742
        ],
        "type": "Point"
      }
    },
    {
      "type": "Feature",
      "properties": {
        "name": "Santa Maria Huecatitla"
      },
      "geometry": {
        "coordinates": [
          -99.16911,
          19.72511
        ],
        "type": "Point"
      }
    },
    {
      "type": "Feature",
      "properties": {
        "name": "Santa Rita"
      },
      "geometry": {
        "coordinates": [
          -91.975,
          16.13167
        ],
        "type": "Point"
      }
    },
    {
      "type": "Feature",
      "properties": {
        "name": "Santa Isabel Cholula"
      },
      "geometry": {
        "coordinates": [
          -98.37944,
          18.99667
        ],
        "type": "Point"
      }
    },
    {
      "type": "Feature",
      "properties": {
        "name": "Santa Ines del Monte"
      },
      "geometry": {
        "coordinates": [
          -96.86238,
          16.92387
        ],
        "type": "Point"
      }
    },
    {
      "type": "Feature",
      "properties": {
        "name": "Ahuatempan"
      },
      "geometry": {
        "coordinates": [
          -98.0185,
          18.41269
        ],
        "type": "Point"
      }
    },
    {
      "type": "Feature",
      "properties": {
        "name": "El Carrizal"
      },
      "geometry": {
        "coordinates": [
          -95.39308,
          16.06438
        ],
        "type": "Point"
      }
    },
    {
      "type": "Feature",
      "properties": {
        "name": "Santa Gertrudis"
      },
      "geometry": {
        "coordinates": [
          -99.36667,
          19.73333
        ],
        "type": "Point"
      }
    },
    {
      "type": "Feature",
      "properties": {
        "name": "Santa Gertrudis"
      },
      "geometry": {
        "coordinates": [
          -96.80024,
          16.7858
        ],
        "type": "Point"
      }
    },
    {
      "type": "Feature",
      "properties": {
        "name": "Santa Cruz Xoxocotlan"
      },
      "geometry": {
        "coordinates": [
          -96.73518,
          17.02958
        ],
        "type": "Point"
      }
    },
    {
      "type": "Feature",
      "properties": {
        "name": "Santa Cruz Xitla"
      },
      "geometry": {
        "coordinates": [
          -96.67369,
          16.32321
        ],
        "type": "Point"
      }
    },
    {
      "type": "Feature",
      "properties": {
        "name": "Manzana Tercera de Santa Cruz Tepexpan"
      },
      "geometry": {
        "coordinates": [
          -99.70361,
          19.56917
        ],
        "type": "Point"
      }
    },
    {
      "type": "Feature",
      "properties": {
        "name": "Tecamac"
      },
      "geometry": {
        "coordinates": [
          -98.96895,
          19.71288
        ],
        "type": "Point"
      }
    },
    {
      "type": "Feature",
      "properties": {
        "name": "Santa Cruz Tayata"
      },
      "geometry": {
        "coordinates": [
          -97.56843,
          17.35718
        ],
        "type": "Point"
      }
    },
    {
      "type": "Feature",
      "properties": {
        "name": "Santa Cruz Nundaco"
      },
      "geometry": {
        "coordinates": [
          -97.72382,
          17.17109
        ],
        "type": "Point"
      }
    },
    {
      "type": "Feature",
      "properties": {
        "name": "Santa Cruz Mixtepec"
      },
      "geometry": {
        "coordinates": [
          -96.88072,
          16.79283
        ],
        "type": "Point"
      }
    },
    {
      "type": "Feature",
      "properties": {
        "name": "Santa Cruz Tlaxcala"
      },
      "geometry": {
        "coordinates": [
          -98.15076,
          19.35468
        ],
        "type": "Point"
      }
    },
    {
      "type": "Feature",
      "properties": {
        "name": "Santa Cruz Cuauhtenco"
      },
      "geometry": {
        "coordinates": [
          -99.72939,
          19.24907
        ],
        "type": "Point"
      }
    },
    {
      "type": "Feature",
      "properties": {
        "name": "Santa Clara"
      },
      "geometry": {
        "coordinates": [
          -98.3014,
          18.97616
        ],
        "type": "Point"
      }
    },
    {
      "type": "Feature",
      "properties": {
        "name": "Santa Clara Huitziltepec"
      },
      "geometry": {
        "coordinates": [
          -97.88117,
          18.7689
        ],
        "type": "Point"
      }
    },
    {
      "type": "Feature",
      "properties": {
        "name": "Santa Catarina Tlaltempan"
      },
      "geometry": {
        "coordinates": [
          -98.0808,
          18.61541
        ],
        "type": "Point"
      }
    },
    {
      "type": "Feature",
      "properties": {
        "name": "Santa Catarina Tayata"
      },
      "geometry": {
        "coordinates": [
          -97.55822,
          17.34715
        ],
        "type": "Point"
      }
    },
    {
      "type": "Feature",
      "properties": {
        "name": "Santa Catarina Quiane"
      },
      "geometry": {
        "coordinates": [
          -96.74067,
          16.88255
        ],
        "type": "Point"
      }
    },
    {
      "type": "Feature",
      "properties": {
        "name": "Pantelho"
      },
      "geometry": {
        "coordinates": [
          -92.47165,
          17.00563
        ],
        "type": "Point"
      }
    },
    {
      "type": "Feature",
      "properties": {
        "name": "Santa Catarina Otzolotepec"
      },
      "geometry": {
        "coordinates": [
          -97.26603,
          18.57705
        ],
        "type": "Point"
      }
    },
    {
      "type": "Feature",
      "properties": {
        "name": "Santa Catarina Minas"
      },
      "geometry": {
        "coordinates": [
          -96.61536,
          16.77969
        ],
        "type": "Point"
      }
    },
    {
      "type": "Feature",
      "properties": {
        "name": "Santa Catarina Mechoacan"
      },
      "geometry": {
        "coordinates": [
          -97.83707,
          16.33591
        ],
        "type": "Point"
      }
    },
    {
      "type": "Feature",
      "properties": {
        "name": "Santa Catarina Loxicha"
      },
      "geometry": {
        "coordinates": [
          -96.75391,
          16.06864
        ],
        "type": "Point"
      }
    },
    {
      "type": "Feature",
      "properties": {
        "name": "Santa Catarina Juquila"
      },
      "geometry": {
        "coordinates": [
          -97.29161,
          16.23819
        ],
        "type": "Point"
      }
    },
    {
      "type": "Feature",
      "properties": {
        "name": "Santa Catarina Cuixtla"
      },
      "geometry": {
        "coordinates": [
          -96.64236,
          16.30616
        ],
        "type": "Point"
      }
    },
    {
      "type": "Feature",
      "properties": {
        "name": "Santa Catarina Ayotzingo"
      },
      "geometry": {
        "coordinates": [
          -98.92985,
          19.20948
        ],
        "type": "Point"
      }
    },
    {
      "type": "Feature",
      "properties": {
        "name": "Santa Catarina"
      },
      "geometry": {
        "coordinates": [
          -99.14028,
          18.96972
        ],
        "type": "Point"
      }
    },
    {
      "type": "Feature",
      "properties": {
        "name": "Santa Ana Tlapacoyan"
      },
      "geometry": {
        "coordinates": [
          -96.83688,
          16.7434
        ],
        "type": "Point"
      }
    },
    {
      "type": "Feature",
      "properties": {
        "name": "Nextlalpan"
      },