{
  "type": "FeatureCollection",
  "features": [
    {
      "type": "Feature",
      "properties": {
        "name": "Yaxkukul"
      },
      "geometry": {
        "coordinates": [
          -89.41932,
          21.06139
        ],
        "type": "Point"
      }
    },
    {
      "type": "Feature",
      "properties": {
        "name": "Yaxcaba"
      },
      "geometry": {
        "coordinates": [
          -88.82714,
          20.54846
        ],
        "type": "Point"
      }
    },
    {
      "type": "Feature",
      "properties": {
        "name": "Valladolid"
      },
      "geometry": {
        "coordinates": [
          -88.19936,
          20.68812
        ],
        "type": "Point"
      }
    },
    {
      "type": "Feature",
      "properties": {
        "name": "Uman"
      },
      "geometry": {
        "coordinates": [
          -89.74649,
          20.88213
        ],
        "type": "Point"
      }
    },
    {
      "type": "Feature",
      "properties": {
        "name": "Ucu"
      },
      "geometry": {
        "coordinates": [
          -89.74466,
          21.03135
        ],
        "type": "Point"
      }
    },
    {
      "type": "Feature",
      "properties": {
        "name": "Uayma"
      },
      "geometry": {
        "coordinates": [
          -88.31693,
          20.71781
        ],
        "type": "Point"
      }
    },
    {
      "type": "Feature",
      "properties": {
        "name": "Tzucacab"
      },
      "geometry": {
        "coordinates": [
          -89.05022,
          20.07237
        ],
        "type": "Point"
      }
    },
    {
      "type": "Feature",
      "properties": {
        "name": "Tunkas"
      },
      "geometry": {
        "coordinates": [
          -88.75171,
          20.90294
        ],
        "type": "Point"
      }
    },
    {
      "type": "Feature",
      "properties": {
        "name": "Tizimin"
      },
      "geometry": {
        "coordinates": [
          -88.15101,
          21.14268
        ],
        "type": "Point"
      }
    },
    {
      "type": "Feature",
      "properties": {
        "name": "Tixpehual"
      },
      "geometry": {
        "coordinates": [
          -89.44203,
          20.97739
        ],
        "type": "Point"
      }
    },
    {
      "type": "Feature",
      "properties": {
        "name": "Tixkokob"
      },
      "geometry": {
        "coordinates": [
          -89.39484,
          21.0022
        ],
        "type": "Point"
      }
    },
    {
      "type": "Feature",
      "properties": {
        "name": "Tixcacaltuyub"
      },
      "geometry": {
        "coordinates": [
          -88.91637,
          20.49316
        ],
        "type": "Point"
      }
    },
    {
      "type": "Feature",
      "properties": {
        "name": "Tinum"
      },
      "geometry": {
        "coordinates": [
          -88.39164,
          20.76779
        ],
        "type": "Point"
      }
    },
    {
      "type": "Feature",
      "properties": {
        "name": "Timucuy"
      },
      "geometry": {
        "coordinates": [
          -89.51383,
          20.81023
        ],
        "type": "Point"
      }
    },
    {
      "type": "Feature",
      "properties": {
        "name": "Tikuch"
      },
      "geometry": {
        "coordinates": [
          -88.11272,
          20.70301
        ],
        "type": "Point"
      }
    },
    {
      "type": "Feature",
      "properties": {
        "name": "Tiholop"
      },
      "geometry": {
        "coordinates": [
          -88.68958,
          20.33234
        ],
        "type": "Point"
      }
    },
    {
      "type": "Feature",
      "properties": {
        "name": "Ticul"
      },
      "geometry": {
        "coordinates": [
          -89.53541,
          20.39833
        ],
        "type": "Point"
      }
    },
    {
      "type": "Feature",
      "properties": {
        "name": "Tetiz"
      },
      "geometry": {
        "coordinates": [
          -89.93384,
          20.96316
        ],
        "type": "Point"
      }
    },
    {
      "type": "Feature",
      "properties": {
        "name": "Tesoco"
      },
      "geometry": {
        "coordinates": [
          -88.15456,
          20.72259
        ],
        "type": "Point"
      }
    },
    {
      "type": "Feature",
      "properties": {
        "name": "Tepakan"
      },
      "geometry": {
        "coordinates": [
          -89.03873,
          21.04882
        ],
        "type": "Point"
      }
    },
    {
      "type": "Feature",
      "properties": {
        "name": "Tenabo"
      },
      "geometry": {
        "coordinates": [
          -90.22573,
          20.03981
        ],
        "type": "Point"
      }
    },
    {
      "type": "Feature",
      "properties": {
        "name": "Temozon"
      },
      "geometry": {
        "coordinates": [
          -88.20155,
          20.80393
        ],
        "type": "Point"
      }
    },
    {
      "type": "Feature",
      "properties": {
        "name": "Temax"
      },
      "geometry": {
        "coordinates": [
          -88.94039,
          21.15105
        ],
        "type": "Point"
      }
    },
    {
      "type": "Feature",
      "properties": {
        "name": "Telchac Puerto"
      },
      "geometry": {
        "coordinates": [
          -89.26333,
          21.34121
        ],
        "type": "Point"
      }
    },
    {
      "type": "Feature",
      "properties": {
        "name": "Telchac Pueblo"
      },
      "geometry": {
        "coordinates": [
          -89.26945,
          21.20312
        ],
        "type": "Point"
      }
    },
    {
      "type": "Feature",
      "properties": {
        "name": "Tekit"
      },
      "geometry": {
        "coordinates": [
          -89.33315,
          20.53465
        ],
        "type": "Point"
      }
    },
    {
      "type": "Feature",
      "properties": {
        "name": "Tecax"
      },
      "geometry": {
        "coordinates": [
          -89.28522,
          20.2052
        ],
        "type": "Point"
      }
    },
    {
      "type": "Feature",
      "properties": {
        "name": "Tekanto"
      },
      "geometry": {
        "coordinates": [
          -89.10723,
          21.00968
        ],
        "type": "Point"
      }
    },
    {
      "type": "Feature",
      "properties": {
        "name": "Tekoh"
      },
      "geometry": {
        "coordinates": [
          -89.47406,
          20.74361
        ],
        "type": "Point"
      }
    },
    {
      "type": "Feature",
      "properties": {
        "name": "Teabo"
      },
      "geometry": {
        "coordinates": [
          -89.28316,
          20.40059
        ],
        "type": "Point"
      }
    },
    {
      "type": "Feature",
      "properties": {
        "name": "Tahmek"
      },
      "geometry": {
        "coordinates": [
          -89.25473,
          20.8736
        ],
        "type": "Point"
      }
    },
    {
      "type": "Feature",
      "properties": {
        "name": "Sucila"
      },
      "geometry": {
        "coordinates": [
          -88.31405,
          21.1565
        ],
        "type": "Point"
      }
    },
    {
      "type": "Feature",
      "properties": {
        "name": "Brisas Barra de Suchiate"
      },
      "geometry": {
        "coordinates": [
          -92.22414,
          14.53588
        ],
        "type": "Point"
      }
    },
    {
      "type": "Feature",
      "properties": {
        "name": "Sotuta"
      },
      "geometry": {
        "coordinates": [
          -89.00815,
          20.59678
        ],
        "type": "Point"
      }
    },
    {
      "type": "Feature",
      "properties": {
        "name": "Sisal"
      },
      "geometry": {
        "coordinates": [
          -90.02532,
          21.167
        ],
        "type": "Point"
      }
    },
    {
      "type": "Feature",
      "properties": {
        "name": "Sierra Papacal"
      },
      "geometry": {
        "coordinates": [
          -89.73018,
          21.12522
        ],
        "type": "Point"
      }
    },
    {
      "type": "Feature",
      "properties": {
        "name": "Seye"
      },
      "geometry": {
        "coordinates": [
          -89.37174,
          20.83568
        ],
        "type": "Point"
      }
    },
    {
      "type": "Feature",
      "properties": {
        "name": "Seybaplaya"
      },
      "geometry": {
        "coordinates": [
          -90.68706,
          19.63994
        ],
        "type": "Point"
      }
    },
    {
      "type": "Feature",
      "properties": {
        "name": "Santa Maria Acu"
      },
      "geometry": {
        "coordinates": [
          -90.16365,
          20.54644
        ],
        "type": "Point"
      }
    },
    {
      "type": "Feature",
      "properties": {
        "name": "Santa Elena"
      },
      "geometry": {
        "coordinates": [
          -89.64363,
          20.3289
        ],
        "type": "Point"
      }
    },
    {
      "type": "Feature",
      "properties": {
        "name": "Sahcaba"
      },
      "geometry": {
        "coordinates": [
          -89.18138,
          20.79174
        ],
        "type": "Point"
      }
    },
    {
      "type": "Feature",
      "properties": {
        "name": "Sacalum"
      },
      "geometry": {
        "coordinates": [
          -89.59035,
          20.49749
        ],
        "type": "Point"
      }
    },
    {
      "type": "Feature",
      "properties": {
        "name": "Sabancuy"
      },
      "geometry": {
        "coordinates": [
          -91.17783,
          18.9727
        ],
        "type": "Point"
      }
    },
    {
      "type": "Feature",
      "properties": {
        "name": "Rio Lagartos"
      },
      "geometry": {
        "coordinates": [
          -88.15773,
          21.5967
        ],
        "type": "Point"
      }
    },
    {
      "type": "Feature",
      "properties": {
        "name": "Quintana Roo"
      },
      "geometry": {
        "coordinates": [
          -88.63153,
          20.86946
        ],
        "type": "Point"
      }
    },
    {
      "type": "Feature",
      "properties": {
        "name": "Progreso"
      },
      "geometry": {
        "coordinates": [
          -89.66123,
          21.28306
        ],
        "type": "Point"
      }
    },
    {
      "type": "Feature",
      "properties": {
        "name": "Pomuch"
      },
      "geometry": {
        "coordinates": [
          -90.17488,
          20.13727
        ],
        "type": "Point"
      }
    },
    {
      "type": "Feature",
      "properties": {
        "name": "Piste"
      },
      "geometry": {
        "coordinates": [
          -88.58889,
          20.69972
        ],
        "type": "Point"
      }
    },
    {
      "type": "Feature",
      "properties": {
        "name": "Peto"
      },
      "geometry": {
        "coordinates": [
          -88.92282,
          20.12776
        ],
        "type": "Point"
      }
    },
    {
      "type": "Feature",
      "properties": {
        "name": "Panaba"
      },
      "geometry": {
        "coordinates": [
          -88.26982,
          21.29598
        ],
        "type": "Point"
      }
    },
    {
      "type": "Feature",
      "properties": {
        "name": "Palizada"
      },
      "geometry": {
        "coordinates": [
          -92.0911,
          18.25503
        ],
        "type": "Point"
      }
    },
    {
      "type": "Feature",
      "properties": {
        "name": "Oxkutzkab"
      },
      "geometry": {
        "coordinates": [
          -89.41809,
          20.30734
        ],
        "type": "Point"
      }
    },
    {
      "type": "Feature",
      "properties": {
        "name": "Opichen"
      },
      "geometry": {
        "coordinates": [
          -89.85714,
          20.55169
        ],
        "type": "Point"
      }
    },
    {
      "type": "Feature",
      "properties": {
        "name": "Nunkini"
      },
      "geometry": {
        "coordinates": [
          -90.14803,
          20.40046
        ],
        "type": "Point"
      }
    },
    {
      "type": "Feature",
      "properties": {
        "name": "Muna"
      },
      "geometry": {
        "coordinates": [
          -89.71387,
          20.48794
        ],
        "type": "Point"
      }
    },
    {
      "type": "Feature",
      "properties": {
        "name": "Motul"
      },
      "geometry": {
        "coordinates": [
          -89.28332,
          21.09571
        ],
        "type": "Point"
      }
    },
    {
      "type": "Feature",
      "properties": {
        "name": "Mococha"
      },
      "geometry": {
        "coordinates": [
          -89.45217,
          21.10621
        ],
        "type": "Point"
      }
    },
    {
      "type": "Feature",
      "properties": {
        "name": "Merida"
      },
      "geometry": {
        "coordinates": [
          -89.61696,
          20.97537
        ],
        "type": "Point"
      }
    },
    {
      "type": "Feature",
      "properties": {
        "name": "Maxcanu"
      },
      "geometry": {
        "coordinates": [
          -90.001,
          20.58456
        ],
        "type": "Point"
      }
    },
    {
      "type": "Feature",
      "properties": {
        "name": "Mani"
      },
      "geometry": {
        "coordinates": [
          -89.39189,
          20.38774
        ],
        "type": "Point"
      }
    },
    {
      "type": "Feature",
      "properties": {
        "name": "Mama"
      },
      "geometry": {
        "coordinates": [
          -89.36498,
          20.47857
        ],
        "type": "Point"
      }
    },
    {
      "type": "Feature",
      "properties": {
        "name": "Loche"
      },
      "geometry": {
        "coordinates": [
          -88.14566,
          21.38828
        ],
        "type": "Point"
      }
    },
    {
      "type": "Feature",
      "properties": {
        "name": "Komchen"
      },
      "geometry": {
        "coordinates": [
          -89.66242,
          21.10342
        ],
        "type": "Point"
      }
    },
    {
      "type": "Feature",
      "properties": {
        "name": "Kinchil"
      },
      "geometry": {
        "coordinates": [
          -89.94825,
          20.91519
        ],
        "type": "Point"
      }
    },
    {
      "type": "Feature",
      "properties": {
        "name": "Kantunil"
      },
      "geometry": {
        "coordinates": [
          -89.03539,
          20.79645
        ],
        "type": "Point"
      }
    },
    {
      "type": "Feature",
      "properties": {
        "name": "Kanasin"
      },
      "geometry": {
        "coordinates": [
          -89.55871,
          20.93482
        ],
        "type": "Point"
      }
    },
    {
      "type": "Feature",
      "properties": {
        "name": "Izamal"
      },
      "geometry": {
        "coordinates": [
          -89.01802,
          20.93537
        ],
        "type": "Point"
      }
    },
    {
      "type": "Feature",
      "properties": {
        "name": "Ixil"
      },
      "geometry": {
        "coordinates": [
          -89.48182,
          21.15235
        ],
        "type": "Point"
      }
    },
    {
      "type": "Feature",
      "properties": {
        "name": "Isla Aguada"
      },
      "geometry": {
        "coordinates": [
          -91.49277,
          18.78714
        ],
        "type": "Point"
      }
    },
    {
      "type": "Feature",
      "properties": {
        "name": "Itzincab Palomeque"
      },
      "geometry": {
        "coordinates": [
          -89.69823,
          20.91644
        ],
        "type": "Point"
      }
    },
    {
      "type": "Feature",
      "properties": {
        "name": "Hunucma"
      },
      "geometry": {
        "coordinates": [
          -89.87551,
          21.01723
        ],
        "type": "Point"
      }
    },
    {
      "type": "Feature",
      "properties": {
        "name": "Huhi"
      },
      "geometry": {
        "coordinates": [
          -89.16072,
          20.72603
        ],
        "type": "Point"
      }
    },
    {
      "type": "Feature",
      "properties": {
        "name": "Hopelchen"
      },
      "geometry": {
        "coordinates": [
          -89.84437,
          19.74671
        ],
        "type": "Point"
      }
    },
    {
      "type": "Feature",
      "properties": {
        "name": "Homun"
      },
      "geometry": {
        "coordinates": [
          -89.2849,
          20.73918
        ],
        "type": "Point"
      }
    },
    {
      "type": "Feature",
      "properties": {
        "name": "Hoctun"
      },
      "geometry": {
        "coordinates": [
          -89.20125,
          20.86513
        ],
        "type": "Point"
      }
    },
    {
      "type": "Feature",
      "properties": {
        "name": "Hocaba"
      },
      "geometry": {
        "coordinates": [
          -89.24626,
          20.8162
        ],
        "type": "Point"
      }
    },
    {
      "type": "Feature",
      "properties": {
        "name": "Hecelchakan"
      },
      "geometry": {
        "coordinates": [
          -90.13357,
          20.17735
        ],
        "type": "Point"
      }
    },
    {
      "type": "Feature",
      "properties": {
        "name": "Halacho"
      },
      "geometry": {
        "coordinates": [
          -90.08104,
          20.4777
        ],
        "type": "Point"
      }
    },
    {
      "type": "Feature",
      "properties": {
        "name": "Espita"
      },
      "geometry": {
        "coordinates": [
          -88.30681,
          21.01098
        ],
        "type": "Point"
      }
    },
    {
      "type": "Feature",
      "properties": {
        "name": "Escarcega"
      },
      "geometry": {
        "coordinates": [
          -90.74544,
          18.60891
        ],
        "type": "Point"
      }
    },
    {
      "type": "Feature",
      "properties": {
        "name": "Dzitnup"
      },
      "geometry": {
        "coordinates": [
          -88.24453,
          20.64725
        ],
        "type": "Point"
      }
    },
    {
      "type": "Feature",
      "properties": {
        "name": "Dzitbalche"
      },
      "geometry": {
        "coordinates": [
          -90.05611,
          20.31857
        ],
        "type": "Point"
      }
    },
    {
      "type": "Feature",
      "properties": {
        "name": "Dzitas"
      },
      "geometry": {
        "coordinates": [
          -88.52908,
          20.84089
        ],
        "type": "Point"
      }
    },
    {
      "type": "Feature",
      "properties": {
        "name": "Dzilam Gonzalez"
      },
      "geometry": {
        "coordinates": [
          -88.92957,
          21.28098
        ],
        "type": "Point"
      }
    },
    {
      "type": "Feature",
      "properties": {
        "name": "Dzilam de Bravo"
      },
      "geometry": {
        "coordinates": [
          -88.8941,
          21.39194
        ],
        "type": "Point"
      }
    },
    {
      "type": "Feature",
      "properties": {
        "name": "Dzidzantun"
      },
      "geometry": {
        "coordinates": [
          -89.04205,
          21.24898
        ],
        "type": "Point"
      }
    },
    {
      "type": "Feature",
      "properties": {
        "name": "Dzibalchen"
      },
      "geometry": {
        "coordinates": [
          -89.73111,
          19.45847
        ],
        "type": "Point"
      }
    },
    {
      "type": "Feature",
      "properties": {
        "name": "Dzemul"
      },
      "geometry": {
        "coordinates": [
          -89.30956,
          21.21036
        ],
        "type": "Point"
      }
    },
    {
      "type": "Feature",
      "properties": {
        "name": "Dzan"
      },
      "geometry": {
        "coordinates": [
          -89.46855,
          20.38888
        ],
        "type": "Point"
      }
    },
    {
      "type": "Feature",
      "properties": {
        "name": "Cuzama"
      },
      "geometry": {
        "coordinates": [
          -89.31732,
          20.74202
        ],
        "type": "Point"
      }
    },
    {
      "type": "Feature",
      "properties": {
        "name": "Conkal"
      },
      "geometry": {
        "coordinates": [
          -89.51995,
          21.07365
        ],
        "type": "Point"
      }
    },
    {
      "type": "Feature",
      "properties": {
        "name": "Ciudad del Carmen"
      },
      "geometry": {
        "coordinates": [
          -91.82991,
          18.64592
        ],
        "type": "Point"
      }
    },
    {
      "type": "Feature",
      "properties": {
        "name": "Chumayel"
      },
      "geometry": {
        "coordinates": [
          -89.30111,
          20.42833
        ],
        "type": "Point"
      }
    },
    {
      "type": "Feature",
      "properties": {
        "name": "Cholul Canton"
      },
      "geometry": {
        "coordinates": [
          -89.29147,
          21.01078
        ],
        "type": "Point"
      }
    },
    {
      "type": "Feature",
      "properties": {
        "name": "Chochola"
      },
      "geometry": {
        "coordinates": [
          -89.83041,
          20.75087
        ],
        "type": "Point"
      }
    },
    {
      "type": "Feature",
      "properties": {
        "name": "China"
      },
      "geometry": {
        "coordinates": [
          -90.49595,
          19.76993
        ],
        "type": "Point"
      }
    },
    {
      "type": "Feature",
      "properties": {
        "name": "Chikindzonot"
      },
      "geometry": {
        "coordinates": [
          -88.4863,
          20.33436
        ],
        "type": "Point"
      }
    },
    {
      "type": "Feature",
      "properties": {
        "name": "Chicxulub Pueblo"
      },
      "geometry": {
        "coordinates": [
          -89.51625,
          21.13617
        ],
        "type": "Point"
      }
    },
    {
      "type": "Feature",
      "properties": {
        "name": "Chichimila"
      },
      "geometry": {
        "coordinates": [
          -88.21689,
          20.63176
        ],
        "type": "Point"
      }
    },
    {
      "type": "Feature",
      "properties": {
        "name": "Chichen-Itza"
      },
      "geometry": {
        "coordinates": [
          -88.56667,
          20.66667
        ],
        "type": "Point"
      }
    },
    {
      "type": "Feature",
      "properties": {
        "name": "Chemax"
      },
      "geometry": {
        "coordinates": [
          -87.9364,
          20.65613
        ],
        "type": "Point"
      }
    },
    {
      "type": "Feature",
      "properties": {
        "name": "Chelem"
      },
      "geometry": {
        "coordinates": [
          -89.74006,
          21.26967
        ],
        "type": "Point"
      }
    },
    {
      "type": "Feature",
      "properties": {
        "name": "Champoton"
      },
      "geometry": {
        "coordinates": [
          -90.72576,
          19.34441
        ],
        "type": "Point"
      }
    },
    {
      "type": "Feature",
      "properties": {
        "name": "Cepeda"
      },
      "geometry": {
        "coordinates": [
          -90.10979,
          20.506
        ],
        "type": "Point"
      }
    },
    {
      "type": "Feature",
      "properties": {
        "name": "Cenotillo"
      },
      "geometry": {
        "coordinates": [
          -88.60438,
          20.96621
        ],
        "type": "Point"
      }
    },
    {
      "type": "Feature",
      "properties": {
        "name": "Celestun"
      },
      "geometry": {
        "coordinates": [
          -90.39902,
          20.85973
        ],
        "type": "Point"
      }
    },
    {
      "type": "Feature",
      "properties": {
        "name": "Caucel"
      },
      "geometry": {
        "coordinates": [
          -89.70347,
          21.01539
        ],
        "type": "Point"
      }
    },
    {
      "type": "Feature",
      "properties": {
        "name": "Cansahcab"
      },
      "geometry": {
        "coordinates": [
          -89.10131,
          21.15749
        ],
        "type": "Point"
      }
    },
    {
      "type": "Feature",
      "properties": {
        "name": "Campeche"
      },
      "geometry": {
        "coordinates": [
          -90.52554,
          19.84386
        ],
        "type": "Point"
      }
    },
    {
      "type": "Feature",
      "properties": {
        "name": "Calotmul"
      },
      "geometry": {
        "coordinates": [
          -88.17723,
          21.0205
        ],
        "type": "Point"
      }
    },
    {
      "type": "Feature",
      "properties": {
        "name": "Calkini"
      },
      "geometry": {
        "coordinates": [
          -90.05119,
          20.36905
        ],
        "type": "Point"
      }
    },
    {
      "type": "Feature",
      "properties": {
        "name": "Cacalchen"
      },
      "geometry": {
        "coordinates": [
          -89.22686,
          20.98358
        ],
        "type": "Point"
      }
    },
    {
      "type": "Feature",
      "properties": {
        "name": "Buctzotz"
      },
      "geometry": {
        "coordinates": [
          -88.79271,
          21.20303
        ],
        "type": "Point"
      }
    },
    {
      "type": "Feature",
      "properties": {
        "name": "Becal"
      },
      "geometry": {
        "coordinates": [
          -90.02738,
          20.44172
        ],
        "type": "Point"
      }
    },
    {
      "type": "Feature",
      "properties": {
        "name": "Baca"
      },
      "geometry": {
        "coordinates": [
          -89.39866,
          21.10874
        ],
        "type": "Point"
      }
    },
    {
      "type": "Feature",
      "properties": {
        "name": "Akil"
      },
      "geometry": {
        "coordinates": [
          -89.34787,
          20.26547
        ],
        "type": "Point"
      }
    },
    {
      "type": "Feature",
      "properties": {
        "name": "Acanceh"
      },
      "geometry": {
        "coordinates": [
          -89.45295,
          20.81269
        ],
        "type": "Point"
      }
    },
    {
      "type": "Feature",
      "properties": {
        "name": "Villa Madero"
      },
      "geometry": {
        "coordinates": [
          -90.69917,
          19.52833
        ],
        "type": "Point"
      }
    },
    {
      "type": "Feature",
      "properties": {
        "name": "La Joya"
      },
      "geometry": {
        "coordinates": [
          -90.67333,
          19.48028
        ],
        "type": "Point"
      }
    },
    {
      "type": "Feature",
      "properties": {
        "name": "Santo Domingo Keste"
      },
      "geometry": {
        "coordinates": [
          -90.51139,
          19.49972
        ],
        "type": "Point"
      }
    },
    {
      "type": "Feature",
      "properties": {
        "name": "San Pablo Pixtun"
      },
      "geometry": {
        "coordinates": [
          -90.73194,
          19.13361
        ],
        "type": "Point"
      }
    },
    {
      "type": "Feature",
      "properties": {
        "name": "Colonia Emiliano Zapata"
      },
      "geometry": {
        "coordinates": [
          -92.31088,
          18.66504
        ],
        "type": "Point"
      }
    },
    {
      "type": "Feature",
      "properties": {
        "name": "Haro"
      },
      "geometry": {
        "coordinates": [
          -90.79153,
          18.44418
        ],
        "type": "Point"
      }
    },
    {
      "type": "Feature",
      "properties": {
        "name": "Panaba"
      },
      "geometry": {
        "coordinates": [
          -88.27056,
          21.29639
        ],
        "type": "Point"
      }
    },
    {
      "type": "Feature",
      "properties": {
        "name": "Sucila"
      },
      "geometry": {
        "coordinates": [
          -88.31361,
          21.15444
        ],
        "type": "Point"
      }
    },
    {
      "type": "Feature",
      "properties": {
        "name": "Tixhualactun"
      },
      "geometry": {
        "coordinates": [
          -88.14308,
          20.64403
        ],
        "type": "Point"
      }
    },
    {
      "type": "Feature",
      "properties": {
        "name": "Kinil"
      },
      "geometry": {
        "coordinates": [
          -89.13285,
          20.32379
        ],
        "type": "Point"
      }
    },
    {
      "type": "Feature",
      "properties": {
        "name": "Xul"
      },
      "geometry": {
        "coordinates": [
          -89.46,
          20.10222
        ],
        "type": "Point"
      }
    },
    {
      "type": "Feature",
      "properties": {
        "name": "Don Samuel"
      },
      "geometry": {
        "coordinates": [
          -90.85722,
          18.36
        ],
        "type": "Point"
      }
    },
    {
      "type": "Feature",
      "properties": {
        "name": "Xbacab"
      },
      "geometry": {
        "coordinates": [
          -90.72194,
          18.94139
        ],
        "type": "Point"
      }
    },
    {
      "type": "Feature",
      "properties": {
        "name": "Campestre Flamboyanes"
      },
      "geometry": {
        "coordinates": [
          -89.65778,
          21.21
        ],
        "type": "Point"
      }
    },
    {
      "type": "Feature",
      "properties": {
        "name": "Leona Vicario"
      },
      "geometry": {
        "coordinates": [
          -89.60111,
          20.90944
        ],
        "type": "Point"
      }
    },
    {
      "type": "Feature",
      "properties": {
        "name": "Los Laureles"
      },
      "geometry": {
        "coordinates": [
          -89.99444,
          19.48778
        ],
        "type": "Point"
      }
    },
    {
      "type": "Feature",
      "properties": {
        "name": "Tikinmul"
      },
      "geometry": {
        "coordinates": [
          -90.22306,
          19.76611
        ],
        "type": "Point"
      }
    },
    {
      "type": "Feature",
      "properties": {
        "name": "Penjamo"
      },
      "geometry": {
        "coordinates": [
          -93.09306,
          18.43444
        ],
        "type": "Point"
      }
    },
    {
      "type": "Feature",
      "properties": {
        "name": "Maya Tecun I"
      },
      "geometry": {
        "coordinates": [
          -90.50556,
          19.15361
        ],
        "type": "Point"
      }
    },
    {
      "type": "Feature",
      "properties": {
        "name": "Licenciado Gustavo Diaz Ordaz (18 de Marzo)"
      },
      "geometry": {
        "coordinates": [
          -91.00278,
          18.63222
        ],
        "type": "Point"
      }
    },
    {
      "type": "Feature",
      "properties": {
        "name": "El Bellote (Miguel de la Madrid)"
      },
      "geometry": {
        "coordinates": [
          -93.15083,
          18.42528
        ],
        "type": "Point"
      }
    }
  ]
}