{
  "type": "FeatureCollection",
  "features": [
    {
      "type": "Feature",
      "properties": {
        "name": "Victoria"
      },
      "geometry": {
        "coordinates": [
          -61.70677,
          12.19021
        ],
        "type": "Point"
      }
    },
    {
      "type": "Feature",
      "properties": {
        "name": "Sauteurs"
      },
      "geometry": {
        "coordinates": [
          -61.63917,
          12.21833
        ],
        "type": "Point"
      }
    },
    {
      "type": "Feature",
      "properties": {
        "name": "Saint George's"
      },
      "geometry": {
        "coordinates": [
          -61.75226,
          12.05288
        ],
        "type": "Point"
      }
    },
    {
      "type": "Feature",
      "properties": {
        "name": "Saint David's"
      },
      "geometry": {
        "coordinates": [
          -61.66875,
          12.04903
        ],
        "type": "Point"
      }
    },
    {
      "type": "Feature",
      "properties": {
        "name": "Hillsborough"
      },
      "geometry": {
        "coordinates": [
          -61.45597,
          12.48292
        ],
        "type": "Point"
      }
    },
    {
      "type": "Feature",
      "properties": {
        "name": "Grenville"
      },
      "geometry": {
        "coordinates": [
          -61.62498,
          12.12278
        ],
        "type": "Point"
      }
    },
    {
      "type": "Feature",
      "properties": {
        "name": "Gouyave"
      },
      "geometry": {
        "coordinates": [
          -61.72965,
          12.16462
        ],
        "type": "Point"
      }
    }
  ]
}