{
  "type": "FeatureCollection",
  "features": [
    {
      "type": "Feature",
      "properties": {
        "name": "Zipaquira"
      },
      "geometry": {
        "coordinates": [
          -74.00481,
          5.02208
        ],
        "type": "Point"
      }
    },
    {
      "type": "Feature",
      "properties": {
        "name": "Zipacon"
      },
      "geometry": {
        "coordinates": [
          -74.38017,
          4.75881
        ],
        "type": "Point"
      }
    },
    {
      "type": "Feature",
      "properties": {
        "name": "Zetaquira"
      },
      "geometry": {
        "coordinates": [
          -73.16896,
          5.28215
        ],
        "type": "Point"
      }
    },
    {
      "type": "Feature",
      "properties": {
        "name": "Zarzal"
      },
      "geometry": {
        "coordinates": [
          -76.0715,
          4.39462
        ],
        "type": "Point"
      }
    },
    {
      "type": "Feature",
      "properties": {
        "name": "Zaragoza"
      },
      "geometry": {
        "coordinates": [
          -74.86919,
          7.48971
        ],
        "type": "Point"
      }
    },
    {
      "type": "Feature",
      "properties": {
        "name": "Zapatoca"
      },
      "geometry": {
        "coordinates": [
          -73.26768,
          6.81532
        ],
        "type": "Point"
      }
    },
    {
      "type": "Feature",
      "properties": {
        "name": "Zambrano"
      },
      "geometry": {
        "coordinates": [
          -74.8153,
          9.74724
        ],
        "type": "Point"
      }
    },
    {
      "type": "Feature",
      "properties": {
        "name": "Yumbo"
      },
      "geometry": {
        "coordinates": [
          -76.49146,
          3.58234
        ],
        "type": "Point"
      }
    },
    {
      "type": "Feature",
      "properties": {
        "name": "Yotoco"
      },
      "geometry": {
        "coordinates": [
          -76.38364,
          3.86048
        ],
        "type": "Point"
      }
    },
    {
      "type": "Feature",
      "properties": {
        "name": "Yopal"
      },
      "geometry": {
        "coordinates": [
          -72.39586,
          5.33775
        ],
        "type": "Point"
      }
    },
    {
      "type": "Feature",
      "properties": {
        "name": "Yondo"
      },
      "geometry": {
        "coordinates": [
          -73.90972,
          7.00621
        ],
        "type": "Point"
      }
    },
    {
      "type": "Feature",
      "properties": {
        "name": "Yolombo"
      },
      "geometry": {
        "coordinates": [
          -75.0114,
          6.59841
        ],
        "type": "Point"
      }
    },
    {
      "type": "Feature",
      "properties": {
        "name": "Yarumal"
      },
      "geometry": {
        "coordinates": [
          -75.41738,
          6.96321
        ],
        "type": "Point"
      }
    },
    {
      "type": "Feature",
      "properties": {
        "name": "Yali"
      },
      "geometry": {
        "coordinates": [
          -74.8343,
          6.67457
        ],
        "type": "Point"
      }
    },
    {
      "type": "Feature",
      "properties": {
        "name": "Yaguara"
      },
      "geometry": {
        "coordinates": [
          -75.51753,
          2.66355
        ],
        "type": "Point"
      }
    },
    {
      "type": "Feature",
      "properties": {
        "name": "Yacuanquer"
      },
      "geometry": {
        "coordinates": [
          -77.40169,
          1.11577
        ],
        "type": "Point"
      }
    },
    {
      "type": "Feature",
      "properties": {
        "name": "Yacopi"
      },
      "geometry": {
        "coordinates": [
          -74.33823,
          5.45948
        ],
        "type": "Point"
      }
    },
    {
      "type": "Feature",
      "properties": {
        "name": "Viterbo"
      },
      "geometry": {
        "coordinates": [
          -75.87159,
          5.06242
        ],
        "type": "Point"
      }
    },
    {
      "type": "Feature",
      "properties": {
        "name": "Vista Hermosa"
      },
      "geometry": {
        "coordinates": [
          -73.75156,
          3.12428
        ],
        "type": "Point"
      }
    },
    {
      "type": "Feature",
      "properties": {
        "name": "Viota"
      },
      "geometry": {
        "coordinates": [
          -74.52157,
          4.43713
        ],
        "type": "Point"
      }
    },
    {
      "type": "Feature",
      "properties": {
        "name": "Villeta"
      },
      "geometry": {
        "coordinates": [
          -74.47226,
          5.00886
        ],
        "type": "Point"
      }
    },
    {
      "type": "Feature",
      "properties": {
        "name": "Villavieja"
      },
      "geometry": {
        "coordinates": [
          -75.21864,
          3.22052
        ],
        "type": "Point"
      }
    },
    {
      "type": "Feature",
      "properties": {
        "name": "Villavicencio"
      },
      "geometry": {
        "coordinates": [
          -73.62664,
          4.142
        ],
        "type": "Point"
      }
    },
    {
      "type": "Feature",
      "properties": {
        "name": "Villarrica"
      },
      "geometry": {
        "coordinates": [
          -74.60036,
          3.93502
        ],
        "type": "Point"
      }
    },
    {
      "type": "Feature",
      "properties": {
        "name": "Villa del Rosario"
      },
      "geometry": {
        "coordinates": [
          -72.47417,
          7.83389
        ],
        "type": "Point"
      }
    },
    {
      "type": "Feature",
      "properties": {
        "name": "Villapinzon"
      },
      "geometry": {
        "coordinates": [
          -73.5949,
          5.21617
        ],
        "type": "Point"
      }
    },
    {
      "type": "Feature",
      "properties": {
        "name": "Villanueva"
      },
      "geometry": {
        "coordinates": [
          -72.98,
          10.60528
        ],
        "type": "Point"
      }
    },
    {
      "type": "Feature",
      "properties": {
        "name": "Villanueva"
      },
      "geometry": {
        "coordinates": [
          -75.27306,
          10.44361
        ],
        "type": "Point"
      }
    },
    {
      "type": "Feature",
      "properties": {
        "name": "Villanueva"
      },
      "geometry": {
        "coordinates": [
          -73.17421,
          6.67169
        ],
        "type": "Point"
      }
    },
    {
      "type": "Feature",
      "properties": {
        "name": "Villanueva"
      },
      "geometry": {
        "coordinates": [
          -71.96667,
          5.28333
        ],
        "type": "Point"
      }
    },
    {
      "type": "Feature",
      "properties": {
        "name": "Villamaria"
      },
      "geometry": {
        "coordinates": [
          -75.5146,
          5.04492
        ],
        "type": "Point"
      }
    },
    {
      "type": "Feature",
      "properties": {
        "name": "Villahermosa"
      },
      "geometry": {
        "coordinates": [
          -75.11607,
          5.03067
        ],
        "type": "Point"
      }
    },
    {
      "type": "Feature",
      "properties": {
        "name": "Villagarzon"
      },
      "geometry": {
        "coordinates": [
          -76.62667,
          1.0375
        ],
        "type": "Point"
      }
    },
    {
      "type": "Feature",
      "properties": {
        "name": "Villa de Leiva"
      },
      "geometry": {
        "coordinates": [
          -73.56667,
          5.645
        ],
        "type": "Point"
      }
    },
    {
      "type": "Feature",
      "properties": {
        "name": "Vijes"
      },
      "geometry": {
        "coordinates": [
          -76.4423,
          3.69934
        ],
        "type": "Point"
      }
    },
    {
      "type": "Feature",
      "properties": {
        "name": "Vigia del Fuerte"
      },
      "geometry": {
        "coordinates": [
          -76.88628,
          6.57891
        ],
        "type": "Point"
      }
    },
    {
      "type": "Feature",
      "properties": {
        "name": "Victoria"
      },
      "geometry": {
        "coordinates": [
          -74.91101,
          5.31648
        ],
        "type": "Point"
      }
    },
    {
      "type": "Feature",
      "properties": {
        "name": "Viani"
      },
      "geometry": {
        "coordinates": [
          -74.56244,
          4.87384
        ],
        "type": "Point"
      }
    },
    {
      "type": "Feature",
      "properties": {
        "name": "Vetas"
      },
      "geometry": {
        "coordinates": [
          -72.87122,
          7.30911
        ],
        "type": "Point"
      }
    },
    {
      "type": "Feature",
      "properties": {
        "name": "Versalles"
      },
      "geometry": {
        "coordinates": [
          -76.19814,
          4.57544
        ],
        "type": "Point"
      }
    },
    {
      "type": "Feature",
      "properties": {
        "name": "Vergara"
      },
      "geometry": {
        "coordinates": [
          -74.34549,
          5.11841
        ],
        "type": "Point"
      }
    },
    {
      "type": "Feature",
      "properties": {
        "name": "Ventaquemada"
      },
      "geometry": {
        "coordinates": [
          -73.52075,
          5.36753
        ],
        "type": "Point"
      }
    },
    {
      "type": "Feature",
      "properties": {
        "name": "Venecia"
      },
      "geometry": {
        "coordinates": [
          -75.73806,
          5.96278
        ],
        "type": "Point"
      }
    },
    {
      "type": "Feature",
      "properties": {
        "name": "Venecia"
      },
      "geometry": {
        "coordinates": [
          -74.47746,
          4.08808
        ],
        "type": "Point"
      }
    },
    {
      "type": "Feature",
      "properties": {
        "name": "Venadillo"
      },
      "geometry": {
        "coordinates": [
          -74.92918,
          4.71929
        ],
        "type": "Point"
      }
    },
    {
      "type": "Feature",
      "properties": {
        "name": "Velez"
      },
      "geometry": {
        "coordinates": [
          -73.67352,
          6.01335
        ],
        "type": "Point"
      }
    },
    {
      "type": "Feature",
      "properties": {
        "name": "Valparaiso"
      },
      "geometry": {
        "coordinates": [
          -75.62422,
          5.615
        ],
        "type": "Point"
      }
    },
    {
      "type": "Feature",
      "properties": {
        "name": "Valparaiso"
      },
      "geometry": {
        "coordinates": [
          -75.70705,
          1.19512
        ],
        "type": "Point"
      }
    },
    {
      "type": "Feature",
      "properties": {
        "name": "Valledupar"
      },
      "geometry": {
        "coordinates": [
          -73.25322,
          10.46314
        ],
        "type": "Point"
      }
    },
    {
      "type": "Feature",
      "properties": {
        "name": "Valle de San Juan"
      },
      "geometry": {
        "coordinates": [
          -75.11733,
          4.19869
        ],
        "type": "Point"
      }
    },
    {
      "type": "Feature",
      "properties": {
        "name": "Valle de San Jose"
      },
      "geometry": {
        "coordinates": [
          -73.14361,
          6.4475
        ],
        "type": "Point"
      }
    },
    {
      "type": "Feature",
      "properties": {
        "name": "Valencia"
      },
      "geometry": {
        "coordinates": [
          -76.14928,
          8.25801
        ],
        "type": "Point"
      }
    },
    {
      "type": "Feature",
      "properties": {
        "name": "Valdivia"
      },
      "geometry": {
        "coordinates": [
          -75.39778,
          7.28889
        ],
        "type": "Point"
      }
    },
    {
      "type": "Feature",
      "properties": {
        "name": "Utica"
      },
      "geometry": {
        "coordinates": [
          -74.48105,
          5.18727
        ],
        "type": "Point"
      }
    },
    {
      "type": "Feature",
      "properties": {
        "name": "Usiacuri"
      },
      "geometry": {
        "coordinates": [
          -74.98333,
          10.75
        ],
        "type": "Point"
      }
    },
    {
      "type": "Feature",
      "properties": {
        "name": "Urumita"
      },
      "geometry": {
        "coordinates": [
          -73.01232,
          10.55894
        ],
        "type": "Point"
      }
    },
    {
      "type": "Feature",
      "properties": {
        "name": "Urrao"
      },
      "geometry": {
        "coordinates": [
          -76.1342,
          6.31696
        ],
        "type": "Point"
      }
    },
    {
      "type": "Feature",
      "properties": {
        "name": "Uribia"
      },
      "geometry": {
        "coordinates": [
          -72.26604,
          11.7139
        ],
        "type": "Point"
      }
    },
    {
      "type": "Feature",
      "properties": {
        "name": "Uramita"
      },
      "geometry": {
        "coordinates": [
          -76.17417,
          6.89944
        ],
        "type": "Point"
      }
    },
    {
      "type": "Feature",
      "properties": {
        "name": "Ungia"
      },
      "geometry": {
        "coordinates": [
          -77.09137,
          8.04364
        ],
        "type": "Point"
      }
    },
    {
      "type": "Feature",
      "properties": {
        "name": "Une"
      },
      "geometry": {
        "coordinates": [
          -74.02528,
          4.40306
        ],
        "type": "Point"
      }
    },
    {
      "type": "Feature",
      "properties": {
        "name": "Umbita"
      },
      "geometry": {
        "coordinates": [
          -73.45695,
          5.22041
        ],
        "type": "Point"
      }
    },
    {
      "type": "Feature",
      "properties": {
        "name": "Ulloa"
      },
      "geometry": {
        "coordinates": [
          -75.74028,
          4.70444
        ],
        "type": "Point"
      }
    },
    {
      "type": "Feature",
      "properties": {
        "name": "Ubate"
      },
      "geometry": {
        "coordinates": [
          -73.81575,
          5.30933
        ],
        "type": "Point"
      }
    },
    {
      "type": "Feature",
      "properties": {
        "name": "Ubaque"
      },
      "geometry": {
        "coordinates": [
          -73.93748,
          4.48667
        ],
        "type": "Point"
      }
    },
    {
      "type": "Feature",
      "properties": {
        "name": "Ubala"
      },
      "geometry": {
        "coordinates": [
          -72.53694,
          4.74778
        ],
        "type": "Point"
      }
    },
    {
      "type": "Feature",
      "properties": {
        "name": "Tuta"
      },
      "geometry": {
        "coordinates": [
          -73.22779,
          5.68966
        ],
        "type": "Point"
      }
    },
    {
      "type": "Feature",
      "properties": {
        "name": "Turmeque"
      },
      "geometry": {
        "coordinates": [
          -73.49067,
          5.3236
        ],
        "type": "Point"
      }
    },
    {
      "type": "Feature",
      "properties": {
        "name": "Turbo"
      },
      "geometry": {
        "coordinates": [
          -76.72822,
          8.09263
        ],
        "type": "Point"
      }
    },
    {
      "type": "Feature",
      "properties": {
        "name": "Turbana"
      },
      "geometry": {
        "coordinates": [
          -75.44222,
          10.27169
        ],
        "type": "Point"
      }
    },
    {
      "type": "Feature",
      "properties": {
        "name": "Turbaco"
      },
      "geometry": {
        "coordinates": [
          -75.41137,
          10.32944
        ],
        "type": "Point"
      }
    },
    {
      "type": "Feature",
      "properties": {
        "name": "Tuquerres"
      },
      "geometry": {
        "coordinates": [
          -77.61831,
          1.08878
        ],
        "type": "Point"
      }
    },
    {
      "type": "Feature",
      "properties": {
        "name": "Tunja"
      },
      "geometry": {
        "coordinates": [
          -73.36778,
          5.53528
        ],
        "type": "Point"
      }
    },
    {
      "type": "Feature",
      "properties": {
        "name": "Tumaco"
      },
      "geometry": {
        "coordinates": [
          -78.81556,
          1.79861
        ],
        "type": "Point"
      }
    },
    {
      "type": "Feature",
      "properties": {
        "name": "Tulua"
      },
      "geometry": {
        "coordinates": [
          -76.19536,
          4.08466
        ],
        "type": "Point"
      }
    },
    {
      "type": "Feature",
      "properties": {
        "name": "Tubara"
      },
      "geometry": {
        "coordinates": [
          -74.97873,
          10.87562
        ],
        "type": "Point"
      }
    },
    {
      "type": "Feature",
      "properties": {
        "name": "Trujillo"
      },
      "geometry": {
        "coordinates": [
          -76.31945,
          4.21217
        ],
        "type": "Point"
      }
    },
    {
      "type": "Feature",
      "properties": {
        "name": "Trinidad"
      },
      "geometry": {
        "coordinates": [
          -71.63111,
          5.43056
        ],
        "type": "Point"
      }
    },
    {
      "type": "Feature",
      "properties": {
        "name": "Totoro"
      },
      "geometry": {
        "coordinates": [
          -76.40444,
          2.51592
        ],
        "type": "Point"
      }
    },
    {
      "type": "Feature",
      "properties": {
        "name": "Toro"
      },
      "geometry": {
        "coordinates": [
          -76.08139,
          4.61167
        ],
        "type": "Point"
      }
    },
    {
      "type": "Feature",
      "properties": {
        "name": "Toribio"
      },
      "geometry": {
        "coordinates": [
          -76.26839,
          2.95481
        ],
        "type": "Point"
      }
    },
    {
      "type": "Feature",
      "properties": {
        "name": "Topaipi"
      },
      "geometry": {
        "coordinates": [
          -74.30292,
          5.33457
        ],
        "type": "Point"
      }
    },
    {
      "type": "Feature",
      "properties": {
        "name": "Topaga"
      },
      "geometry": {
        "coordinates": [
          -72.82583,
          5.75979
        ],
        "type": "Point"
      }
    },
    {
      "type": "Feature",
      "properties": {
        "name": "Toluviejo"
      },
      "geometry": {
        "coordinates": [
          -75.43864,
          9.45082
        ],
        "type": "Point"
      }
    },
    {
      "type": "Feature",
      "properties": {
        "name": "Tolu"
      },
      "geometry": {
        "coordinates": [
          -75.58139,
          9.52392
        ],
        "type": "Point"
      }
    },
    {
      "type": "Feature",
      "properties": {
        "name": "Toledo"
      },
      "geometry": {
        "coordinates": [
          -72.48295,
          7.30984
        ],
        "type": "Point"
      }
    },
    {
      "type": "Feature",
      "properties": {
        "name": "Tocancipa"
      },
      "geometry": {
        "coordinates": [
          -73.91301,
          4.96531
        ],
        "type": "Point"
      }
    },
    {
      "type": "Feature",
      "properties": {
        "name": "Tocaima"
      },
      "geometry": {
        "coordinates": [
          -74.63434,
          4.4582
        ],
        "type": "Point"
      }
    },
    {
      "type": "Feature",
      "properties": {
        "name": "Toca"
      },
      "geometry": {
        "coordinates": [
          -73.18398,
          5.56393
        ],
        "type": "Point"
      }
    },
    {
      "type": "Feature",
      "properties": {
        "name": "Titiribi"
      },
      "geometry": {
        "coordinates": [
          -75.7937,
          6.06276
        ],
        "type": "Point"
      }
    },
    {
      "type": "Feature",
      "properties": {
        "name": "Tipacoque"
      },
      "geometry": {
        "coordinates": [
          -72.69184,
          6.42031
        ],
        "type": "Point"
      }
    },
    {
      "type": "Feature",
      "properties": {
        "name": "Timbiqui"
      },
      "geometry": {
        "coordinates": [
          -77.66536,
          2.7717
        ],
        "type": "Point"
      }
    },
    {
      "type": "Feature",
      "properties": {
        "name": "Timana"
      },
      "geometry": {
        "coordinates": [
          -75.93123,
          1.97136
        ],
        "type": "Point"
      }
    },
    {
      "type": "Feature",
      "properties": {
        "name": "Tierralta"
      },
      "geometry": {
        "coordinates": [
          -76.05917,
          8.17361
        ],
        "type": "Point"
      }
    },
    {
      "type": "Feature",
      "properties": {
        "name": "Tibu"
      },
      "geometry": {
        "coordinates": [
          -72.73583,
          8.63895
        ],
        "type": "Point"
      }
    },
    {
      "type": "Feature",
      "properties": {
        "name": "Tibasosa"
      },
      "geometry": {
        "coordinates": [
          -73.0,
          5.75
        ],
        "type": "Point"
      }
    },
    {
      "type": "Feature",
      "properties": {
        "name": "Tibana"
      },
      "geometry": {
        "coordinates": [
          -73.39655,
          5.31728
        ],
        "type": "Point"
      }
    },
    {
      "type": "Feature",
      "properties": {
        "name": "Tesalia"
      },
      "geometry": {
        "coordinates": [
          -75.72921,
          2.48587
        ],
        "type": "Point"
      }
    },
    {
      "type": "Feature",
      "properties": {
        "name": "Teruel"
      },
      "geometry": {
        "coordinates": [
          -75.56738,
          2.74193
        ],
        "type": "Point"
      }
    },
    {
      "type": "Feature",
      "properties": {
        "name": "Tenza"
      },
      "geometry": {
        "coordinates": [
          -73.42077,
          5.07664
        ],
        "type": "Point"
      }
    },
    {
      "type": "Feature",
      "properties": {
        "name": "Tenjo"
      },
      "geometry": {
        "coordinates": [
          -74.14435,
          4.8727
        ],
        "type": "Point"
      }
    },
    {
      "type": "Feature",
      "properties": {
        "name": "Tello"
      },
      "geometry": {
        "coordinates": [
          -75.13778,
          3.06694
        ],
        "type": "Point"
      }
    },
    {
      "type": "Feature",
      "properties": {
        "name": "Tauramena"
      },
      "geometry": {
        "coordinates": [
          -72.74919,
          5.01831
        ],
        "type": "Point"
      }
    },
    {
      "type": "Feature",
      "properties": {
        "name": "Tasco"
      },
      "geometry": {
        "coordinates": [
          -72.78001,
          5.91044
        ],
        "type": "Point"
      }
    },
    {
      "type": "Feature",
      "properties": {
        "name": "Tarso"
      },
      "geometry": {
        "coordinates": [
          -75.82192,
          5.86467
        ],
        "type": "Point"
      }
    },
    {
      "type": "Feature",
      "properties": {
        "name": "Tarqui"
      },
      "geometry": {
        "coordinates": [
          -75.82419,
          2.11248
        ],
        "type": "Point"
      }
    },
    {
      "type": "Feature",
      "properties": {
        "name": "Tarapaca"
      },
      "geometry": {
        "coordinates": [
          -69.74417,
          -2.87861
        ],
        "type": "Point"
      }
    },
    {
      "type": "Feature",
      "properties": {
        "name": "Tangua"
      },
      "geometry": {
        "coordinates": [
          -77.39482,
          1.09473
        ],
        "type": "Point"
      }
    },
    {
      "type": "Feature",
      "properties": {
        "name": "Taminango"
      },
      "geometry": {
        "coordinates": [
          -77.28666,
          1.57491
        ],
        "type": "Point"
      }
    },
    {
      "type": "Feature",
      "properties": {
        "name": "Tamesis"
      },
      "geometry": {
        "coordinates": [
          -75.71339,
          5.66462
        ],
        "type": "Point"
      }
    },
    {
      "type": "Feature",
      "properties": {
        "name": "Tame"
      },
      "geometry": {
        "coordinates": [
          -71.73618,
          6.46065
        ],
        "type": "Point"
      }
    },
    {
      "type": "Feature",
      "properties": {
        "name": "Tamara"
      },
      "geometry": {
        "coordinates": [
          -72.16333,
          5.82972
        ],
        "type": "Point"
      }
    },
    {
      "type": "Feature",
      "properties": {
        "name": "Tamalameque"
      },
      "geometry": {
        "coordinates": [
          -73.81229,
          8.85221
        ],
        "type": "Point"
      }
    },
    {
      "type": "Feature",
      "properties": {
        "name": "Talaigua Viejo"
      },
      "geometry": {
        "coordinates": [
          -74.58544,
          9.31206
        ],
        "type": "Point"
      }
    },
    {
      "type": "Feature",
      "properties": {
        "name": "Tado"
      },
      "geometry": {
        "coordinates": [
          -76.56487,
          5.26598
        ],
        "type": "Point"
      }
    },
    {
      "type": "Feature",
      "properties": {
        "name": "Tabio"
      },
      "geometry": {
        "coordinates": [
          -74.09364,
          4.91726
        ],
        "type": "Point"
      }
    },
    {
      "type": "Feature",
      "properties": {
        "name": "Sutatausa"
      },
      "geometry": {
        "coordinates": [
          -73.85238,
          5.24779
        ],
        "type": "Point"
      }
    },
    {
      "type": "Feature",
      "properties": {
        "name": "Sutamarchan"
      },
      "geometry": {
        "coordinates": [
          -73.61701,
          5.61538
        ],
        "type": "Point"
      }
    },
    {
      "type": "Feature",
      "properties": {
        "name": "Susacon"
      },
      "geometry": {
        "coordinates": [
          -72.6901,
          6.22978
        ],
        "type": "Point"
      }
    },
    {
      "type": "Feature",
      "properties": {
        "name": "Susa"
      },
      "geometry": {
        "coordinates": [
          -73.81436,
          5.4519
        ],
        "type": "Point"
      }
    },
    {
      "type": "Feature",
      "properties": {
        "name": "Supia"
      },
      "geometry": {
        "coordinates": [
          -75.65072,
          5.45303
        ],
        "type": "Point"
      }
    },
    {
      "type": "Feature",
      "properties": {
        "name": "Supata"
      },
      "geometry": {
        "coordinates": [
          -74.23721,
          5.06097
        ],
        "type": "Point"
      }
    },
    {
      "type": "Feature",
      "properties": {
        "name": "Suesca"
      },
      "geometry": {
        "coordinates": [
          -73.79845,
          5.10289
        ],
        "type": "Point"
      }
    },
    {
      "type": "Feature",
      "properties": {
        "name": "Sucre"
      },
      "geometry": {
        "coordinates": [
          -74.72084,
          8.81136
        ],
        "type": "Point"
      }
    },
    {
      "type": "Feature",
      "properties": {
        "name": "Sucre"
      },
      "geometry": {
        "coordinates": [
          -73.79109,
          5.91833
        ],
        "type": "Point"
      }
    },
    {
      "type": "Feature",
      "properties": {
        "name": "Sucre"
      },
      "geometry": {
        "coordinates": [
          -76.92446,
          2.03805
        ],
        "type": "Point"
      }
    },
    {
      "type": "Feature",
      "properties": {
        "name": "Subachoque"
      },
      "geometry": {
        "coordinates": [
          -74.17299,
          4.92614
        ],
        "type": "Point"
      }
    },
    {
      "type": "Feature",
      "properties": {
        "name": "Suaza"
      },
      "geometry": {
        "coordinates": [
          -75.79454,
          1.97611
        ],
        "type": "Point"
      }
    },
    {
      "type": "Feature",
      "properties": {
        "name": "Suarez"
      },
      "geometry": {
        "coordinates": [
          -74.83198,
          4.04906
        ],
        "type": "Point"
      }
    },
    {
      "type": "Feature",
      "properties": {
        "name": "Suarez"
      },
      "geometry": {
        "coordinates": [
          -76.69644,
          2.95395
        ],
        "type": "Point"
      }
    },
    {
      "type": "Feature",
      "properties": {
        "name": "Suan"
      },
      "geometry": {
        "coordinates": [
          -74.88016,
          10.33347
        ],
        "type": "Point"
      }
    },
    {
      "type": "Feature",
      "properties": {
        "name": "Suaita"
      },
      "geometry": {
        "coordinates": [
          -73.44041,
          6.1014
        ],
        "type": "Point"
      }
    },
    {
      "type": "Feature",
      "properties": {
        "name": "Sotomayor"
      },
      "geometry": {
        "coordinates": [
          -77.50444,
          1.51469
        ],
        "type": "Point"
      }
    },
    {
      "type": "Feature",
      "properties": {
        "name": "Sotaquira"
      },
      "geometry": {
        "coordinates": [
          -73.24758,
          5.76483
        ],
        "type": "Point"
      }
    },
    {
      "type": "Feature",
      "properties": {
        "name": "Sopo"
      },
      "geometry": {
        "coordinates": [
          -73.9384,
          4.9075
        ],
        "type": "Point"
      }
    },
    {
      "type": "Feature",
      "properties": {
        "name": "Soplaviento"
      },
      "geometry": {
        "coordinates": [
          -75.14083,
          10.39306
        ],
        "type": "Point"
      }
    },
    {
      "type": "Feature",
      "properties": {
        "name": "Sonson"
      },
      "geometry": {
        "coordinates": [
          -75.31069,
          5.71062
        ],
        "type": "Point"
      }
    },
    {
      "type": "Feature",
      "properties": {
        "name": "Somondoco"
      },
      "geometry": {
        "coordinates": [
          -73.43611,
          4.98778
        ],
        "type": "Point"
      }
    },
    {
      "type": "Feature",
      "properties": {
        "name": "Soledad"
      },
      "geometry": {
        "coordinates": [
          -74.76459,
          10.91843
        ],
        "type": "Point"
      }
    },
    {
      "type": "Feature",
      "properties": {
        "name": "Solano"
      },
      "geometry": {
        "coordinates": [
          -75.25353,
          0.69937
        ],
        "type": "Point"
      }
    },
    {
      "type": "Feature",
      "properties": {
        "name": "Sogamoso"
      },
      "geometry": {
        "coordinates": [
          -72.93391,
          5.71434
        ],
        "type": "Point"
      }
    },
    {
      "type": "Feature",
      "properties": {
        "name": "Socota"
      },
      "geometry": {
        "coordinates": [
          -72.63509,
          6.04028
        ],
        "type": "Point"
      }
    },
    {
      "type": "Feature",
      "properties": {
        "name": "Socorro"
      },
      "geometry": {
        "coordinates": [
          -73.26022,
          6.46838
        ],
        "type": "Point"
      }
    },
    {
      "type": "Feature",
      "properties": {
        "name": "Socha Viejo"
      },
      "geometry": {
        "coordinates": [
          -72.71503,
          5.9817
        ],
        "type": "Point"
      }
    },
    {
      "type": "Feature",
      "properties": {
        "name": "Soata"
      },
      "geometry": {
        "coordinates": [
          -72.68283,
          6.33369
        ],
        "type": "Point"
      }
    },
    {
      "type": "Feature",
      "properties": {
        "name": "Soacha"
      },
      "geometry": {
        "coordinates": [
          -74.21682,
          4.57937
        ],
        "type": "Point"
      }
    },
    {
      "type": "Feature",
      "properties": {
        "name": "Sitionuevo"
      },
      "geometry": {
        "coordinates": [
          -74.72049,
          10.77737
        ],
        "type": "Point"
      }
    },
    {
      "type": "Feature",
      "properties": {
        "name": "Sincelejo"
      },
      "geometry": {
        "coordinates": [
          -75.39778,
          9.30472
        ],
        "type": "Point"
      }
    },
    {
      "type": "Feature",
      "properties": {
        "name": "Since"
      },
      "geometry": {
        "coordinates": [
          -75.14675,
          9.24391
        ],
        "type": "Point"
      }
    },
    {
      "type": "Feature",
      "properties": {
        "name": "Simiti"
      },
      "geometry": {
        "coordinates": [
          -73.9436,
          7.9579
        ],
        "type": "Point"
      }
    },
    {
      "type": "Feature",
      "properties": {
        "name": "Simijaca"
      },
      "geometry": {
        "coordinates": [
          -73.85227,
          5.50291
        ],
        "type": "Point"
      }
    },
    {
      "type": "Feature",
      "properties": {
        "name": "Simacota"
      },
      "geometry": {
        "coordinates": [
          -73.33688,
          6.4429
        ],
        "type": "Point"
      }
    },
    {
      "type": "Feature",
      "properties": {
        "name": "Silvia"
      },
      "geometry": {
        "coordinates": [
          -76.38261,
          2.61557
        ],
        "type": "Point"
      }
    },
    {
      "type": "Feature",
      "properties": {
        "name": "Silvania"
      },
      "geometry": {
        "coordinates": [
          -74.3867,
          4.40367
        ],
        "type": "Point"
      }
    },
    {
      "type": "Feature",
      "properties": {
        "name": "Silos"
      },
      "geometry": {
        "coordinates": [
          -72.75639,
          7.20524
        ],
        "type": "Point"
      }
    },
    {
      "type": "Feature",
      "properties": {
        "name": "Sibundoy"
      },
      "geometry": {
        "coordinates": [
          -76.92275,
          1.20296
        ],
        "type": "Point"
      }
    },
    {
      "type": "Feature",
      "properties": {
        "name": "Sibate"
      },
      "geometry": {
        "coordinates": [
          -74.24499,
          4.48425
        ],
        "type": "Point"
      }
    },
    {
      "type": "Feature",
      "properties": {
        "name": "Siachoque"
      },
      "geometry": {
        "coordinates": [
          -73.24436,
          5.51238
        ],
        "type": "Point"
      }
    },
    {
      "type": "Feature",
      "properties": {
        "name": "Sevilla"
      },
      "geometry": {
        "coordinates": [
          -75.93085,
          4.26425
        ],
        "type": "Point"
      }
    },
    {
      "type": "Feature",
      "properties": {
        "name": "Sesquile"
      },
      "geometry": {
        "coordinates": [
          -73.79724,
          5.04463
        ],
        "type": "Point"
      }
    },
    {
      "type": "Feature",
      "properties": {
        "name": "Segovia"
      },
      "geometry": {
        "coordinates": [
          -74.6989,
          7.07993
        ],
        "type": "Point"
      }
    },
    {
      "type": "Feature",
      "properties": {
        "name": "Sasaima"
      },
      "geometry": {
        "coordinates": [
          -74.43512,
          4.96705
        ],
        "type": "Point"
      }
    },
    {
      "type": "Feature",
      "properties": {
        "name": "Sardinata"
      },
      "geometry": {
        "coordinates": [
          -72.80071,
          8.08289
        ],
        "type": "Point"
      }
    },
    {
      "type": "Feature",
      "properties": {
        "name": "Sapuyes"
      },
      "geometry": {
        "coordinates": [
          -77.62094,
          1.03728
        ],
        "type": "Point"
      }
    },
    {
      "type": "Feature",
      "properties": {
        "name": "San Zenon"
      },
      "geometry": {
        "coordinates": [
          -74.50037,
          9.24217
        ],
        "type": "Point"
      }
    },
    {
      "type": "Feature",
      "properties": {
        "name": "San Vicente de Chucuri"
      },
      "geometry": {
        "coordinates": [
          -73.40977,
          6.881
        ],
        "type": "Point"
      }
    },
    {
      "type": "Feature",
      "properties": {
        "name": "San Vicente"
      },
      "geometry": {
        "coordinates": [
          -75.33611,
          6.23278
        ],
        "type": "Point"
      }
    },
    {
      "type": "Feature",
      "properties": {
        "name": "Santuario"
      },
      "geometry": {
        "coordinates": [
          -75.26417,
          6.13833
        ],
        "type": "Point"
      }
    },
    {
      "type": "Feature",
      "properties": {
        "name": "Santuario"
      },
      "geometry": {
        "coordinates": [
          -75.96341,
          5.07237
        ],
        "type": "Point"
      }
    },
    {
      "type": "Feature",
      "properties": {
        "name": "Santo Tomas"
      },
      "geometry": {
        "coordinates": [
          -74.75451,
          10.75773
        ],
        "type": "Point"
      }
    },
    {
      "type": "Feature",
      "properties": {
        "name": "Santo Domingo"
      },
      "geometry": {
        "coordinates": [
          -75.16547,
          6.47282
        ],
        "type": "Point"
      }
    },
    {
      "type": "Feature",
      "properties": {
        "name": "Santiago"
      },
      "geometry": {
        "coordinates": [
          -72.7162,
          7.86432
        ],
        "type": "Point"
      }
    },
    {
      "type": "Feature",
      "properties": {
        "name": "Santiago"
      },
      "geometry": {
        "coordinates": [
          -77.0045,
          1.14844
        ],
        "type": "Point"
      }
    },
    {
      "type": "Feature",
      "properties": {
        "name": "Santa Sofia"
      },
      "geometry": {
        "coordinates": [
          -73.60404,
          5.70908
        ],
        "type": "Point"
      }
    },
    {
      "type": "Feature",
      "properties": {
        "name": "Santa Rosa de Viterbo"
      },
      "geometry": {
        "coordinates": [
          -72.98217,
          5.87401
        ],
        "type": "Point"
      }
    },
    {
      "type": "Feature",
      "properties": {
        "name": "Santa Rosa de Osos"
      },
      "geometry": {
        "coordinates": [
          -75.46031,
          6.64738
        ],
        "type": "Point"
      }
    },
    {
      "type": "Feature",
      "properties": {
        "name": "Santa Rosa de Cabal"
      },
      "geometry": {
        "coordinates": [
          -75.62139,
          4.86806
        ],
        "type": "Point"
      }
    },
    {
      "type": "Feature",
      "properties": {
        "name": "Santa Rosa"
      },
      "geometry": {
        "coordinates": [
          -75.36972,
          10.44472
        ],
        "type": "Point"
      }
    },
    {
      "type": "Feature",
      "properties": {
        "name": "Santander de Quilichao"
      },
      "geometry": {
        "coordinates": [
          -76.48494,
          3.00945
        ],
        "type": "Point"
      }
    },
    {
      "type": "Feature",
      "properties": {
        "name": "Santana"
      },
      "geometry": {
        "coordinates": [
          -73.48112,
          6.0575
        ],
        "type": "Point"
      }
    },
    {
      "type": "Feature",
      "properties": {
        "name": "Santa Marta"
      },
      "geometry": {
        "coordinates": [
          -74.19904,
          11.24079
        ],
        "type": "Point"
      }
    },
    {
      "type": "Feature",
      "properties": {
        "name": "Santa Maria"
      },
      "geometry": {
        "coordinates": [
          -73.26234,
          4.86048
        ],
        "type": "Point"
      }
    },
    {
      "type": "Feature",
      "properties": {
        "name": "Santa Maria"
      },
      "geometry": {
        "coordinates": [
          -75.65,
          2.95
        ],
        "type": "Point"
      }
    },
    {
      "type": "Feature",
      "properties": {
        "name": "Santa Lucia"
      },
      "geometry": {
        "coordinates": [
          -74.96017,
          10.3242
        ],
        "type": "Point"
      }
    },
    {
      "type": "Feature",
      "properties": {
        "name": "Santa Catalina"
      },
      "geometry": {
        "coordinates": [
          -75.28824,
          10.60361
        ],
        "type": "Point"
      }
    },
    {
      "type": "Feature",
      "properties": {
        "name": "Santa Barbara"
      },
      "geometry": {
        "coordinates": [
          -75.56706,
          5.87458
        ],
        "type": "Point"
      }
    },
    {
      "type": "Feature",
      "properties": {
        "name": "Santa Ana"
      },
      "geometry": {
        "coordinates": [
          -74.56848,
          9.32125
        ],
        "type": "Point"
      }
    },
    {
      "type": "Feature",
      "properties": {
        "name": "San Roque"
      },
      "geometry": {
        "coordinates": [
          -75.0196,
          6.48511
        ],
        "type": "Point"
      }
    },
    {
      "type": "Feature",
      "properties": {
        "name": "San Rafael"
      },
      "geometry": {
        "coordinates": [
          -75.02589,
          6.29436
        ],
        "type": "Point"
      }
    },
    {
      "type": "Feature",
      "properties": {
        "name": "San Pelayo"
      },
      "geometry": {
        "coordinates": [
          -75.83627,
          8.95833
        ],
        "type": "Point"
      }
    },
    {
      "type": "Feature",
      "properties": {
        "name": "San Pedro de Uraba"
      },
      "geometry": {
        "coordinates": [
          -76.37641,
          8.27515
        ],
        "type": "Point"
      }
    },
    {
      "type": "Feature",
      "properties": {
        "name": "San Pedro"
      },
      "geometry": {
        "coordinates": [
          -75.06476,
          9.3956
        ],
        "type": "Point"
      }
    },
    {
      "type": "Feature",
      "properties": {
        "name": "San Pedro"
      },
      "geometry": {
        "coordinates": [
          -75.56002,
          6.46451
        ],
        "type": "Point"
      }
    },
    {
      "type": "Feature",
      "properties": {
        "name": "San Pedro"
      },
      "geometry": {
        "coordinates": [
          -76.22885,
          3.99445
        ],
        "type": "Point"
      }
    },
    {
      "type": "Feature",
      "properties": {
        "name": "San Pablo de Borbur"
      },
      "geometry": {
        "coordinates": [
          -74.06212,
          5.66034
        ],
        "type": "Point"
      }
    },
    {
      "type": "Feature",
      "properties": {
        "name": "San Pablo"
      },
      "geometry": {
        "coordinates": [
          -75.26775,
          10.05154
        ],
        "type": "Point"
      }
    },
    {
      "type": "Feature",
      "properties": {
        "name": "San Pablo"
      },
      "geometry": {
        "coordinates": [
          -77.01389,
          1.6725
        ],
        "type": "Point"
      }
    },
    {
      "type": "Feature",
      "properties": {
        "name": "San Onofre"
      },
      "geometry": {
        "coordinates": [
          -75.52626,
          9.73586
        ],
        "type": "Point"
      }
    },
    {
      "type": "Feature",
      "properties": {
        "name": "San Miguel"
      },
      "geometry": {
        "coordinates": [
          -76.91124,
          0.34314
        ],
        "type": "Point"
      }
    },
    {
      "type": "Feature",
      "properties": {
        "name": "San Mateo"
      },
      "geometry": {
        "coordinates": [
          -72.55314,
          6.40195
        ],
        "type": "Point"
      }
    },
    {
      "type": "Feature",
      "properties": {
        "name": "San Martin"
      },
      "geometry": {
        "coordinates": [
          -73.69957,
          3.69637
        ],
        "type": "Point"
      }
    },
    {
      "type": "Feature",
      "properties": {
        "name": "San Marcos"
      },
      "geometry": {
        "coordinates": [
          -75.12809,
          8.65972
        ],
        "type": "Point"
      }
    },
    {
      "type": "Feature",
      "properties": {
        "name": "San Luis de Palenque"
      },
      "geometry": {
        "coordinates": [
          -71.73167,
          5.42139
        ],
        "type": "Point"
      }
    },
    {
      "type": "Feature",
      "properties": {
        "name": "San Luis de Gaceno"
      },
      "geometry": {
        "coordinates": [
          -73.16851,
          4.82052
        ],
        "type": "Point"
      }
    },
    {
      "type": "Feature",
      "properties": {
        "name": "Cubarral"
      },
      "geometry": {
        "coordinates": [
          -73.84063,
          3.79536
        ],
        "type": "Point"
      }
    },
    {
      "type": "Feature",
      "properties": {
        "name": "San Luis"
      },
      "geometry": {
        "coordinates": [
          -75.09499,
          4.13258
        ],
        "type": "Point"
      }
    },
    {
      "type": "Feature",
      "properties": {
        "name": "San Lorenzo"
      },
      "geometry": {
        "coordinates": [
          -77.21898,
          1.50628
        ],
        "type": "Point"
      }
    },
    {
      "type": "Feature",
      "properties": {
        "name": "San Juan Nepomuceno"
      },
      "geometry": {
        "coordinates": [
          -75.08198,
          9.95157
        ],
        "type": "Point"
      }
    },
    {
      "type": "Feature",
      "properties": {
        "name": "San Juan de Uraba"
      },
      "geometry": {
        "coordinates": [
          -76.52969,
          8.75924
        ],
        "type": "Point"
      }
    },
    {
      "type": "Feature",
      "properties": {
        "name": "San Juan del Cesar"
      },
      "geometry": {
        "coordinates": [
          -73.00314,
          10.77107
        ],
        "type": "Point"
      }
    },
    {
      "type": "Feature",
      "properties": {
        "name": "San Juan de Betulia"
      },
      "geometry": {
        "coordinates": [
          -75.24103,
          9.27345
        ],
        "type": "Point"
      }
    },
    {
      "type": "Feature",
      "properties": {
        "name": "San Juan de Arama"
      },
      "geometry": {
        "coordinates": [
          -73.87267,
          3.36985
        ],
        "type": "Point"
      }
    },
    {
      "type": "Feature",
      "properties": {
        "name": "San Jose de Miranda"
      },
      "geometry": {
        "coordinates": [
          -72.73344,
          6.6587
        ],
        "type": "Point"
      }
    },
    {
      "type": "Feature",
      "properties": {
        "name": "San Jose del Palmar"
      },
      "geometry": {
        "coordinates": [
          -76.22833,
          4.97417
        ],
        "type": "Point"
      }
    },
    {
      "type": "Feature",
      "properties": {
        "name": "San Jose de La Montana"
      },
      "geometry": {
        "coordinates": [
          -75.68333,
          6.85028
        ],
        "type": "Point"
      }
    },
    {
      "type": "Feature",
      "properties": {
        "name": "San Jose"
      },
      "geometry": {
        "coordinates": [
          -75.78833,
          5.08583
        ],
        "type": "Point"
      }
    },
    {
      "type": "Feature",
      "properties": {
        "name": "San Jose"
      },
      "geometry": {
        "coordinates": [
          -78.24482,
          1.69659
        ],
        "type": "Point"
      }
    },
    {
      "type": "Feature",
      "properties": {
        "name": "San Jeronimo"
      },
      "geometry": {
        "coordinates": [
          -75.72815,
          6.44344
        ],
        "type": "Point"
      }
    },
    {
      "type": "Feature",
      "properties": {
        "name": "San Jacinto"
      },
      "geometry": {
        "coordinates": [
          -75.1217,
          9.82767
        ],
        "type": "Point"
      }
    },
    {
      "type": "Feature",
      "properties": {
        "name": "San Gil"
      },
      "geometry": {
        "coordinates": [
          -73.13637,
          6.55952
        ],
        "type": "Point"
      }
    },
    {
      "type": "Feature",
      "properties": {
        "name": "San Francisco"
      },
      "geometry": {
        "coordinates": [
          -75.98333,
          6.11667
        ],
        "type": "Point"
      }
    },
    {
      "type": "Feature",
      "properties": {
        "name": "San Francisco"
      },
      "geometry": {
        "coordinates": [
          -74.2927,
          4.97876
        ],
        "type": "Point"
      }
    },
    {
      "type": "Feature",
      "properties": {
        "name": "San Francisco"
      },
      "geometry": {
        "coordinates": [
          -76.87838,
          1.17644
        ],
        "type": "Point"
      }
    },
    {
      "type": "Feature",
      "properties": {
        "name": "San Fernando"
      },
      "geometry": {
        "coordinates": [
          -74.53389,
          9.27972
        ],
        "type": "Point"
      }
    },
    {
      "type": "Feature",
      "properties": {
        "name": "San Estanislao"
      },
      "geometry": {
        "coordinates": [
          -75.15111,
          10.39833
        ],
        "type": "Point"
      }
    },
    {
      "type": "Feature",
      "properties": {
        "name": "Sandona"
      },
      "geometry": {
        "coordinates": [
          -77.46921,
          1.28626
        ],
        "type": "Point"
      }
    },
    {
      "type": "Feature",
      "properties": {
        "name": "San Diego"
      },
      "geometry": {
        "coordinates": [
          -73.18203,
          10.33623
        ],
        "type": "Point"
      }
    },
    {
      "type": "Feature",
      "properties": {
        "name": "San Cristobal"
      },
      "geometry": {
        "coordinates": [
          -75.25248,
          9.87809
        ],
        "type": "Point"
      }
    },
    {
      "type": "Feature",
      "properties": {
        "name": "San Cayetano"
      },
      "geometry": {
        "coordinates": [
          -72.6243,
          7.87707
        ],
        "type": "Point"
      }
    },
    {
      "type": "Feature",
      "properties": {
        "name": "San Carlos de Guaroa"
      },
      "geometry": {
        "coordinates": [
          -73.24344,
          3.71161
        ],
        "type": "Point"
      }
    },
    {
      "type": "Feature",
      "properties": {
        "name": "San Carlos"
      },
      "geometry": {
        "coordinates": [
          -75.69947,
          8.79577
        ],
        "type": "Point"
      }
    },
    {
      "type": "Feature",
      "properties": {
        "name": "San Carlos"
      },
      "geometry": {
        "coordinates": [
          -74.77316,
          7.79177
        ],
        "type": "Point"
      }
    },
    {
      "type": "Feature",
      "properties": {
        "name": "San Carlos"
      },
      "geometry": {
        "coordinates": [
          -74.99315,
          6.18789
        ],
        "type": "Point"
      }
    },
    {
      "type": "Feature",
      "properties": {
        "name": "San Calixto"
      },
      "geometry": {
        "coordinates": [
          -73.20737,
          8.4021
        ],
        "type": "Point"
      }
    },
    {
      "type": "Feature",
      "properties": {
        "name": "San Bernardo del Viento"
      },
      "geometry": {
        "coordinates": [
          -75.95244,
          9.3533
        ],
        "type": "Point"
      }
    },
    {
      "type": "Feature",
      "properties": {
        "name": "San Bernardo"
      },
      "geometry": {
        "coordinates": [
          -77.03091,
          1.52119
        ],
        "type": "Point"
      }
    },
    {
      "type": "Feature",
      "properties": {
        "name": "San Benito Abad"
      },
      "geometry": {
        "coordinates": [
          -75.02709,
          8.92901
        ],
        "type": "Point"
      }
    },
    {
      "type": "Feature",
      "properties": {
        "name": "San Antonio"
      },
      "geometry": {
        "coordinates": [
          -74.69346,
          9.93303
        ],
        "type": "Point"
      }
    },
    {
      "type": "Feature",
      "properties": {
        "name": "San Antonio"
      },
      "geometry": {
        "coordinates": [
          -75.48009,
          3.91423
        ],
        "type": "Point"
      }
    },
    {
      "type": "Feature",
      "properties": {
        "name": "San Antero"
      },
      "geometry": {
        "coordinates": [
          -75.75891,
          9.3741
        ],
        "type": "Point"
      }
    },
    {
      "type": "Feature",
      "properties": {
        "name": "San Andres"
      },
      "geometry": {
        "coordinates": [
          -81.70056,
          12.58472
        ],
        "type": "Point"
      }
    },
    {
      "type": "Feature",
      "properties": {
        "name": "San Andres"
      },
      "geometry": {
        "coordinates": [
          -72.84929,
          6.81148
        ],
        "type": "Point"
      }
    },
    {
      "type": "Feature",
      "properties": {
        "name": "San Alberto"
      },
      "geometry": {
        "coordinates": [
          -73.3922,
          7.76107
        ],
        "type": "Point"
      }
    },
    {
      "type": "Feature",
      "properties": {
        "name": "San Agustin"
      },
      "geometry": {
        "coordinates": [
          -76.26722,
          1.87884
        ],
        "type": "Point"
      }
    },
    {
      "type": "Feature",
      "properties": {
        "name": "Sampues"
      },
      "geometry": {
        "coordinates": [
          -75.38167,
          9.18361
        ],
        "type": "Point"
      }
    },
    {
      "type": "Feature",
      "properties": {
        "name": "Samaniego"
      },
      "geometry": {
        "coordinates": [
          -77.5957,
          1.33849
        ],
        "type": "Point"
      }
    },
    {
      "type": "Feature",
      "properties": {
        "name": "Samaca"
      },
      "geometry": {
        "coordinates": [
          -73.48537,
          5.49273
        ],
        "type": "Point"
      }
    },
    {
      "type": "Feature",
      "properties": {
        "name": "Salgar"
      },
      "geometry": {
        "coordinates": [
          -75.96541,
          5.96502
        ],
        "type": "Point"
      }
    },
    {
      "type": "Feature",
      "properties": {
        "name": "Salento"
      },
      "geometry": {
        "coordinates": [
          -75.57028,
          4.6375
        ],
        "type": "Point"
      }
    },
    {
      "type": "Feature",
      "properties": {
        "name": "Saldana"
      },
      "geometry": {
        "coordinates": [
          -75.01517,
          3.92923
        ],
        "type": "Point"
      }
    },
    {
      "type": "Feature",
      "properties": {
        "name": "Salamina"
      },
      "geometry": {
        "coordinates": [
          -74.79463,
          10.49027
        ],
        "type": "Point"
      }
    },
    {
      "type": "Feature",
      "properties": {
        "name": "Salamina"
      },
      "geometry": {
        "coordinates": [
          -75.48749,
          5.40733
        ],
        "type": "Point"
      }
    },
    {
      "type": "Feature",
      "properties": {
        "name": "Saladoblanco"
      },
      "geometry": {
        "coordinates": [
          -76.04335,
          1.99244
        ],
        "type": "Point"
      }
    },
    {
      "type": "Feature",
      "properties": {
        "name": "Sahagun"
      },
      "geometry": {
        "coordinates": [
          -75.44275,
          8.94617
        ],
        "type": "Point"
      }
    },
    {
      "type": "Feature",
      "properties": {
        "name": "Sachica"
      },
      "geometry": {
        "coordinates": [
          -73.54184,
          5.58453
        ],
        "type": "Point"
      }
    },
    {
      "type": "Feature",
      "properties": {
        "name": "Saboya"
      },
      "geometry": {
        "coordinates": [
          -73.76932,
          5.69636
        ],
        "type": "Point"
      }
    },
    {
      "type": "Feature",
      "properties": {
        "name": "Sabaneta"
      },
      "geometry": {
        "coordinates": [
          -75.61657,
          6.15153
        ],
        "type": "Point"
      }
    },
    {
      "type": "Feature",
      "properties": {
        "name": "Sabanalarga"
      },
      "geometry": {
        "coordinates": [
          -74.92063,
          10.62962
        ],
        "type": "Point"
      }
    },
    {
      "type": "Feature",
      "properties": {
        "name": "Sabanalarga"
      },
      "geometry": {
        "coordinates": [
          -75.81711,
          6.84893
        ],
        "type": "Point"
      }
    },
    {
      "type": "Feature",
      "properties": {
        "name": "Sabanagrande"
      },
      "geometry": {
        "coordinates": [
          -74.76059,
          10.79115
        ],
        "type": "Point"
      }
    },
    {
      "type": "Feature",
      "properties": {
        "name": "Sabana de Torres"
      },
      "geometry": {
        "coordinates": [
          -73.49574,
          7.3915
        ],
        "type": "Point"
      }
    },
    {
      "type": "Feature",
      "properties": {
        "name": "Rovira"
      },
      "geometry": {
        "coordinates": [
          -75.23996,
          4.23922
        ],
        "type": "Point"
      }
    },
    {
      "type": "Feature",
      "properties": {
        "name": "Rosas"
      },
      "geometry": {
        "coordinates": [
          -76.73986,
          2.26093
        ],
        "type": "Point"
      }
    },
    {
      "type": "Feature",
      "properties": {
        "name": "Roncesvalles"
      },
      "geometry": {
        "coordinates": [
          -75.60493,
          4.0108
        ],
        "type": "Point"
      }
    },
    {
      "type": "Feature",
      "properties": {
        "name": "Roldanillo"
      },
      "geometry": {
        "coordinates": [
          -76.15457,
          4.41256
        ],
        "type": "Point"
      }
    },
    {
      "type": "Feature",
      "properties": {
        "name": "Rivera"
      },
      "geometry": {
        "coordinates": [
          -75.25642,
          2.77717
        ],
        "type": "Point"
      }
    },
    {
      "type": "Feature",
      "properties": {
        "name": "Risaralda"
      },
      "geometry": {
        "coordinates": [
          -75.76595,
          5.16647
        ],
        "type": "Point"
      }
    },
    {
      "type": "Feature",
      "properties": {
        "name": "Rio Viejo"
      },
      "geometry": {
        "coordinates": [
          -73.83901,
          8.5874
        ],
        "type": "Point"
      }
    },
    {
      "type": "Feature",
      "properties": {
        "name": "Riosucio"
      },
      "geometry": {
        "coordinates": [
          -77.11964,
          7.44348
        ],
        "type": "Point"
      }
    },
    {
      "type": "Feature",
      "properties": {
        "name": "Riosucio"
      },
      "geometry": {
        "coordinates": [
          -75.70318,
          5.42164
        ],
        "type": "Point"
      }
    },
    {
      "type": "Feature",
      "properties": {
        "name": "Rionegro"
      },
      "geometry": {
        "coordinates": [
          -75.37371,
          6.15515
        ],
        "type": "Point"
      }
    },
    {
      "type": "Feature",
      "properties": {
        "name": "Riohacha"
      },
      "geometry": {
        "coordinates": [
          -72.90722,
          11.54444
        ],
        "type": "Point"
      }
    },
    {
      "type": "Feature",
      "properties": {
        "name": "Riofrio"
      },
      "geometry": {
        "coordinates": [
          -76.28852,
          4.1571
        ],
        "type": "Point"
      }
    },
    {
      "type": "Feature",
      "properties": {
        "name": "Rio de Oro"
      },
      "geometry": {
        "coordinates": [
          -73.38485,
          8.2919
        ],
        "type": "Point"
      }
    },
    {
      "type": "Feature",
      "properties": {
        "name": "Rioblanco"
      },
      "geometry": {
        "coordinates": [
          -75.68056,
          3.53083
        ],
        "type": "Point"
      }
    },
    {
      "type": "Feature",
      "properties": {
        "name": "Ricaurte"
      },
      "geometry": {
        "coordinates": [
          -74.76469,
          4.28075
        ],
        "type": "Point"
      }
    },
    {
      "type": "Feature",
      "properties": {
        "name": "Ricaurte"
      },
      "geometry": {
        "coordinates": [
          -77.96124,
          1.18112
        ],
        "type": "Point"
      }
    },
    {
      "type": "Feature",
      "properties": {
        "name": "El Retiro"
      },
      "geometry": {
        "coordinates": [
          -75.50306,
          6.05861
        ],
        "type": "Point"
      }
    },
    {
      "type": "Feature",
      "properties": {
        "name": "Restrepo"
      },
      "geometry": {
        "coordinates": [
          -73.56142,
          4.25833
        ],
        "type": "Point"
      }
    },
    {
      "type": "Feature",
      "properties": {
        "name": "Restrepo"
      },
      "geometry": {
        "coordinates": [
          -76.52242,
          3.82203
        ],
        "type": "Point"
      }
    },
    {
      "type": "Feature",
      "properties": {
        "name": "Repelon"
      },
      "geometry": {
        "coordinates": [
          -75.12917,
          10.49194
        ],
        "type": "Point"
      }
    },
    {
      "type": "Feature",
      "properties": {
        "name": "Remolino"
      },
      "geometry": {
        "coordinates": [
          -74.71602,
          10.70199
        ],
        "type": "Point"
      }
    },
    {
      "type": "Feature",
      "properties": {
        "name": "Remedios"
      },
      "geometry": {
        "coordinates": [
          -74.53333,
          7.03083
        ],
        "type": "Point"
      }
    },
    {
      "type": "Feature",
      "properties": {
        "name": "Regidor"
      },
      "geometry": {
        "coordinates": [
          -73.82151,
          8.66565
        ],
        "type": "Point"
      }
    },
    {
      "type": "Feature",
      "properties": {
        "name": "Raquira"
      },
      "geometry": {
        "coordinates": [
          -73.63201,
          5.53793
        ],
        "type": "Point"
      }
    },
    {
      "type": "Feature",
      "properties": {
        "name": "Ramiriqui"
      },
      "geometry": {
        "coordinates": [
          -73.33544,
          5.4002
        ],
        "type": "Point"
      }
    },
    {
      "type": "Feature",
      "properties": {
        "name": "Ragonvalia"
      },
      "geometry": {
        "coordinates": [
          -72.47574,
          7.57749
        ],
        "type": "Point"
      }
    },
    {
      "type": "Feature",
      "properties": {
        "name": "Apulo"
      },
      "geometry": {
        "coordinates": [
          -74.59293,
          4.51952
        ],
        "type": "Point"
      }
    },
    {
      "type": "Feature",
      "properties": {
        "name": "Quipile"
      },
      "geometry": {
        "coordinates": [
          -74.56306,
          4.74806
        ],
        "type": "Point"
      }
    },
    {
      "type": "Feature",
      "properties": {
        "name": "Quinchia"
      },
      "geometry": {
        "coordinates": [
          -75.73018,
          5.33957
        ],
        "type": "Point"
      }
    },
    {
      "type": "Feature",
      "properties": {
        "name": "Quimbaya"
      },
      "geometry": {
        "coordinates": [
          -75.76278,
          4.62306
        ],
        "type": "Point"
      }
    },
    {
      "type": "Feature",
      "properties": {
        "name": "Quibdo"
      },
      "geometry": {
        "coordinates": [
          -76.65835,
          5.69188
        ],
        "type": "Point"
      }
    },
    {
      "type": "Feature",
      "properties": {
        "name": "Quetame"
      },
      "geometry": {
        "coordinates": [
          -73.86141,
          4.33234
        ],
        "type": "Point"
      }
    },
    {
      "type": "Feature",
      "properties": {
        "name": "Purisima"
      },
      "geometry": {
        "coordinates": [
          -75.72191,
          9.23657
        ],
        "type": "Point"
      }
    },
    {
      "type": "Feature",
      "properties": {
        "name": "Purificacion"
      },
      "geometry": {
        "coordinates": [
          -74.93129,
          3.85871
        ],
        "type": "Point"
      }
    },
    {
      "type": "Feature",
      "properties": {
        "name": "Pupiales"
      },
      "geometry": {
        "coordinates": [
          -77.64027,
          0.87136
        ],
        "type": "Point"
      }
    },
    {
      "type": "Feature",
      "properties": {
        "name": "Puerto Wilches"
      },
      "geometry": {
        "coordinates": [
          -73.89601,
          7.34828
        ],
        "type": "Point"
      }
    },
    {
      "type": "Feature",
      "properties": {
        "name": "Puerto Triunfo"
      },
      "geometry": {
        "coordinates": [
          -74.64029,
          5.87262
        ],
        "type": "Point"
      }
    },
    {
      "type": "Feature",
      "properties": {
        "name": "Puerto Tejada"
      },
      "geometry": {
        "coordinates": [
          -76.41668,
          3.23114
        ],
        "type": "Point"
      }
    },
    {
      "type": "Feature",
      "properties": {
        "name": "Puerto Santander"
      },
      "geometry": {
        "coordinates": [
          -72.4063,
          8.36361
        ],
        "type": "Point"
      }
    },
    {
      "type": "Feature",
      "properties": {
        "name": "Puerto Salgar"
      },
      "geometry": {
        "coordinates": [
          -74.65436,
          5.46304
        ],
        "type": "Point"
      }
    },
    {
      "type": "Feature",
      "properties": {
        "name": "Puerto Rondon"
      },
      "geometry": {
        "coordinates": [
          -71.1,
          6.28048
        ],
        "type": "Point"
      }
    },
    {
      "type": "Feature",
      "properties": {
        "name": "Puerto Yuca"
      },
      "geometry": {
        "coordinates": [
          -73.20833,
          2.93833
        ],
        "type": "Point"
      }
    },
    {
      "type": "Feature",
      "properties": {
        "name": "Puerto Rico"
      },
      "geometry": {
        "coordinates": [
          -75.145,
          1.91417
        ],
        "type": "Point"
      }
    },
    {
      "type": "Feature",
      "properties": {
        "name": "Puerto Parra"
      },
      "geometry": {
        "coordinates": [
          -74.05734,
          6.65149
        ],
        "type": "Point"
      }
    },
    {
      "type": "Feature",
      "properties": {
        "name": "Puerto Narino"
      },
      "geometry": {
        "coordinates": [
          -70.35584,
          -3.78889
        ],
        "type": "Point"
      }
    },
    {
      "type": "Feature",
      "properties": {
        "name": "Puerto Lopez"
      },
      "geometry": {
        "coordinates": [
          -72.95647,
          4.09912
        ],
        "type": "Point"
      }
    },
    {
      "type": "Feature",
      "properties": {
        "name": "Puerto Lleras"
      },
      "geometry": {
        "coordinates": [
          -73.4044,
          3.02225
        ],
        "type": "Point"
      }
    },
    {
      "type": "Feature",
      "properties": {
        "name": "Puerto Leguizamo"
      },
      "geometry": {
        "coordinates": [
          -74.78189,
          -0.19337
        ],
        "type": "Point"
      }
    },
    {
      "type": "Feature",
      "properties": {
        "name": "Inirida"
      },
      "geometry": {
        "coordinates": [
          -67.92389,
          3.86528
        ],
        "type": "Point"
      }
    },
    {
      "type": "Feature",
      "properties": {
        "name": "Puerto Escondido"
      },
      "geometry": {
        "coordinates": [
          -76.26413,
          9.01811
        ],
        "type": "Point"
      }
    },
    {
      "type": "Feature",
      "properties": {
        "name": "Puerto Colombia"
      },
      "geometry": {
        "coordinates": [
          -74.95472,
          10.98778
        ],
        "type": "Point"
      }
    },
    {
      "type": "Feature",
      "properties": {
        "name": "Puerto Carreno"
      },
      "geometry": {
        "coordinates": [
          -67.48588,
          6.18903
        ],
        "type": "Point"
      }
    },
    {
      "type": "Feature",
      "properties": {
        "name": "Puerto Boyaca"
      },
      "geometry": {
        "coordinates": [
          -74.58845,
          5.97584
        ],
        "type": "Point"
      }
    },
    {
      "type": "Feature",
      "properties": {
        "name": "Puerto Berrio"
      },
      "geometry": {
        "coordinates": [
          -74.40326,
          6.49156
        ],
        "type": "Point"
      }
    },
    {
      "type": "Feature",
      "properties": {
        "name": "Puerto Asis"
      },
      "geometry": {
        "coordinates": [
          -76.50075,
          0.51328
        ],
        "type": "Point"
      }
    },
    {
      "type": "Feature",
      "properties": {
        "name": "Puerres"
      },
      "geometry": {
        "coordinates": [
          -77.26661,
          1.19374
        ],
        "type": "Point"
      }
    },
    {
      "type": "Feature",
      "properties": {
        "name": "Puente Nacional"
      },
      "geometry": {
        "coordinates": [
          -73.6781,
          5.87739
        ],
        "type": "Point"
      }
    },
    {
      "type": "Feature",
      "properties": {
        "name": "Puebloviejo"
      },
      "geometry": {
        "coordinates": [
          -74.28439,
          10.99376
        ],
        "type": "Point"
      }
    },
    {
      "type": "Feature",
      "properties": {
        "name": "Pueblorrico"
      },
      "geometry": {
        "coordinates": [
          -75.84101,
          5.79176
        ],
        "type": "Point"
      }
    },
    {
      "type": "Feature",
      "properties": {
        "name": "Pueblo Rico"
      },
      "geometry": {
        "coordinates": [
          -76.03639,
          5.23833
        ],
        "type": "Point"
      }
    },
    {
      "type": "Feature",
      "properties": {
        "name": "Pueblo Nuevo"
      },
      "geometry": {
        "coordinates": [
          -74.95815,
          8.2411
        ],
        "type": "Point"
      }
    },
    {
      "type": "Feature",
      "properties": {
        "name": "Providencia"
      },
      "geometry": {
        "coordinates": [
          -77.464,
          1.56976
        ],
        "type": "Point"
      }
    },
    {
      "type": "Feature",
      "properties": {
        "name": "Prado"
      },
      "geometry": {
        "coordinates": [
          -74.93004,
          3.75118
        ],
        "type": "Point"
      }
    },
    {
      "type": "Feature",
      "properties": {
        "name": "Pradera"
      },
      "geometry": {
        "coordinates": [
          -76.24472,
          3.42111
        ],
        "type": "Point"
      }
    },
    {
      "type": "Feature",
      "properties": {
        "name": "Potosi"
      },
      "geometry": {
        "coordinates": [
          -77.57216,
          0.80739
        ],
        "type": "Point"
      }
    },
    {
      "type": "Feature",
      "properties": {
        "name": "Pore"
      },
      "geometry": {
        "coordinates": [
          -72.00159,
          5.72992
        ],
        "type": "Point"
      }
    },
    {
      "type": "Feature",
      "properties": {
        "name": "Popayan"
      },
      "geometry": {
        "coordinates": [
          -76.61316,
          2.43823
        ],
        "type": "Point"
      }
    },
    {
      "type": "Feature",
      "properties": {
        "name": "Ponedera"
      },
      "geometry": {
        "coordinates": [
          -74.75026,
          10.64104
        ],
        "type": "Point"
      }
    },
    {
      "type": "Feature",
      "properties": {
        "name": "Polonuevo"
      },
      "geometry": {
        "coordinates": [
          -74.85344,
          10.77697
        ],
        "type": "Point"
      }
    },
    {
      "type": "Feature",
      "properties": {
        "name": "Policarpa"
      },
      "geometry": {
        "coordinates": [
          -77.46199,
          1.63231
        ],
        "type": "Point"
      }
    },
    {
      "type": "Feature",
      "properties": {
        "name": "Planeta Rica"
      },
      "geometry": {
        "coordinates": [
          -75.58508,
          8.4115
        ],
        "type": "Point"
      }
    },
    {
      "type": "Feature",
      "properties": {
        "name": "Planadas"
      },
      "geometry": {
        "coordinates": [
          -75.64506,
          3.19698
        ],
        "type": "Point"
      }
    },
    {
      "type": "Feature",
      "properties": {
        "name": "Pizarro"
      },
      "geometry": {
        "coordinates": [
          -77.36598,
          4.95334
        ],
        "type": "Point"
      }
    },
    {
      "type": "Feature",
      "properties": {
        "name": "Francisco Pizarro"
      },
      "geometry": {
        "coordinates": [
          -78.72167,
          2.10194
        ],
        "type": "Point"
      }
    },
    {
      "type": "Feature",
      "properties": {
        "name": "Pivijay"
      },
      "geometry": {
        "coordinates": [
          -74.61621,
          10.46167
        ],
        "type": "Point"
      }
    },
    {
      "type": "Feature",
      "properties": {
        "name": "Pitalito"
      },
      "geometry": {
        "coordinates": [
          -76.05071,
          1.85371
        ],
        "type": "Point"
      }
    },
    {
      "type": "Feature",
      "properties": {
        "name": "Pital"
      },
      "geometry": {
        "coordinates": [
          -75.80442,
          2.2665
        ],
        "type": "Point"
      }
    },
    {
      "type": "Feature",
      "properties": {
        "name": "Piojo"
      },
      "geometry": {
        "coordinates": [
          -75.10776,
          10.74846
        ],
        "type": "Point"
      }
    },
    {
      "type": "Feature",
      "properties": {
        "name": "Pinillos"
      },
      "geometry": {
        "coordinates": [
          -74.46771,
          8.91925
        ],
        "type": "Point"
      }
    },
    {
      "type": "Feature",
      "properties": {
        "name": "Pijino"
      },
      "geometry": {
        "coordinates": [
          -74.45302,
          9.32908
        ],
        "type": "Point"
      }
    },
    {
      "type": "Feature",
      "properties": {
        "name": "Pijao"
      },
      "geometry": {
        "coordinates": [
          -75.70348,
          4.33419
        ],
        "type": "Point"
      }
    },
    {
      "type": "Feature",
      "properties": {
        "name": "Piedras"
      },
      "geometry": {
        "coordinates": [
          -74.88175,
          4.53833
        ],
        "type": "Point"
      }
    },
    {
      "type": "Feature",
      "properties": {
        "name": "Piedrancha"
      },
      "geometry": {
        "coordinates": [
          -77.8489,
          1.1374
        ],
        "type": "Point"
      }
    },
    {
      "type": "Feature",
      "properties": {
        "name": "Pie de Pato"
      },
      "geometry": {
        "coordinates": [
          -76.97449,
          5.51604
        ],
        "type": "Point"
      }
    },
    {
      "type": "Feature",
      "properties": {
        "name": "Piedecuesta"
      },
      "geometry": {
        "coordinates": [
          -73.04953,
          6.98789
        ],
        "type": "Point"
      }
    },
    {
      "type": "Feature",
      "properties": {
        "name": "Pesca"
      },
      "geometry": {
        "coordinates": [
          -73.05,
          5.55
        ],
        "type": "Point"
      }
    },
    {
      "type": "Feature",
      "properties": {
        "name": "Pereira"
      },
      "geometry": {
        "coordinates": [
          -75.69611,
          4.81333
        ],
        "type": "Point"
      }
    },
    {
      "type": "Feature",
      "properties": {
        "name": "Peque"
      },
      "geometry": {
        "coordinates": [
          -75.90926,
          7.02123
        ],
        "type": "Point"
      }
    },
    {
      "type": "Feature",
      "properties": {
        "name": "Pensilvania"
      },
      "geometry": {
        "coordinates": [
          -75.16122,
          5.38346
        ],
        "type": "Point"
      }
    },
    {
      "type": "Feature",
      "properties": {
        "name": "Pelaya"
      },
      "geometry": {
        "coordinates": [
          -73.66451,
          8.68819
        ],
        "type": "Point"
      }
    },
    {
      "type": "Feature",
      "properties": {
        "name": "Pedraza"
      },
      "geometry": {
        "coordinates": [
          -74.91504,
          10.18739
        ],
        "type": "Point"
      }
    },
    {
      "type": "Feature",
      "properties": {
        "name": "Payan"
      },
      "geometry": {
        "coordinates": [
          -78.205,
          1.935
        ],
        "type": "Point"
      }
    },
    {
      "type": "Feature",
      "properties": {
        "name": "Pauna"
      },
      "geometry": {
        "coordinates": [
          -73.9825,
          5.65861
        ],
        "type": "Point"
      }
    },
    {
      "type": "Feature",
      "properties": {
        "name": "Patia"
      },
      "geometry": {
        "coordinates": [
          -77.05273,
          2.06895
        ],
        "type": "Point"
      }
    },
    {
      "type": "Feature",
      "properties": {
        "name": "Pasto"
      },
      "geometry": {
        "coordinates": [
          -77.28111,
          1.21361
        ],
        "type": "Point"
      }
    },
    {
      "type": "Feature",
      "properties": {
        "name": "Pasca"
      },
      "geometry": {
        "coordinates": [
          -74.30056,
          4.30722
        ],
        "type": "Point"
      }
    },
    {
      "type": "Feature",
      "properties": {
        "name": "Pandi"
      },
      "geometry": {
        "coordinates": [
          -74.4875,
          4.19111
        ],
        "type": "Point"
      }
    },
    {
      "type": "Feature",
      "properties": {
        "name": "Pamplona"
      },
      "geometry": {
        "coordinates": [
          -72.64795,
          7.37565
        ],
        "type": "Point"
      }
    },
    {
      "type": "Feature",
      "properties": {
        "name": "Palocabildo"
      },
      "geometry": {
        "coordinates": [
          -75.01732,
          5.11705
        ],
        "type": "Point"
      }
    },
    {
      "type": "Feature",
      "properties": {
        "name": "Palmito"
      },
      "geometry": {
        "coordinates": [
          -75.55,
          9.33333
        ],
        "type": "Point"
      }
    },
    {
      "type": "Feature",
      "properties": {
        "name": "Palmira"
      },
      "geometry": {
        "coordinates": [
          -76.30361,
          3.53944
        ],
        "type": "Point"
      }
    },
    {
      "type": "Feature",
      "properties": {
        "name": "Palmar de Varela"
      },
      "geometry": {
        "coordinates": [
          -74.75443,
          10.74055
        ],
        "type": "Point"
      }
    },
    {
      "type": "Feature",
      "properties": {
        "name": "Palestina"
      },
      "geometry": {
        "coordinates": [
          -75.62242,
          5.0194
        ],
        "type": "Point"
      }
    },
    {
      "type": "Feature",
      "properties": {
        "name": "Palestina"
      },
      "geometry": {
        "coordinates": [
          -76.13403,
          1.72362
        ],
        "type": "Point"
      }
    },
    {
      "type": "Feature",
      "properties": {
        "name": "Palermo"
      },
      "geometry": {
        "coordinates": [
          -75.4375,
          2.89167
        ],
        "type": "Point"
      }
    },
    {
      "type": "Feature",
      "properties": {
        "name": "Pajarito"
      },
      "geometry": {
        "coordinates": [
          -72.70277,
          5.2929
        ],
        "type": "Point"
      }
    },
    {
      "type": "Feature",
      "properties": {
        "name": "Paispamba"
      },
      "geometry": {
        "coordinates": [
          -76.61086,
          2.25462
        ],
        "type": "Point"
      }
    },
    {
      "type": "Feature",
      "properties": {
        "name": "Paipa"
      },
      "geometry": {
        "coordinates": [
          -73.11708,
          5.78013
        ],
        "type": "Point"
      }
    },
    {
      "type": "Feature",
      "properties": {
        "name": "Pailitas"
      },
      "geometry": {
        "coordinates": [
          -73.62548,
          8.95652
        ],
        "type": "Point"
      }
    },
    {
      "type": "Feature",
      "properties": {
        "name": "Paicol"
      },
      "geometry": {
        "coordinates": [
          -75.775,
          2.44962
        ],
        "type": "Point"
      }
    },
    {
      "type": "Feature",
      "properties": {
        "name": "Paez"
      },
      "geometry": {
        "coordinates": [
          -73.05123,
          5.10112
        ],
        "type": "Point"
      }
    },
    {
      "type": "Feature",
      "properties": {
        "name": "Belalcazar"
      },
      "geometry": {
        "coordinates": [
          -75.99278,
          2.65472
        ],
        "type": "Point"
      }
    },
    {
      "type": "Feature",
      "properties": {
        "name": "Padilla"
      },
      "geometry": {
        "coordinates": [
          -76.31385,
          3.22038
        ],
        "type": "Point"
      }
    },
    {
      "type": "Feature",
      "properties": {
        "name": "Pacora"
      },
      "geometry": {
        "coordinates": [
          -75.4593,
          5.52708
        ],
        "type": "Point"
      }
    },
    {
      "type": "Feature",
      "properties": {
        "name": "Pacho"
      },
      "geometry": {
        "coordinates": [
          -74.15977,
          5.13278
        ],
        "type": "Point"
      }
    },
    {
      "type": "Feature",
      "properties": {
        "name": "Ovejas"
      },
      "geometry": {
        "coordinates": [
          -75.22382,
          9.53248
        ],
        "type": "Point"
      }
    },
    {
      "type": "Feature",
      "properties": {
        "name": "Otanche"
      },
      "geometry": {
        "coordinates": [
          -74.18249,
          5.65672
        ],
        "type": "Point"
      }
    },
    {
      "type": "Feature",
      "properties": {
        "name": "Ospina"
      },
      "geometry": {
        "coordinates": [
          -77.56554,
          1.0595
        ],
        "type": "Point"
      }
    },
    {
      "type": "Feature",
      "properties": {
        "name": "Ortega"
      },
      "geometry": {
        "coordinates": [
          -75.22169,
          3.9361
        ],
        "type": "Point"
      }
    },
    {
      "type": "Feature",
      "properties": {
        "name": "Orocue"
      },
      "geometry": {
        "coordinates": [
          -71.33542,
          4.79117
        ],
        "type": "Point"
      }
    },
    {
      "type": "Feature",
      "properties": {
        "name": "Oporapa"
      },
      "geometry": {
        "coordinates": [
          -75.97675,
          2.05015
        ],
        "type": "Point"
      }
    },
    {
      "type": "Feature",
      "properties": {
        "name": "Onzaga"
      },
      "geometry": {
        "coordinates": [
          -72.81726,
          6.34434
        ],
        "type": "Point"
      }
    },
    {
      "type": "Feature",
      "properties": {
        "name": "Olaya Herrera"
      },
      "geometry": {
        "coordinates": [
          -77.49085,
          1.24803
        ],
        "type": "Point"
      }
    },
    {
      "type": "Feature",
      "properties": {
        "name": "Oiba"
      },
      "geometry": {
        "coordinates": [
          -73.29876,
          6.26387
        ],
        "type": "Point"
      }
    },
    {
      "type": "Feature",
      "properties": {
        "name": "Ocana"
      },
      "geometry": {
        "coordinates": [
          -73.35604,
          8.23773
        ],
        "type": "Point"
      }
    },
    {
      "type": "Feature",
      "properties": {
        "name": "Obando"
      },
      "geometry": {
        "coordinates": [
          -75.97389,
          4.57583
        ],
        "type": "Point"
      }
    },
    {
      "type": "Feature",
      "properties": {
        "name": "Nuqui"
      },
      "geometry": {
        "coordinates": [
          -77.27083,
          5.7125
        ],
        "type": "Point"
      }
    },
    {
      "type": "Feature",
      "properties": {
        "name": "Nunchia"
      },
      "geometry": {
        "coordinates": [
          -72.19861,
          5.64056
        ],
        "type": "Point"
      }
    },
    {
      "type": "Feature",
      "properties": {
        "name": "Nueva Granada"
      },
      "geometry": {
        "coordinates": [
          -74.39304,
          9.80168
        ],
        "type": "Point"
      }
    },
    {
      "type": "Feature",
      "properties": {
        "name": "Novita"
      },
      "geometry": {
        "coordinates": [
          -76.60526,
          4.95511
        ],
        "type": "Point"
      }
    },
    {
      "type": "Feature",
      "properties": {
        "name": "Norcasia"
      },
      "geometry": {
        "coordinates": [
          -74.88521,
          5.57782
        ],
        "type": "Point"
      }
    },
    {
      "type": "Feature",
      "properties": {
        "name": "Nocaima"
      },
      "geometry": {
        "coordinates": [
          -74.38439,
          5.06696
        ],
        "type": "Point"
      }
    },
    {
      "type": "Feature",
      "properties": {
        "name": "Nobsa"
      },
      "geometry": {
        "coordinates": [
          -72.94099,
          5.76978
        ],
        "type": "Point"
      }
    },
    {
      "type": "Feature",
      "properties": {
        "name": "Nilo"
      },
      "geometry": {
        "coordinates": [
          -74.62083,
          4.30604
        ],
        "type": "Point"
      }
    },
    {
      "type": "Feature",
      "properties": {
        "name": "Nemocon"
      },
      "geometry": {
        "coordinates": [
          -73.88333,
          5.05
        ],
        "type": "Point"
      }
    },
    {
      "type": "Feature",
      "properties": {
        "name": "Neiva"
      },
      "geometry": {
        "coordinates": [
          -75.28189,
          2.9273
        ],
        "type": "Point"
      }
    },
    {
      "type": "Feature",
      "properties": {
        "name": "Neira"
      },
      "geometry": {
        "coordinates": [
          -75.52001,
          5.1665
        ],
        "type": "Point"
      }
    },
    {
      "type": "Feature",
      "properties": {
        "name": "Necocli"
      },
      "geometry": {
        "coordinates": [
          -76.78926,
          8.42627
        ],
        "type": "Point"
      }
    },
    {
      "type": "Feature",
      "properties": {
        "name": "Nechi"
      },
      "geometry": {
        "coordinates": [
          -74.77573,
          8.09419
        ],
        "type": "Point"
      }
    },
    {
      "type": "Feature",
      "properties": {
        "name": "Natagaima"
      },
      "geometry": {
        "coordinates": [
          -75.09415,
          3.62057
        ],
        "type": "Point"
      }
    },
    {
      "type": "Feature",
      "properties": {
        "name": "Nataga"
      },
      "geometry": {
        "coordinates": [
          -75.80852,
          2.54359
        ],
        "type": "Point"
      }
    },
    {
      "type": "Feature",
      "properties": {
        "name": "Narino"
      },
      "geometry": {
        "coordinates": [
          -75.17656,
          5.60893
        ],
        "type": "Point"
      }
    },
    {
      "type": "Feature",
      "properties": {
        "name": "Narino"
      },
      "geometry": {
        "coordinates": [
          -74.82731,
          4.39781
        ],
        "type": "Point"
      }
    },
    {
      "type": "Feature",
      "properties": {
        "name": "Narino"
      },
      "geometry": {
        "coordinates": [
          -77.35721,
          1.28995
        ],
        "type": "Point"
      }
    },
    {
      "type": "Feature",
      "properties": {
        "name": "Muzo"
      },
      "geometry": {
        "coordinates": [
          -74.10778,
          5.53528
        ],
        "type": "Point"
      }
    },
    {
      "type": "Feature",
      "properties": {
        "name": "Mutata"
      },
      "geometry": {
        "coordinates": [
          -76.43564,
          7.24407
        ],
        "type": "Point"
      }
    },
    {
      "type": "Feature",
      "properties": {
        "name": "Murindo"
      },
      "geometry": {
        "coordinates": [
          -76.75439,
          6.98481
        ],
        "type": "Point"
      }
    },
    {
      "type": "Feature",
      "properties": {
        "name": "Murillo"
      },
      "geometry": {
        "coordinates": [
          -75.17151,
          4.87393
        ],
        "type": "Point"
      }
    },
    {
      "type": "Feature",
      "properties": {
        "name": "Mountain"
      },
      "geometry": {
        "coordinates": [
          -81.36667,
          13.36667
        ],
        "type": "Point"
      }
    },
    {
      "type": "Feature",
      "properties": {
        "name": "Mosquera"
      },
      "geometry": {
        "coordinates": [
          -74.23021,
          4.70592
        ],
        "type": "Point"
      }
    },
    {
      "type": "Feature",
      "properties": {
        "name": "Mosquera"
      },
      "geometry": {
        "coordinates": [
          -78.4511,
          2.50861
        ],
        "type": "Point"
      }
    },
    {
      "type": "Feature",
      "properties": {
        "name": "Morroa"
      },
      "geometry": {
        "coordinates": [
          -75.30542,
          9.33348
        ],
        "type": "Point"
      }
    },
    {
      "type": "Feature",
      "properties": {
        "name": "Morelia"
      },
      "geometry": {
        "coordinates": [
          -75.72581,
          1.48747
        ],
        "type": "Point"
      }
    },
    {
      "type": "Feature",
      "properties": {
        "name": "Morales"
      },
      "geometry": {
        "coordinates": [
          -73.86884,
          8.2752
        ],
        "type": "Point"
      }
    },
    {
      "type": "Feature",
      "properties": {
        "name": "Monteria"
      },
      "geometry": {
        "coordinates": [
          -75.88143,
          8.74798
        ],
        "type": "Point"
      }
    },
    {
      "type": "Feature",
      "properties": {
        "name": "Montenegro"
      },
      "geometry": {
        "coordinates": [
          -75.75111,
          4.56639
        ],
        "type": "Point"
      }
    },
    {
      "type": "Feature",
      "properties": {
        "name": "Montelibano"
      },
      "geometry": {
        "coordinates": [
          -75.4202,
          7.97917
        ],
        "type": "Point"
      }
    },
    {
      "type": "Feature",
      "properties": {
        "name": "Montecristo"
      },
      "geometry": {
        "coordinates": [
          -74.4733,
          8.2971
        ],
        "type": "Point"
      }
    },
    {
      "type": "Feature",
      "properties": {
        "name": "Montebello"
      },
      "geometry": {
        "coordinates": [
          -75.5275,
          5.94806
        ],
        "type": "Point"
      }
    },
    {
      "type": "Feature",
      "properties": {
        "name": "Monitos"
      },
      "geometry": {
        "coordinates": [
          -76.05,
          8.25
        ],
        "type": "Point"
      }
    },
    {
      "type": "Feature",
      "properties": {
        "name": "Moniquira"
      },
      "geometry": {
        "coordinates": [
          -73.57284,
          5.87638
        ],
        "type": "Point"
      }
    },
    {
      "type": "Feature",
      "properties": {
        "name": "Mongui"
      },
      "geometry": {
        "coordinates": [
          -72.84908,
          5.72151
        ],
        "type": "Point"
      }
    },
    {
      "type": "Feature",
      "properties": {
        "name": "Mongua"
      },
      "geometry": {
        "coordinates": [
          -72.80339,
          5.75084
        ],
        "type": "Point"
      }
    },
    {
      "type": "Feature",
      "properties": {
        "name": "Mompos"
      },
      "geometry": {
        "coordinates": [
          -74.42667,
          9.24194
        ],
        "type": "Point"
      }
    },
    {
      "type": "Feature",
      "properties": {
        "name": "Momil"
      },
      "geometry": {
        "coordinates": [
          -75.67489,
          9.23767
        ],
        "type": "Point"
      }
    },
    {
      "type": "Feature",
      "properties": {
        "name": "Molagavita"
      },
      "geometry": {
        "coordinates": [
          -72.80875,
          6.67315
        ],
        "type": "Point"
      }
    },
    {
      "type": "Feature",
      "properties": {
        "name": "Mogotes"
      },
      "geometry": {
        "coordinates": [
          -72.97046,
          6.47559
        ],
        "type": "Point"
      }
    },
    {
      "type": "Feature",
      "properties": {
        "name": "Mocoa"
      },
      "geometry": {
        "coordinates": [
          -76.65208,
          1.15284
        ],
        "type": "Point"
      }
    },
    {
      "type": "Feature",
      "properties": {
        "name": "Mitu"
      },
      "geometry": {
        "coordinates": [
          -70.23472,
          1.25778
        ],
        "type": "Point"
      }
    },
    {
      "type": "Feature",
      "properties": {
        "name": "Mistrato"
      },
      "geometry": {
        "coordinates": [
          -75.8839,
          5.29622
        ],
        "type": "Point"
      }
    },
    {
      "type": "Feature",
      "properties": {
        "name": "Miranda"
      },
      "geometry": {
        "coordinates": [
          -76.22814,
          3.24991
        ],
        "type": "Point"
      }
    },
    {
      "type": "Feature",
      "properties": {
        "name": "Miraflores"
      },
      "geometry": {
        "coordinates": [
          -73.14504,
          5.19608
        ],
        "type": "Point"
      }
    },
    {
      "type": "Feature",
      "properties": {
        "name": "Miraflores"
      },
      "geometry": {
        "coordinates": [
          -71.95111,
          1.33667
        ],
        "type": "Point"
      }
    },
    {
      "type": "Feature",
      "properties": {
        "name": "Milan"
      },
      "geometry": {
        "coordinates": [
          -75.51167,
          1.29205
        ],
        "type": "Point"
      }
    },
    {
      "type": "Feature",
      "properties": {
        "name": "Mercaderes"
      },
      "geometry": {
        "coordinates": [
          -77.17032,
          1.80175
        ],
        "type": "Point"
      }
    },
    {
      "type": "Feature",
      "properties": {
        "name": "Melgar"
      },
      "geometry": {
        "coordinates": [
          -74.64075,
          4.20475
        ],
        "type": "Point"
      }
    },
    {
      "type": "Feature",
      "properties": {
        "name": "Medina"
      },
      "geometry": {
        "coordinates": [
          -73.34982,
          4.51005
        ],
        "type": "Point"
      }
    },
    {
      "type": "Feature",
      "properties": {
        "name": "Medellin"
      },
      "geometry": {
        "coordinates": [
          -75.56359,
          6.25184
        ],
        "type": "Point"
      }
    },
    {
      "type": "Feature",
      "properties": {
        "name": "Matanza"
      },
      "geometry": {
        "coordinates": [
          -73.01516,
          7.32233
        ],
        "type": "Point"
      }
    },
    {
      "type": "Feature",
      "properties": {
        "name": "Marulanda"
      },
      "geometry": {
        "coordinates": [
          -75.26016,
          5.28393
        ],
        "type": "Point"
      }
    },
    {
      "type": "Feature",
      "properties": {
        "name": "Marsella"
      },
      "geometry": {
        "coordinates": [
          -75.73778,
          4.93722
        ],
        "type": "Point"
      }
    },
    {
      "type": "Feature",
      "properties": {
        "name": "Marquetalia"
      },
      "geometry": {
        "coordinates": [
          -75.05496,
          5.29659
        ],
        "type": "Point"
      }
    },
    {
      "type": "Feature",
      "properties": {
        "name": "Marmato"
      },
      "geometry": {
        "coordinates": [
          -75.59267,
          5.47843
        ],
        "type": "Point"
      }
    },
    {
      "type": "Feature",
      "properties": {
        "name": "Mariquita"
      },
      "geometry": {
        "coordinates": [
          -74.89295,
          5.19889
        ],
        "type": "Point"
      }
    },
    {
      "type": "Feature",
      "properties": {
        "name": "Maripi"
      },
      "geometry": {
        "coordinates": [
          -74.00861,
          5.55194
        ],
        "type": "Point"
      }
    },
    {
      "type": "Feature",
      "properties": {
        "name": "Marinilla"
      },
      "geometry": {
        "coordinates": [
          -75.33621,
          6.17358
        ],
        "type": "Point"
      }
    },