{
  "type": "FeatureCollection",
  "features": [
    {
      "type": "Feature",
      "properties": {
        "name": "Padang Mat Sirat"
      },
      "geometry": {
        "coordinates": [
          99.73404,
          6.35423
        ],
        "type": "Point"
      }
    },
    {
      "type": "Feature",
      "properties": {
        "name": "Ayer Hangat"
      },
      "geometry": {
        "coordinates": [
          99.82199,
          6.42062
        ],
        "type": "Point"
      }
    },
    {
      "type": "Feature",
      "properties": {
        "name": "Kuah"
      },
      "geometry": {
        "coordinates": [
          99.8432,
          6.32649
        ],
        "type": "Point"
      }
    },
    {
      "type": "Feature",
      "properties": {
        "name": "Jerantut"
      },
      "geometry": {
        "coordinates": [
          102.3626,
          3.936
        ],
        "type": "Point"
      }
    },
    {
      "type": "Feature",
      "properties": {
        "name": "Raub"
      },
      "geometry": {
        "coordinates": [
          101.857,
          3.7899
        ],
        "type": "Point"
      }
    },
    {
      "type": "Feature",
      "properties": {
        "name": "Batu Pahat"
      },
      "geometry": {
        "coordinates": [
          102.9325,
          1.8548
        ],
        "type": "Point"
      }
    },
    {
      "type": "Feature",
      "properties": {
        "name": "Parit Raja"
      },
      "geometry": {
        "coordinates": [
          103.1124,
          1.8681
        ],
        "type": "Point"
      }
    },
    {
      "type": "Feature",
      "properties": {
        "name": "Pekan Nenas"
      },
      "geometry": {
        "coordinates": [
          103.5141,
          1.51
        ],
        "type": "Point"
      }
    },
    {
      "type": "Feature",
      "properties": {
        "name": "Pontian Kechil"
      },
      "geometry": {
        "coordinates": [
          103.3896,
          1.4866
        ],
        "type": "Point"
      }
    },
    {
      "type": "Feature",
      "properties": {
        "name": "Kampung Pasir Gudang Baru"
      },
      "geometry": {
        "coordinates": [
          103.878,
          1.4726
        ],
        "type": "Point"
      }
    },
    {
      "type": "Feature",
      "properties": {
        "name": "Kota Tinggi"
      },
      "geometry": {
        "coordinates": [
          103.8999,
          1.7381
        ],
        "type": "Point"
      }
    },
    {
      "type": "Feature",
      "properties": {
        "name": "Taman Senai"
      },
      "geometry": {
        "coordinates": [
          103.6419,
          1.6006
        ],
        "type": "Point"
      }
    },
    {
      "type": "Feature",
      "properties": {
        "name": "Kulai"
      },
      "geometry": {
        "coordinates": [
          103.6032,
          1.6561
        ],
        "type": "Point"
      }
    },
    {
      "type": "Feature",
      "properties": {
        "name": "Skudai"
      },
      "geometry": {
        "coordinates": [
          103.65779,
          1.53741
        ],
        "type": "Point"
      }
    },
    {
      "type": "Feature",
      "properties": {
        "name": "Johor Bahru"
      },
      "geometry": {
        "coordinates": [
          103.7578,
          1.4655
        ],
        "type": "Point"
      }
    },
    {
      "type": "Feature",
      "properties": {
        "name": "Kluang"
      },
      "geometry": {
        "coordinates": [
          103.31689,
          2.03046
        ],
        "type": "Point"
      }
    },
    {
      "type": "Feature",
      "properties": {
        "name": "Yong Peng"
      },
      "geometry": {
        "coordinates": [
          103.0659,
          2.0136
        ],
        "type": "Point"
      }
    },
    {
      "type": "Feature",
      "properties": {
        "name": "Mersing"
      },
      "geometry": {
        "coordinates": [
          103.8405,
          2.4312
        ],
        "type": "Point"
      }
    },
    {
      "type": "Feature",
      "properties": {
        "name": "Segamat"
      },
      "geometry": {
        "coordinates": [
          102.8158,
          2.5148
        ],
        "type": "Point"
      }
    },
    {
      "type": "Feature",
      "properties": {
        "name": "Tangkak"
      },
      "geometry": {
        "coordinates": [
          102.5453,
          2.2673
        ],
        "type": "Point"
      }
    },
    {
      "type": "Feature",
      "properties": {
        "name": "Muar"
      },
      "geometry": {
        "coordinates": [
          102.5689,
          2.0442
        ],
        "type": "Point"
      }
    },
    {
      "type": "Feature",
      "properties": {
        "name": "Bakri"
      },
      "geometry": {
        "coordinates": [
          102.6527,
          2.0441
        ],
        "type": "Point"
      }
    },
    {
      "type": "Feature",
      "properties": {
        "name": "Labis"
      },
      "geometry": {
        "coordinates": [
          103.021,
          2.385
        ],
        "type": "Point"
      }
    },
    {
      "type": "Feature",
      "properties": {
        "name": "Chaah"
      },
      "geometry": {
        "coordinates": [
          103.048,
          2.249
        ],
        "type": "Point"
      }
    },
    {
      "type": "Feature",
      "properties": {
        "name": "Kuala Selangor"
      },
      "geometry": {
        "coordinates": [
          101.25,
          3.35
        ],
        "type": "Point"
      }
    },
    {
      "type": "Feature",
      "properties": {
        "name": "Batang Berjuntai"
      },
      "geometry": {
        "coordinates": [
          101.41667,
          3.38333
        ],
        "type": "Point"
      }
    },
    {
      "type": "Feature",
      "properties": {
        "name": "Batu Arang"
      },
      "geometry": {
        "coordinates": [
          101.46667,
          3.31667
        ],
        "type": "Point"
      }
    },
    {
      "type": "Feature",
      "properties": {
        "name": "Shah Alam"
      },
      "geometry": {
        "coordinates": [
          101.53281,
          3.08507
        ],
        "type": "Point"
      }
    },
    {
      "type": "Feature",
      "properties": {
        "name": "Klang"
      },
      "geometry": {
        "coordinates": [
          101.45,
          3.03333
        ],
        "type": "Point"
      }
    },
    {
      "type": "Feature",
      "properties": {
        "name": "Cukai"
      },
      "geometry": {
        "coordinates": [
          103.41667,
          4.25
        ],
        "type": "Point"
      }
    },
    {
      "type": "Feature",
      "properties": {
        "name": "Kuala Lipis"
      },
      "geometry": {
        "coordinates": [
          102.0468,
          4.1842
        ],
        "type": "Point"
      }
    },
    {
      "type": "Feature",
      "properties": {
        "name": "Paka"
      },
      "geometry": {
        "coordinates": [
          103.4368,
          4.6374
        ],
        "type": "Point"
      }
    },
    {
      "type": "Feature",
      "properties": {
        "name": "Kertih"
      },
      "geometry": {
        "coordinates": [
          103.4483,
          4.5141
        ],
        "type": "Point"
      }
    },
    {
      "type": "Feature",
      "properties": {
        "name": "Kulim"
      },
      "geometry": {
        "coordinates": [
          100.56177,
          5.36499
        ],
        "type": "Point"
      }
    },
    {
      "type": "Feature",
      "properties": {
        "name": "Bagan Serai"
      },
      "geometry": {
        "coordinates": [
          100.54101,
          5.0108
        ],
        "type": "Point"
      }
    },
    {
      "type": "Feature",
      "properties": {
        "name": "Bedong"
      },
      "geometry": {
        "coordinates": [
          100.50876,
          5.72743
        ],
        "type": "Point"
      }
    },
    {
      "type": "Feature",
      "properties": {
        "name": "Simpang Empat"
      },
      "geometry": {
        "coordinates": [
          100.63333,
          4.95
        ],
        "type": "Point"
      }
    },
    {
      "type": "Feature",
      "properties": {
        "name": "Taiping"
      },
      "geometry": {
        "coordinates": [
          100.73333,
          4.85
        ],
        "type": "Point"
      }
    },
    {
      "type": "Feature",
      "properties": {
        "name": "Kuala Kangsar"
      },
      "geometry": {
        "coordinates": [
          100.93333,
          4.76667
        ],
        "type": "Point"
      }
    },
    {
      "type": "Feature",
      "properties": {
        "name": "Ipoh"
      },
      "geometry": {
        "coordinates": [
          101.0829,
          4.5841
        ],
        "type": "Point"
      }
    },
    {
      "type": "Feature",
      "properties": {
        "name": "Gua Musang"
      },
      "geometry": {
        "coordinates": [
          101.9644,
          4.8823
        ],
        "type": "Point"
      }
    },
    {
      "type": "Feature",
      "properties": {
        "name": "Kuala Terengganu"
      },
      "geometry": {
        "coordinates": [
          103.1408,
          5.3302
        ],
        "type": "Point"
      }
    },
    {
      "type": "Feature",
      "properties": {
        "name": "Marang"
      },
      "geometry": {
        "coordinates": [
          103.2059,
          5.2056
        ],
        "type": "Point"
      }
    },
    {
      "type": "Feature",
      "properties": {
        "name": "Tampin"
      },
      "geometry": {
        "coordinates": [
          102.2302,
          2.4701
        ],
        "type": "Point"
      }
    },
    {
      "type": "Feature",
      "properties": {
        "name": "Alor Gajah"
      },
      "geometry": {
        "coordinates": [
          102.2089,
          2.3804
        ],
        "type": "Point"
      }
    },
    {
      "type": "Feature",
      "properties": {
        "name": "Kampung Ayer Keroh"
      },
      "geometry": {
        "coordinates": [
          102.2801,
          2.2654
        ],
        "type": "Point"
      }
    },
    {
      "type": "Feature",
      "properties": {
        "name": "Sungai Udang"
      },
      "geometry": {
        "coordinates": [
          102.1427,
          2.269
        ],
        "type": "Point"
      }
    },
    {
      "type": "Feature",
      "properties": {
        "name": "Malacca"
      },
      "geometry": {
        "coordinates": [
          102.2405,
          2.196
        ],
        "type": "Point"
      }
    },
    {
      "type": "Feature",
      "properties": {
        "name": "Pelabuhan Klang"
      },
      "geometry": {
        "coordinates": [
          101.39287,
          2.99959
        ],
        "type": "Point"
      }
    },
    {
      "type": "Feature",
      "properties": {
        "name": "Banting"
      },
      "geometry": {
        "coordinates": [
          101.50185,
          2.8136
        ],
        "type": "Point"
      }
    },
    {
      "type": "Feature",
      "properties": {
        "name": "Jenjarum"
      },
      "geometry": {
        "coordinates": [
          101.49484,
          2.8724
        ],
        "type": "Point"
      }
    },
    {
      "type": "Feature",
      "properties": {
        "name": "Semenyih"
      },
      "geometry": {
        "coordinates": [
          101.843,
          2.9516
        ],
        "type": "Point"
      }
    },
    {
      "type": "Feature",
      "properties": {
        "name": "Seremban"
      },
      "geometry": {
        "coordinates": [
          101.9381,
          2.7297
        ],
        "type": "Point"
      }
    },
    {
      "type": "Feature",
      "properties": {
        "name": "Port Dickson"
      },
      "geometry": {
        "coordinates": [
          101.80571,
          2.53718
        ],
        "type": "Point"
      }
    },
    {
      "type": "Feature",
      "properties": {
        "name": "Sepang"
      },
      "geometry": {
        "coordinates": [
          101.7498,
          2.6931
        ],
        "type": "Point"
      }
    },
    {
      "type": "Feature",
      "properties": {
        "name": "Bahau"
      },
      "geometry": {
        "coordinates": [
          102.4049,
          2.8079
        ],
        "type": "Point"
      }
    },
    {
      "type": "Feature",
      "properties": {
        "name": "Kuala Pilah"
      },
      "geometry": {
        "coordinates": [
          102.2487,
          2.7389
        ],
        "type": "Point"
      }
    },
    {
      "type": "Feature",
      "properties": {
        "name": "Buloh Kasap"
      },
      "geometry": {
        "coordinates": [
          102.764,
          2.5536
        ],
        "type": "Point"
      }
    },
    {
      "type": "Feature",
      "properties": {
        "name": "Kampung Tekek"
      },
      "geometry": {
        "coordinates": [
          104.1592,
          2.8147
        ],
        "type": "Point"
      }
    },
    {
      "type": "Feature",
      "properties": {
        "name": "Pekan"
      },
      "geometry": {
        "coordinates": [
          103.3996,
          3.4836
        ],
        "type": "Point"
      }
    },
    {
      "type": "Feature",
      "properties": {
        "name": "Mentekab"
      },
      "geometry": {
        "coordinates": [
          102.3484,
          3.4854
        ],
        "type": "Point"
      }
    },
    {
      "type": "Feature",
      "properties": {
        "name": "Temerluh"
      },
      "geometry": {
        "coordinates": [
          102.4176,
          3.4506
        ],
        "type": "Point"
      }
    },
    {
      "type": "Feature",
      "properties": {
        "name": "Batu Feringgi"
      },
      "geometry": {
        "coordinates": [
          100.24529,
          5.4709
        ],
        "type": "Point"
      }
    },
    {
      "type": "Feature",
      "properties": {
        "name": "Butterworth"
      },
      "geometry": {
        "coordinates": [
          100.36382,
          5.3991
        ],
        "type": "Point"
      }
    },
    {
      "type": "Feature",
      "properties": {
        "name": "Perai"
      },
      "geometry": {
        "coordinates": [
          100.38333,
          5.38333
        ],
        "type": "Point"
      }
    },
    {
      "type": "Feature",
      "properties": {
        "name": "Bukit Mertajam"
      },
      "geometry": {
        "coordinates": [
          100.4667,
          5.36301
        ],
        "type": "Point"
      }
    },
    {
      "type": "Feature",
      "properties": {
        "name": "Nibong Tebal"
      },
      "geometry": {
        "coordinates": [
          100.47793,
          5.16586
        ],
        "type": "Point"
      }
    },
    {
      "type": "Feature",
      "properties": {
        "name": "Parit Buntar"
      },
      "geometry": {
        "coordinates": [
          100.49316,
          5.12671
        ],
        "type": "Point"
      }
    },
    {
      "type": "Feature",
      "properties": {
        "name": "Tasek Glugor"
      },
      "geometry": {
        "coordinates": [
          100.49849,
          5.48032
        ],
        "type": "Point"
      }
    },
    {
      "type": "Feature",
      "properties": {
        "name": "George Town"
      },
      "geometry": {
        "coordinates": [
          100.33543,
          5.41123
        ],
        "type": "Point"
      }
    },
    {
      "type": "Feature",
      "properties": {
        "name": "Kampung Bukit Tinggi, Bentong"
      },
      "geometry": {
        "coordinates": [
          101.82631,
          3.34944
        ],
        "type": "Point"
      }
    },
    {
      "type": "Feature",
      "properties": {
        "name": "Serendah"
      },
      "geometry": {
        "coordinates": [
          101.6041,
          3.3646
        ],
        "type": "Point"
      }
    },
    {
      "type": "Feature",
      "properties": {
        "name": "Rawang"
      },
      "geometry": {
        "coordinates": [
          101.5767,
          3.3213
        ],
        "type": "Point"
      }
    },
    {
      "type": "Feature",
      "properties": {
        "name": "Petaling Jaya"
      },
      "geometry": {
        "coordinates": [
          101.60671,
          3.10726
        ],
        "type": "Point"
      }
    },
    {
      "type": "Feature",
      "properties": {
        "name": "Kuala Lumpur"
      },
      "geometry": {
        "coordinates": [
          101.68653,
          3.1412
        ],
        "type": "Point"
      }
    },
    {
      "type": "Feature",
      "properties": {
        "name": "Sabak Bernam"
      },
      "geometry": {
        "coordinates": [
          100.9879,
          3.7698
        ],
        "type": "Point"
      }
    },
    {
      "type": "Feature",
      "properties": {
        "name": "Sungai Besar"
      },
      "geometry": {
        "coordinates": [
          100.9867,
          3.6746
        ],
        "type": "Point"
      }
    },
    {
      "type": "Feature",
      "properties": {
        "name": "Kuantan"
      },
      "geometry": {
        "coordinates": [
          103.326,
          3.8077
        ],
        "type": "Point"
      }
    },
    {
      "type": "Feature",
      "properties": {
        "name": "Tanah Rata"
      },
      "geometry": {
        "coordinates": [
          101.3763,
          4.46361
        ],
        "type": "Point"
      }
    },
    {
      "type": "Feature",
      "properties": {
        "name": "Batu Gajah"
      },
      "geometry": {
        "coordinates": [
          101.04107,
          4.46916
        ],
        "type": "Point"
      }
    },
    {
      "type": "Feature",
      "properties": {
        "name": "Kampar"
      },
      "geometry": {
        "coordinates": [
          101.15,
          4.3
        ],
        "type": "Point"
      }
    },
    {
      "type": "Feature",
      "properties": {
        "name": "Tapah Road"
      },
      "geometry": {
        "coordinates": [
          101.2,
          4.16667
        ],
        "type": "Point"
      }
    },
    {
      "type": "Feature",
      "properties": {
        "name": "Bidur"
      },
      "geometry": {
        "coordinates": [
          101.28333,
          4.11667
        ],
        "type": "Point"
      }
    },
    {
      "type": "Feature",
      "properties": {
        "name": "Lumut"
      },
      "geometry": {
        "coordinates": [
          100.6298,
          4.2323
        ],
        "type": "Point"
      }
    },
    {
      "type": "Feature",
      "properties": {
        "name": "Teluk Intan"
      },
      "geometry": {
        "coordinates": [
          101.02083,
          4.02219
        ],
        "type": "Point"
      }
    },
    {
      "type": "Feature",
      "properties": {
        "name": "Gurun"
      },
      "geometry": {
        "coordinates": [
          100.47381,
          5.81717
        ],
        "type": "Point"
      }
    },
    {
      "type": "Feature",
      "properties": {
        "name": "Sungai Petani"
      },
      "geometry": {
        "coordinates": [
          100.48772,
          5.647
        ],
        "type": "Point"
      }
    },
    {
      "type": "Feature",
      "properties": {
        "name": "Kepala Batas"
      },
      "geometry": {
        "coordinates": [
          100.4265,
          5.51707
        ],
        "type": "Point"
      }
    },
    {
      "type": "Feature",
      "properties": {
        "name": "Ketereh"
      },
      "geometry": {
        "coordinates": [
          102.24817,
          5.95701
        ],
        "type": "Point"
      }
    },
    {
      "type": "Feature",
      "properties": {
        "name": "Pulai Chondong"
      },
      "geometry": {
        "coordinates": [
          102.23177,
          5.87133
        ],
        "type": "Point"
      }
    },
    {
      "type": "Feature",
      "properties": {
        "name": "Tanah Merah"
      },
      "geometry": {
        "coordinates": [
          102.15,
          5.8
        ],
        "type": "Point"
      }
    },
    {
      "type": "Feature",
      "properties": {
        "name": "Kangar"
      },
      "geometry": {
        "coordinates": [
          100.19862,
          6.4414
        ],
        "type": "Point"
      }
    },
    {
      "type": "Feature",
      "properties": {
        "name": "Kuala Perlis"
      },
      "geometry": {
        "coordinates": [
          100.13333,
          6.4
        ],
        "type": "Point"
      }
    },
    {
      "type": "Feature",
      "properties": {
        "name": "Jitra"
      },
      "geometry": {
        "coordinates": [
          100.42167,
          6.26812
        ],
        "type": "Point"
      }
    },
    {
      "type": "Feature",
      "properties": {
        "name": "Kuala Kedah"
      },
      "geometry": {
        "coordinates": [
          100.3,
          6.1
        ],
        "type": "Point"
      }
    },
    {
      "type": "Feature",
      "properties": {
        "name": "Alor Setar"
      },
      "geometry": {
        "coordinates": [
          100.36014,
          6.12104
        ],
        "type": "Point"
      }
    },
    {
      "type": "Feature",
      "properties": {
        "name": "Tumpat"
      },
      "geometry": {
        "coordinates": [
          102.17098,
          6.19775
        ],
        "type": "Point"
      }
    },
    {
      "type": "Feature",
      "properties": {
        "name": "Pasir Mas"
      },
      "geometry": {
        "coordinates": [
          102.13987,
          6.04934
        ],
        "type": "Point"
      }
    },
    {
      "type": "Feature",
      "properties": {
        "name": "Kota Bharu"
      },
      "geometry": {
        "coordinates": [
          102.2386,
          6.13328
        ],
        "type": "Point"
      }
    },
    {
      "type": "Feature",
      "properties": {
        "name": "Kuala Besut"
      },
      "geometry": {
        "coordinates": [
          102.55514,
          5.83303
        ],
        "type": "Point"
      }
    },
    {
      "type": "Feature",
      "properties": {
        "name": "Jertih"
      },
      "geometry": {
        "coordinates": [
          102.4897,
          5.7336
        ],
        "type": "Point"
      }
    },
    {
      "type": "Feature",
      "properties": {
        "name": "Ulu Tiram"
      },
      "geometry": {
        "coordinates": [
          103.81667,
          1.6
        ],
        "type": "Point"
      }
    },
    {
      "type": "Feature",
      "properties": {
        "name": "Telaga Batu"
      },
      "geometry": {
        "coordinates": [
          100.23333,
          5.46667
        ],
        "type": "Point"
      }
    },
    {
      "type": "Feature",
      "properties": {
        "name": "Tanjung Tokong"
      },
      "geometry": {
        "coordinates": [
          100.30742,
          5.46061
        ],
        "type": "Point"
      }
    },
    {
      "type": "Feature",
      "properties": {
        "name": "Tanjung Sepat"
      },
      "geometry": {
        "coordinates": [
          101.5629,
          2.6579
        ],
        "type": "Point"
      }
    },
    {
      "type": "Feature",
      "properties": {
        "name": "Sungai Pelek New Village"
      },
      "geometry": {
        "coordinates": [
          101.7,
          2.65
        ],
        "type": "Point"
      }
    },
    {
      "type": "Feature",
      "properties": {
        "name": "Pulau Sebang"
      },
      "geometry": {
        "coordinates": [
          102.2329,
          2.455
        ],
        "type": "Point"
      }
    },
    {
      "type": "Feature",
      "properties": {
        "name": "Permatang Kuching"
      },
      "geometry": {
        "coordinates": [
          100.38144,
          5.46339
        ],
        "type": "Point"
      }
    },
    {
      "type": "Feature",
      "properties": {
        "name": "Peringat"
      },
      "geometry": {
        "coordinates": [
          102.28333,
          6.03333
        ],
        "type": "Point"
      }
    },
    {
      "type": "Feature",
      "properties": {
        "name": "Ladang Seri Kundang"
      },
      "geometry": {
        "coordinates": [
          101.519,
          3.2856
        ],
        "type": "Point"
      }
    },
    {
      "type": "Feature",
      "properties": {
        "name": "Pantai Remis"
      },
      "geometry": {
        "coordinates": [
          100.6288,
          4.4557
        ],
        "type": "Point"
      }
    },
    {
      "type": "Feature",
      "properties": {
        "name": "Kuang"
      },
      "geometry": {
        "coordinates": [
          101.5541,
          3.2594
        ],
        "type": "Point"
      }
    },
    {
      "type": "Feature",
      "properties": {
        "name": "Kuala Sungai Baru"
      },
      "geometry": {
        "coordinates": [
          102.0353,
          2.3594
        ],
        "type": "Point"
      }
    },
    {
      "type": "Feature",
      "properties": {
        "name": "Klebang Besar"
      },
      "geometry": {
        "coordinates": [
          102.1995,
          2.2186
        ],
        "type": "Point"
      }
    },
    {
      "type": "Feature",
      "properties": {
        "name": "Kelapa Sawit"
      },
      "geometry": {
        "coordinates": [
          103.5327,
          1.6698
        ],
        "type": "Point"
      }
    },
    {
      "type": "Feature",
      "properties": {
        "name": "Kampung Tanjung Karang"
      },
      "geometry": {
        "coordinates": [
          101.1849,
          3.4242
        ],
        "type": "Point"
      }
    },
    {
      "type": "Feature",
      "properties": {
        "name": "Kampung Sungai Ara"
      },
      "geometry": {
        "coordinates": [
          100.27348,
          5.32699
        ],
        "type": "Point"
      }
    },
    {
      "type": "Feature",
      "properties": {
        "name": "Kampung Simpang Renggam"
      },
      "geometry": {
        "coordinates": [
          103.3,
          1.8278
        ],
        "type": "Point"
      }
    },
    {
      "type": "Feature",
      "properties": {
        "name": "Kampong Pangkal Kalong"
      },
      "geometry": {
        "coordinates": [
          102.21667,
          5.91667
        ],
        "type": "Point"
      }
    },
    {
      "type": "Feature",
      "properties": {
        "name": "Kampong Masjid Tanah"
      },
      "geometry": {
        "coordinates": [
          102.11667,
          2.35
        ],
        "type": "Point"
      }
    },
    {
      "type": "Feature",
      "properties": {
        "name": "Kampong Kadok"
      },
      "geometry": {
        "coordinates": [
          102.25,
          6.0
        ],
        "type": "Point"
      }
    },
    {
      "type": "Feature",
      "properties": {
        "name": "Kampong Dungun"
      },
      "geometry": {
        "coordinates": [
          101.31667,
          3.21667
        ],
        "type": "Point"
      }
    },
    {
      "type": "Feature",
      "properties": {
        "name": "Kampung Bukit Baharu"
      },
      "geometry": {
        "coordinates": [
          102.2851,
          2.2152
        ],
        "type": "Point"
      }
    },
    {
      "type": "Feature",
      "properties": {
        "name": "Kampung Batu Feringgi"
      },
      "geometry": {
        "coordinates": [
          100.24449,
          5.46948
        ],
        "type": "Point"
      }
    },
    {
      "type": "Feature",
      "properties": {
        "name": "Kampung Baru Subang"
      },
      "geometry": {
        "coordinates": [
          101.53333,
          3.15
        ],
        "type": "Point"
      }
    },
    {
      "type": "Feature",
      "properties": {
        "name": "Kampung Baharu Nilai"
      },
      "geometry": {
        "coordinates": [
          101.7972,
          2.8033
        ],
        "type": "Point"
      }
    },
    {
      "type": "Feature",
      "properties": {
        "name": "Kampong Baharu Balakong"
      },
      "geometry": {
        "coordinates": [
          101.75,
          3.03333
        ],
        "type": "Point"
      }
    },
    {
      "type": "Feature",
      "properties": {
        "name": "Kampung Ayer Molek"
      },
      "geometry": {
        "coordinates": [
          102.3278,
          2.2139
        ],
        "type": "Point"
      }
    },
    {
      "type": "Feature",
      "properties": {
        "name": "Juru"
      },
      "geometry": {
        "coordinates": [
          100.44229,
          5.31201
        ],
        "type": "Point"
      }
    },
    {
      "type": "Feature",
      "properties": {
        "name": "Bukit Rambai"
      },
      "geometry": {
        "coordinates": [
          102.1838,
          2.2594
        ],
        "type": "Point"
      }
    },
    {
      "type": "Feature",
      "properties": {
        "name": "Bentong Town"
      },
      "geometry": {
        "coordinates": [
          101.90866,
          3.52229
        ],
        "type": "Point"
      }
    },
    {
      "type": "Feature",
      "properties": {
        "name": "Bemban"
      },
      "geometry": {
        "coordinates": [
          102.3746,
          2.2684
        ],
        "type": "Point"
      }
    },
    {
      "type": "Feature",
      "properties": {
        "name": "Batu Berendam"
      },
      "geometry": {
        "coordinates": [
          102.246,
          2.2487
        ],
        "type": "Point"
      }
    },
    {
      "type": "Feature",
      "properties": {
        "name": "Bagan Pulau Ketam"
      },
      "geometry": {
        "coordinates": [
          101.26667,
          3.01667
        ],
        "type": "Point"
      }
    },
    {
      "type": "Feature",
      "properties": {
        "name": "Putrajaya"
      },
      "geometry": {
        "coordinates": [
          101.69112,
          2.93527
        ],
        "type": "Point"
      }
    },
    {
      "type": "Feature",
      "properties": {
        "name": "Kampung Kilim"
      },
      "geometry": {
        "coordinates": [
          99.8502,
          6.4055
        ],
        "type": "Point"
      }
    },
    {
      "type": "Feature",
      "properties": {
        "name": "Kampung Kok"
      },
      "geometry": {
        "coordinates": [
          99.68252,
          6.36759
        ],
        "type": "Point"
      }
    },
    {
      "type": "Feature",
      "properties": {
        "name": "Kuala Teriang"
      },
      "geometry": {
        "coordinates": [
          99.71532,
          6.36377
        ],
        "type": "Point"
      }
    },
    {
      "type": "Feature",
      "properties": {
        "name": "Kampung Kuala Besut"
      },
      "geometry": {
        "coordinates": [
          102.55061,
          5.83297
        ],
        "type": "Point"
      }
    },
    {
      "type": "Feature",
      "properties": {
        "name": "Kampung Lemal"
      },
      "geometry": {
        "coordinates": [
          102.14126,
          6.03021
        ],
        "type": "Point"
      }
    },
    {
      "type": "Feature",
      "properties": {
        "name": "Subang Jaya"
      },
      "geometry": {
        "coordinates": [
          101.58062,
          3.04384
        ],
        "type": "Point"
      }
    },
    {
      "type": "Feature",
      "properties": {
        "name": "Taman Rajawali"
      },
      "geometry": {
        "coordinates": [
          118.04576,
          5.89477
        ],
        "type": "Point"
      }
    },
    {
      "type": "Feature",
      "properties": {
        "name": "Lidung Jelo"
      },
      "geometry": {
        "coordinates": [
          114.78653,
          2.64848
        ],
        "type": "Point"
      }
    },
    {
      "type": "Feature",
      "properties": {
        "name": "Putra Heights"
      },
      "geometry": {
        "coordinates": [
          101.57255,
          2.99361
        ],
        "type": "Point"
      }
    },
    {
      "type": "Feature",
      "properties": {
        "name": "Pantai Cenang"
      },
      "geometry": {
        "coordinates": [
          99.72786,
          6.29369
        ],
        "type": "Point"
      }
    }
  ]
}