{
  "type": "FeatureCollection",
  "features": [
    {
      "type": "Feature",
      "properties": {
        "name": "Zongjia"
      },
      "geometry": {
        "coordinates": [
          96.949,
          36.25154
        ],
        "type": "Point"
      }
    },
    {
      "type": "Feature",
      "properties": {
        "name": "Zongga"
      },
      "geometry": {
        "coordinates": [
          85.25,
          29.0
        ],
        "type": "Point"
      }
    },
    {
      "type": "Feature",
      "properties": {
        "name": "Zito"
      },
      "geometry": {
        "coordinates": [
          95.83613,
          30.73893
        ],
        "type": "Point"
      }
    },
    {
      "type": "Feature",
      "properties": {
        "name": "Zhugkyung"
      },
      "geometry": {
        "coordinates": [
          99.41418,
          37.59776
        ],
        "type": "Point"
      }
    },
    {
      "type": "Feature",
      "properties": {
        "name": "Zhowagoin"
      },
      "geometry": {
        "coordinates": [
          97.45065,
          28.6591
        ],
        "type": "Point"
      }
    },
    {
      "type": "Feature",
      "properties": {
        "name": "Zhoinda"
      },
      "geometry": {
        "coordinates": [
          97.0305,
          33.20002
        ],
        "type": "Point"
      }
    },
    {
      "type": "Feature",
      "properties": {
        "name": "Zhiqu"
      },
      "geometry": {
        "coordinates": [
          95.50335,
          34.30825
        ],
        "type": "Point"
      }
    },
    {
      "type": "Feature",
      "properties": {
        "name": "Zhamog"
      },
      "geometry": {
        "coordinates": [
          95.75903,
          29.86653
        ],
        "type": "Point"
      }
    },
    {
      "type": "Feature",
      "properties": {
        "name": "Zham"
      },
      "geometry": {
        "coordinates": [
          85.98333,
          27.98333
        ],
        "type": "Point"
      }
    },
    {
      "type": "Feature",
      "properties": {
        "name": "Zhadong"
      },
      "geometry": {
        "coordinates": [
          84.16667,
          29.65
        ],
        "type": "Point"
      }
    },
    {
      "type": "Feature",
      "properties": {
        "name": "Xuji"
      },
      "geometry": {
        "coordinates": [
          97.83299,
          37.34913
        ],
        "type": "Point"
      }
    },
    {
      "type": "Feature",
      "properties": {
        "name": "Zaring"
      },
      "geometry": {
        "coordinates": [
          91.70785,
          31.98568
        ],
        "type": "Point"
      }
    },
    {
      "type": "Feature",
      "properties": {
        "name": "Zaqing"
      },
      "geometry": {
        "coordinates": [
          95.16901,
          33.068
        ],
        "type": "Point"
      }
    },
    {
      "type": "Feature",
      "properties": {
        "name": "Zala"
      },
      "geometry": {
        "coordinates": [
          93.60966,
          31.76446
        ],
        "type": "Point"
      }
    },
    {
      "type": "Feature",
      "properties": {
        "name": "Zaindainxoi"
      },
      "geometry": {
        "coordinates": [
          93.66667,
          31.85
        ],
        "type": "Point"
      }
    },
    {
      "type": "Feature",
      "properties": {
        "name": "Yege"
      },
      "geometry": {
        "coordinates": [
          95.34226,
          34.57502
        ],
        "type": "Point"
      }
    },
    {
      "type": "Feature",
      "properties": {
        "name": "Yeyik"
      },
      "geometry": {
        "coordinates": [
          83.23333,
          36.66667
        ],
        "type": "Point"
      }
    },
    {
      "type": "Feature",
      "properties": {
        "name": "Yanduo"
      },
      "geometry": {
        "coordinates": [
          97.5731,
          30.65722
        ],
        "type": "Point"
      }
    },
    {
      "type": "Feature",
      "properties": {
        "name": "Yangkang"
      },
      "geometry": {
        "coordinates": [
          98.75,
          37.68333
        ],
        "type": "Point"
      }
    },
    {
      "type": "Feature",
      "properties": {
        "name": "Ya'ngan"
      },
      "geometry": {
        "coordinates": [
          94.43749,
          31.84372
        ],
        "type": "Point"
      }
    },
    {
      "type": "Feature",
      "properties": {
        "name": "Yanchiwan"
      },
      "geometry": {
        "coordinates": [
          96.11373,
          38.98209
        ],
        "type": "Point"
      }
    },
    {
      "type": "Feature",
      "properties": {
        "name": "Xungmai"
      },
      "geometry": {
        "coordinates": [
          89.01445,
          31.34087
        ],
        "type": "Point"
      }
    },
    {
      "type": "Feature",
      "properties": {
        "name": "Xiwu"
      },
      "geometry": {
        "coordinates": [
          97.34694,
          33.13021
        ],
        "type": "Point"
      }
    },
    {
      "type": "Feature",
      "properties": {
        "name": "Xitieshan"
      },
      "geometry": {
        "coordinates": [
          95.51479,
          37.29721
        ],
        "type": "Point"
      }
    },
    {
      "type": "Feature",
      "properties": {
        "name": "Xireg"
      },
      "geometry": {
        "coordinates": [
          98.44463,
          36.91866
        ],
        "type": "Point"
      }
    },
    {
      "type": "Feature",
      "properties": {
        "name": "Xinyuan"
      },
      "geometry": {
        "coordinates": [
          99.0,
          37.3
        ],
        "type": "Point"
      }
    },
    {
      "type": "Feature",
      "properties": {
        "name": "Rikaze"
      },
      "geometry": {
        "coordinates": [
          88.88333,
          29.25
        ],
        "type": "Point"
      }
    },
    {
      "type": "Feature",
      "properties": {
        "name": "Xiao Surmang"
      },
      "geometry": {
        "coordinates": [
          97.23333,
          32.35
        ],
        "type": "Point"
      }
    },
    {
      "type": "Feature",
      "properties": {
        "name": "Xiangride"
      },
      "geometry": {
        "coordinates": [
          97.88649,
          35.99335
        ],
        "type": "Point"
      }
    },
    {
      "type": "Feature",
      "properties": {
        "name": "Xialaxiu"
      },
      "geometry": {
        "coordinates": [
          96.61051,
          32.6672
        ],
        "type": "Point"
      }
    },
    {
      "type": "Feature",
      "properties": {
        "name": "Xiexiong"
      },
      "geometry": {
        "coordinates": [
          95.62,
          31.41
        ],
        "type": "Point"
      }
    },
    {
      "type": "Feature",
      "properties": {
        "name": "Xinji"
      },
      "geometry": {
        "coordinates": [
          89.83236,
          30.59754
        ],
        "type": "Point"
      }
    },
    {
      "type": "Feature",
      "properties": {
        "name": "Xegar"
      },
      "geometry": {
        "coordinates": [
          87.08333,
          28.63333
        ],
        "type": "Point"
      }
    },
    {
      "type": "Feature",
      "properties": {
        "name": "Xarsingma"
      },
      "geometry": {
        "coordinates": [
          88.95296,
          27.49402
        ],
        "type": "Point"
      }
    },
    {
      "type": "Feature",
      "properties": {
        "name": "Xarag"
      },
      "geometry": {
        "coordinates": [
          98.18333,
          36.4
        ],
        "type": "Point"
      }
    },
    {
      "type": "Feature",
      "properties": {
        "name": "Xangda"
      },
      "geometry": {
        "coordinates": [
          96.47809,
          32.20551
        ],
        "type": "Point"
      }
    },
    {
      "type": "Feature",
      "properties": {
        "name": "Waxxari"
      },
      "geometry": {
        "coordinates": [
          87.31667,
          38.7
        ],
        "type": "Point"
      }
    },
    {
      "type": "Feature",
      "properties": {
        "name": "Wangdain"
      },
      "geometry": {
        "coordinates": [
          89.15356,
          28.86684
        ],
        "type": "Point"
      }
    },
    {
      "type": "Feature",
      "properties": {
        "name": "Wangda"
      },
      "geometry": {
        "coordinates": [
          97.83736,
          29.67445
        ],
        "type": "Point"
      }
    },
    {
      "type": "Feature",
      "properties": {
        "name": "Tunggar"
      },
      "geometry": {
        "coordinates": [
          93.19239,
          29.0088
        ],
        "type": "Point"
      }
    },
    {
      "type": "Feature",
      "properties": {
        "name": "Tungdor"
      },
      "geometry": {
        "coordinates": [
          94.08333,
          29.2
        ],
        "type": "Point"
      }
    },
    {
      "type": "Feature",
      "properties": {
        "name": "Tomorlog"
      },
      "geometry": {
        "coordinates": [
          90.31196,
          38.25555
        ],
        "type": "Point"
      }
    },
    {
      "type": "Feature",
      "properties": {
        "name": "Tatrang"
      },
      "geometry": {
        "coordinates": [
          85.63333,
          38.46667
        ],
        "type": "Point"
      }
    },
    {
      "type": "Feature",
      "properties": {
        "name": "Shibaocheng"
      },
      "geometry": {
        "coordinates": [
          96.06667,
          39.8
        ],
        "type": "Point"
      }
    },
    {
      "type": "Feature",
      "properties": {
        "name": "Shanglaxiu"
      },
      "geometry": {
        "coordinates": [
          96.58426,
          32.85399
        ],
        "type": "Point"
      }
    },
    {
      "type": "Feature",
      "properties": {
        "name": "Segong"
      },
      "geometry": {
        "coordinates": [
          92.11667,
          32.21667
        ],
        "type": "Point"
      }
    },
    {
      "type": "Feature",
      "properties": {
        "name": "Serh"
      },
      "geometry": {
        "coordinates": [
          98.37463,
          36.94895
        ],
        "type": "Point"
      }
    },
    {
      "type": "Feature",
      "properties": {
        "name": "Samada"
      },
      "geometry": {
        "coordinates": [
          89.55545,
          28.40407
        ],
        "type": "Point"
      }
    },
    {
      "type": "Feature",
      "properties": {
        "name": "Sajia"
      },
      "geometry": {
        "coordinates": [
          88.05,
          28.91667
        ],
        "type": "Point"
      }
    },
    {
      "type": "Feature",
      "properties": {
        "name": "Shading"
      },
      "geometry": {
        "coordinates": [
          94.49558,
          31.25887
        ],
        "type": "Point"
      }
    },
    {
      "type": "Feature",
      "properties": {
        "name": "Ruoqiang"
      },
      "geometry": {
        "coordinates": [
          88.16465,
          39.02003
        ],
        "type": "Point"
      }
    },
    {
      "type": "Feature",
      "properties": {
        "name": "Rongbo"
      },
      "geometry": {
        "coordinates": [
          94.63278,
          31.55707
        ],
        "type": "Point"
      }
    },
    {
      "type": "Feature",
      "properties": {
        "name": "Rendui"
      },
      "geometry": {
        "coordinates": [
          89.10471,
          30.07346
        ],
        "type": "Point"
      }
    },
    {
      "type": "Feature",
      "properties": {
        "name": "Rinbung"
      },
      "geometry": {
        "coordinates": [
          89.80928,
          29.26733
        ],
        "type": "Point"
      }
    },
    {
      "type": "Feature",
      "properties": {
        "name": "Reshui"
      },
      "geometry": {
        "coordinates": [
          98.16877,
          36.22036
        ],
        "type": "Point"
      }
    },
    {
      "type": "Feature",
      "properties": {
        "name": "Reyu"
      },
      "geometry": {
        "coordinates": [
          95.13349,
          31.15956
        ],
        "type": "Point"
      }
    },
    {
      "type": "Feature",
      "properties": {
        "name": "Ramba"
      },
      "geometry": {
        "coordinates": [
          90.12772,
          29.13178
        ],
        "type": "Point"
      }
    },
    {
      "type": "Feature",
      "properties": {
        "name": "Racaka"
      },
      "geometry": {
        "coordinates": [
          96.51667,
          31.4
        ],
        "type": "Point"
      }
    },
    {
      "type": "Feature",
      "properties": {
        "name": "Quxar"
      },
      "geometry": {
        "coordinates": [
          87.65,
          29.1
        ],
        "type": "Point"
      }
    },
    {
      "type": "Feature",
      "properties": {
        "name": "Qingshuihe"
      },
      "geometry": {
        "coordinates": [
          97.13627,
          33.80385
        ],
        "type": "Point"
      }
    },
    {
      "type": "Feature",
      "properties": {
        "name": "Qinglung"
      },
      "geometry": {
        "coordinates": [
          90.66613,
          31.16164
        ],
        "type": "Point"
      }
    },
    {
      "type": "Feature",
      "properties": {
        "name": "Qilanbulak"
      },
      "geometry": {
        "coordinates": [
          90.15696,
          38.386
        ],
        "type": "Point"
      }
    },
    {
      "type": "Feature",
      "properties": {
        "name": "Qigzhi"
      },
      "geometry": {
        "coordinates": [
          95.65833,
          34.56839
        ],
        "type": "Point"
      }
    },
    {
      "type": "Feature",
      "properties": {
        "name": "Qiemo"
      },
      "geometry": {
        "coordinates": [
          85.52977,
          38.13407
        ],
        "type": "Point"
      }
    },
    {
      "type": "Feature",
      "properties": {
        "name": "Qiangqinxue"
      },
      "geometry": {
        "coordinates": [
          89.9,
          29.26667
        ],
        "type": "Point"
      }
    },
    {
      "type": "Feature",
      "properties": {
        "name": "Qamdo"
      },
      "geometry": {
        "coordinates": [
          97.17982,
          31.1304
        ],
        "type": "Point"
      }
    },
    {
      "type": "Feature",
      "properties": {
        "name": "Jiajuedibu"
      },
      "geometry": {
        "coordinates": [
          88.63333,
          30.93333
        ],
        "type": "Point"
      }
    },
    {
      "type": "Feature",
      "properties": {
        "name": "Qiaze"
      },
      "geometry": {
        "coordinates": [
          93.17429,
          31.70892
        ],
        "type": "Point"
      }
    },
    {
      "type": "Feature",
      "properties": {
        "name": "Qagan Us"
      },
      "geometry": {
        "coordinates": [
          98.01222,
          36.39719
        ],
        "type": "Point"
      }
    },
    {
      "type": "Feature",
      "properties": {
        "name": "Puqu"
      },
      "geometry": {
        "coordinates": [
          94.41726,
          29.4697
        ],
        "type": "Point"
      }
    },
    {
      "type": "Feature",
      "properties": {
        "name": "Pubu"
      },
      "geometry": {
        "coordinates": [
          90.00958,
          31.39625
        ],
        "type": "Point"
      }
    },
    {
      "type": "Feature",
      "properties": {
        "name": "Paingar"
      },
      "geometry": {
        "coordinates": [
          94.03543,
          31.19793
        ],
        "type": "Point"
      }
    },
    {
      "type": "Feature",
      "properties": {
        "name": "Pagri"
      },
      "geometry": {
        "coordinates": [
          89.16667,
          27.75
        ],
        "type": "Point"
      }
    },
    {
      "type": "Feature",
      "properties": {
        "name": "Pagnag"
      },
      "geometry": {
        "coordinates": [
          91.68101,
          32.26986
        ],
        "type": "Point"
      }
    },
    {
      "type": "Feature",
      "properties": {
        "name": "Nyima"
      },
      "geometry": {
        "coordinates": [
          92.25355,
          31.75928
        ],
        "type": "Point"
      }
    },
    {
      "type": "Feature",
      "properties": {
        "name": "Nyima"
      },
      "geometry": {
        "coordinates": [
          92.7324,
          31.54353
        ],
        "type": "Point"
      }
    },
    {
      "type": "Feature",
      "properties": {
        "name": "Nieru"
      },
      "geometry": {
        "coordinates": [
          89.85041,
          28.52517
        ],
        "type": "Point"
      }
    },
    {
      "type": "Feature",
      "properties": {
        "name": "Nyagla"
      },
      "geometry": {
        "coordinates": [
          96.84065,
          32.04136
        ],
        "type": "Point"
      }
    },
    {
      "type": "Feature",
      "properties": {
        "name": "Luobuqiongzi"
      },
      "geometry": {
        "coordinates": [
          89.25,
          29.16667
        ],
        "type": "Point"
      }
    },
    {
      "type": "Feature",
      "properties": {
        "name": "Nomhon"
      },
      "geometry": {
        "coordinates": [
          96.40821,
          36.37056
        ],
        "type": "Point"
      }
    },
    {
      "type": "Feature",
      "properties": {
        "name": "Ngamring"
      },
      "geometry": {
        "coordinates": [
          87.16667,
          29.23333
        ],
        "type": "Point"
      }
    },
    {
      "type": "Feature",
      "properties": {
        "name": "Nangxian"
      },
      "geometry": {
        "coordinates": [
          93.08795,
          29.04701
        ],
        "type": "Point"
      }
    },
    {
      "type": "Feature",
      "properties": {
        "name": "Namsai"
      },
      "geometry": {
        "coordinates": [
          95.61479,
          32.78552
        ],
        "type": "Point"
      }
    },
    {
      "type": "Feature",
      "properties": {
        "name": "Namling"
      },
      "geometry": {
        "coordinates": [
          89.09556,
          29.68527
        ],
        "type": "Point"
      }
    },
    {
      "type": "Feature",
      "properties": {
        "name": "Nailung"
      },
      "geometry": {
        "coordinates": [
          93.86873,
          29.1141
        ],
        "type": "Point"
      }
    },
    {
      "type": "Feature",
      "properties": {
        "name": "Nagqu"
      },
      "geometry": {
        "coordinates": [
          92.05729,
          31.47678
        ],
        "type": "Point"
      }
    },
    {
      "type": "Feature",
      "properties": {
        "name": "Muri"
      },
      "geometry": {
        "coordinates": [
          99.06667,
          38.13333
        ],
        "type": "Point"
      }
    },
    {
      "type": "Feature",
      "properties": {
        "name": "Mozhong"
      },
      "geometry": {
        "coordinates": [
          96.82032,
          32.26974
        ],
        "type": "Point"
      }
    },
    {
      "type": "Feature",
      "properties": {
        "name": "Niya"
      },
      "geometry": {
        "coordinates": [
          82.68933,
          37.06553
        ],
        "type": "Point"
      }
    },
    {
      "type": "Feature",
      "properties": {
        "name": "Motuo"
      },
      "geometry": {
        "coordinates": [
          95.30741,
          29.31329
        ],
        "type": "Point"
      }
    },
    {
      "type": "Feature",
      "properties": {
        "name": "Maindong"
      },
      "geometry": {
        "coordinates": [
          85.41667,
          31.33333
        ],
        "type": "Point"
      }
    },
    {
      "type": "Feature",
      "properties": {
        "name": "Madoi"
      },
      "geometry": {
        "coordinates": [
          96.37157,
          35.02494
        ],
        "type": "Point"
      }
    },
    {
      "type": "Feature",
      "properties": {
        "name": "Machali"
      },
      "geometry": {
        "coordinates": [
          98.23333,
          34.93333
        ],
        "type": "Point"
      }
    },
    {
      "type": "Feature",
      "properties": {
        "name": "Lungmar"
      },
      "geometry": {
        "coordinates": [
          89.94036,
          28.85816
        ],
        "type": "Point"
      }
    },
    {
      "type": "Feature",
      "properties": {
        "name": "Lunang"
      },
      "geometry": {
        "coordinates": [
          94.72614,
          29.73349
        ],
        "type": "Point"
      }
    },
    {
      "type": "Feature",
      "properties": {
        "name": "Luring"
      },
      "geometry": {
        "coordinates": [
          84.2,
          32.26667
        ],
        "type": "Point"
      }
    },
    {
      "type": "Feature",
      "properties": {
        "name": "Lingti"
      },
      "geometry": {
        "coordinates": [
          92.5753,
          30.95818
        ],
        "type": "Point"
      }
    },
    {
      "type": "Feature",
      "properties": {
        "name": "Lhasa"
      },
      "geometry": {
        "coordinates": [
          91.1,
          29.65
        ],
        "type": "Point"
      }
    },
    {
      "type": "Feature",
      "properties": {
        "name": "Lhari"
      },
      "geometry": {
        "coordinates": [
          93.33754,
          30.7436
        ],
        "type": "Point"
      }
    },
    {
      "type": "Feature",
      "properties": {
        "name": "Lenghu"
      },
      "geometry": {
        "coordinates": [
          93.33199,
          38.73741
        ],
        "type": "Point"
      }
    },
    {
      "type": "Feature",
      "properties": {
        "name": "Lab"
      },
      "geometry": {
        "coordinates": [
          97.14169,
          33.27168
        ],
        "type": "Point"
      }
    },
    {
      "type": "Feature",
      "properties": {
        "name": "Kugri"
      },
      "geometry": {
        "coordinates": [
          98.40986,
          35.65924
        ],
        "type": "Point"
      }
    },
    {
      "type": "Feature",
      "properties": {
        "name": "Kormang"
      },
      "geometry": {
        "coordinates": [
          92.42577,
          31.69834
        ],
        "type": "Point"
      }
    },
    {
      "type": "Feature",
      "properties": {
        "name": "Koramlik"
      },
      "geometry": {
        "coordinates": [
          85.86667,
          37.4
        ],
        "type": "Point"
      }
    },
    {
      "type": "Feature",
      "properties": {
        "name": "Karmar"
      },
      "geometry": {
        "coordinates": [
          98.83611,
          37.3625
        ],
        "type": "Point"
      }
    },
    {
      "type": "Feature",
      "properties": {
        "name": "Karmai"
      },
      "geometry": {
        "coordinates": [
          89.4955,
          29.13517
        ],
        "type": "Point"
      }
    },
    {
      "type": "Feature",
      "properties": {
        "name": "Kardoi"
      },
      "geometry": {
        "coordinates": [
          89.57375,
          29.1233
        ],
        "type": "Point"
      }
    },
    {
      "type": "Feature",
      "properties": {
        "name": "Kangxung"
      },
      "geometry": {
        "coordinates": [
          90.08237,
          29.29059
        ],
        "type": "Point"
      }
    },
    {
      "type": "Feature",
      "properties": {
        "name": "Kangmar"
      },
      "geometry": {
        "coordinates": [
          89.68009,
          28.55953
        ],
        "type": "Point"
      }
    },
    {
      "type": "Feature",
      "properties": {
        "name": "Kamru"
      },
      "geometry": {
        "coordinates": [
          89.48815,
          28.62235
        ],
        "type": "Point"
      }
    },
    {
      "type": "Feature",
      "properties": {
        "name": "Tongpu"
      },
      "geometry": {
        "coordinates": [
          98.5,
          36.98333
        ],
        "type": "Point"
      }
    },
    {
      "type": "Feature",
      "properties": {
        "name": "Zongwulong"
      },
      "geometry": {
        "coordinates": [
          97.34973,
          37.38458
        ],
        "type": "Point"
      }
    },
    {
      "type": "Feature",
      "properties": {
        "name": "Jomda"
      },
      "geometry": {
        "coordinates": [
          98.21171,
          31.4962
        ],
        "type": "Point"
      }
    },
    {
      "type": "Feature",
      "properties": {
        "name": "Jiqu"
      },
      "geometry": {
        "coordinates": [
          96.11667,
          31.95
        ],
        "type": "Point"
      }
    },
    {
      "type": "Feature",
      "properties": {
        "name": "Jinisai"
      },
      "geometry": {
        "coordinates": [
          96.00249,
          32.06651
        ],
        "type": "Point"
      }
    },
    {
      "type": "Feature",
      "properties": {
        "name": "Jangdam"
      },
      "geometry": {
        "coordinates": [
          89.24618,
          29.33801
        ],
        "type": "Point"
      }
    },
    {
      "type": "Feature",
      "properties": {
        "name": "Jamda"
      },
      "geometry": {
        "coordinates": [
          94.38641,
          31.483
        ],
        "type": "Point"
      }
    },
    {
      "type": "Feature",
      "properties": {
        "name": "Huashixia"
      },
      "geometry": {
        "coordinates": [
          98.8,
          35.11667
        ],
        "type": "Point"
      }
    },
    {
      "type": "Feature",
      "properties": {
        "name": "Huanghe"
      },
      "geometry": {
        "coordinates": [
          98.31667,
          34.56667
        ],
        "type": "Point"
      }
    },
    {
      "type": "Feature",
      "properties": {
        "name": "Gasi"
      },
      "geometry": {
        "coordinates": [
          90.90514,
          38.1461
        ],
        "type": "Point"
      }
    },
    {
      "type": "Feature",
      "properties": {
        "name": "Hoit Taria"
      },
      "geometry": {
        "coordinates": [
          96.74974,
          37.35155
        ],
        "type": "Point"
      }
    },
    {
      "type": "Feature",
      "properties": {
        "name": "Gyobrag"
      },
      "geometry": {
        "coordinates": [
          96.15508,
          32.56717
        ],
        "type": "Point"
      }
    },
    {
      "type": "Feature",
      "properties": {
        "name": "Gyigang"
      },
      "geometry": {
        "coordinates": [
          97.51667,
          28.66667
        ],
        "type": "Point"
      }
    },
    {
      "type": "Feature",
      "properties": {
        "name": "Jindong"
      },
      "geometry": {
        "coordinates": [
          93.38259,
          28.9705
        ],
        "type": "Point"
      }
    },
    {
      "type": "Feature",
      "properties": {
        "name": "Jiangzi"
      },
      "geometry": {
        "coordinates": [
          89.59956,
          28.92026
        ],
        "type": "Point"
      }
    },
    {
      "type": "Feature",
      "properties": {
        "name": "Gyangkar"
      },
      "geometry": {
        "coordinates": [
          87.8,
          28.4
        ],
        "type": "Point"
      }
    },
    {
      "type": "Feature",
      "properties": {
        "name": "Gyamotang"
      },
      "geometry": {
        "coordinates": [
          95.43333,
          31.53333
        ],
        "type": "Point"
      }
    },
    {
      "type": "Feature",
      "properties": {
        "name": "Gyamco"
      },
      "geometry": {
        "coordinates": [
          89.18635,
          29.84665
        ],
        "type": "Point"
      }
    },
    {
      "type": "Feature",
      "properties": {
        "name": "Gyairong"
      },
      "geometry": {
        "coordinates": [
          96.42214,
          33.27016
        ],
        "type": "Point"
      }
    },
    {
      "type": "Feature",
      "properties": {
        "name": "Golug"
      },
      "geometry": {
        "coordinates": [
          91.6206,
          30.82956
        ],
        "type": "Point"
      }
    },
    {
      "type": "Feature",
      "properties": {
        "name": "Golmud"
      },
      "geometry": {
        "coordinates": [
          94.90061,
          36.40672
        ],
        "type": "Point"
      }
    },
    {
      "type": "Feature",
      "properties": {
        "name": "Jiding"
      },
      "geometry": {
        "coordinates": [
          88.25,
          29.36667
        ],
        "type": "Point"
      }
    },
    {
      "type": "Feature",
      "properties": {
        "name": "Gaxung"
      },
      "geometry": {
        "coordinates": [
          95.65691,
          32.06672
        ],
        "type": "Point"
      }
    },
    {
      "type": "Feature",
      "properties": {
        "name": "Gartog"
      },
      "geometry": {
        "coordinates": [
          98.59473,
          29.68451
        ],
        "type": "Point"
      }
    },
    {
      "type": "Feature",
      "properties": {
        "name": "Kambaxoi"
      },
      "geometry": {
        "coordinates": [
          88.53333,
          28.3
        ],
        "type": "Point"
      }
    },
    {
      "type": "Feature",
      "properties": {
        "name": "Gala"
      },
      "geometry": {
        "coordinates": [
          89.38187,
          28.26311
        ],
        "type": "Point"
      }
    },
    {
      "type": "Feature",
      "properties": {
        "name": "Gahe"
      },
      "geometry": {
        "coordinates": [
          97.63333,
          38.8
        ],
        "type": "Point"
      }
    },
    {
      "type": "Feature",
      "properties": {
        "name": "Gadong"
      },
      "geometry": {
        "coordinates": [
          89.17835,
          29.21273
        ],
        "type": "Point"
      }
    },
    {
      "type": "Feature",
      "properties": {
        "name": "Dongxi"
      },
      "geometry": {
        "coordinates": [
          89.11988,
          28.64921
        ],
        "type": "Point"
      }
    },
    {
      "type": "Feature",
      "properties": {
        "name": "Domba"
      },
      "geometry": {
        "coordinates": [
          95.58464,
          32.31121
        ],
        "type": "Point"
      }
    },
    {
      "type": "Feature",
      "properties": {
        "name": "Domartang"
      },
      "geometry": {
        "coordinates": [
          94.68908,
          30.93902
        ],
        "type": "Point"
      }
    },
    {
      "type": "Feature",
      "properties": {
        "name": "Duocai"
      },
      "geometry": {
        "coordinates": [
          95.42127,
          33.81034
        ],
        "type": "Point"
      }
    },
    {
      "type": "Feature",
      "properties": {
        "name": "Dobjoi"
      },
      "geometry": {
        "coordinates": [
          89.06054,
          29.53331
        ],
        "type": "Point"
      }
    },
    {
      "type": "Feature",
      "properties": {
        "name": "Deqing"
      },
      "geometry": {
        "coordinates": [
          90.12572,
          30.52803
        ],
        "type": "Point"
      }
    },
    {
      "type": "Feature",
      "properties": {
        "name": "Deqen"
      },
      "geometry": {
        "coordinates": [
          90.71875,
          29.96178
        ],
        "type": "Point"
      }
    },
    {
      "type": "Feature",
      "properties": {
        "name": "Delingha"
      },
      "geometry": {
        "coordinates": [
          97.37457,
          37.376
        ],
        "type": "Point"
      }
    },
    {
      "type": "Feature",
      "properties": {
        "name": "Dartang"
      },
      "geometry": {
        "coordinates": [
          94.0,
          31.93333
        ],
        "type": "Point"
      }
    },
    {
      "type": "Feature",
      "properties": {
        "name": "Daqian"
      },
      "geometry": {
        "coordinates": [
          92.75183,
          31.74697
        ],
        "type": "Point"
      }
    },
    {
      "type": "Feature",
      "properties": {
        "name": "Da Qaidam"
      },
      "geometry": {
        "coordinates": [
          95.3,
          37.83333
        ],
        "type": "Point"
      }
    },
    {
      "type": "Feature",
      "properties": {
        "name": "Dangchengwan"
      },
      "geometry": {
        "coordinates": [
          95.04081,
          39.50011
        ],
        "type": "Point"
      }
    },
    {
      "type": "Feature",
      "properties": {
        "name": "Dagur"
      },
      "geometry": {
        "coordinates": [
          95.73333,
          36.41667
        ],
        "type": "Point"
      }
    },
    {
      "type": "Feature",
      "properties": {
        "name": "Chongdui"
      },
      "geometry": {
        "coordinates": [
          85.96667,
          28.15
        ],
        "type": "Point"
      }
    },
    {
      "type": "Feature",
      "properties": {
        "name": "Coka"
      },
      "geometry": {
        "coordinates": [
          94.6695,
          30.9054
        ],
        "type": "Point"
      }
    },
    {
      "type": "Feature",
      "properties": {
        "name": "Codoi"
      },
      "geometry": {
        "coordinates": [
          92.42228,
          30.48059
        ],
        "type": "Point"
      }
    },
    {
      "type": "Feature",
      "properties": {
        "name": "Baoji"
      },
      "geometry": {
        "coordinates": [
          90.18183,
          30.99411
        ],
        "type": "Point"
      }
    },
    {
      "type": "Feature",
      "properties": {
        "name": "Molo"
      },
      "geometry": {
        "coordinates": [
          98.27297,
          30.86004
        ],
        "type": "Point"
      }
    },
    {
      "type": "Feature",
      "properties": {
        "name": "Qiezha"
      },
      "geometry": {
        "coordinates": [
          96.51447,
          32.07512
        ],
        "type": "Point"
      }
    },
    {
      "type": "Feature",
      "properties": {
        "name": "Baiba"
      },
      "geometry": {
        "coordinates": [
          93.85241,
          29.79923
        ],
        "type": "Point"
      }
    },
    {
      "type": "Feature",
      "properties": {
        "name": "Bayi"
      },
      "geometry": {
        "coordinates": [
          94.35892,
          29.65812
        ],
        "type": "Point"
      }
    },
    {
      "type": "Feature",
      "properties": {
        "name": "Barun"
      },
      "geometry": {
        "coordinates": [
          97.41575,
          35.92907
        ],
        "type": "Point"
      }
    },
    {
      "type": "Feature",
      "properties": {
        "name": "Banbar"
      },
      "geometry": {
        "coordinates": [
          94.83675,
          30.83198
        ],
        "type": "Point"
      }
    },
    {
      "type": "Feature",
      "properties": {
        "name": "Baitang"
      },
      "geometry": {
        "coordinates": [
          97.15459,
          32.82427
        ],
        "type": "Point"
      }
    },
    {
      "type": "Feature",
      "properties": {
        "name": "Baima"
      },
      "geometry": {
        "coordinates": [
          96.91852,
          30.05752
        ],
        "type": "Point"
      }
    },
    {
      "type": "Feature",
      "properties": {
        "name": "Bagan"
      },
      "geometry": {
        "coordinates": [
          96.52141,
          33.89783
        ],
        "type": "Point"
      }
    },
    {
      "type": "Feature",
      "properties": {
        "name": "Arza"
      },
      "geometry": {
        "coordinates": [
          93.24297,
          30.64536
        ],
        "type": "Point"
      }
    },
    {
      "type": "Feature",
      "properties": {
        "name": "Aqqan"
      },
      "geometry": {
        "coordinates": [
          85.5,
          37.3
        ],
        "type": "Point"
      }
    },
    {
      "type": "Feature",
      "properties": {
        "name": "Rokiya"
      },
      "geometry": {
        "coordinates": [
          82.81528,
          37.07861
        ],
        "type": "Point"
      }
    },
    {
      "type": "Feature",
      "properties": {
        "name": "Yuli"
      },
      "geometry": {
        "coordinates": [
          86.25675,
          41.33662
        ],
        "type": "Point"
      }
    },
    {
      "type": "Feature",
      "properties": {
        "name": "Yuanquan"
      },
      "geometry": {
        "coordinates": [
          95.8,
          40.5
        ],
        "type": "Point"
      }
    },
    {
      "type": "Feature",
      "properties": {
        "name": "Yiwu"
      },
      "geometry": {
        "coordinates": [
          94.6943,
          43.24918
        ],
        "type": "Point"
      }
    },
    {
      "type": "Feature",
      "properties": {
        "name": "Yanqi"
      },
      "geometry": {
        "coordinates": [
          86.56632,
          42.06204
        ],
        "type": "Point"
      }
    },
    {
      "type": "Feature",
      "properties": {
        "name": "Yangjiaqiao"
      },
      "geometry": {
        "coordinates": [
          94.66383,
          40.12607
        ],
        "type": "Point"
      }
    },
    {
      "type": "Feature",
      "properties": {
        "name": "Xirikxiy"
      },
      "geometry": {
        "coordinates": [
          88.01785,
          47.35574
        ],
        "type": "Point"
      }
    },
    {
      "type": "Feature",
      "properties": {
        "name": "Xihu"
      },
      "geometry": {
        "coordinates": [
          94.99059,
          40.5385
        ],
        "type": "Point"
      }
    },
    {
      "type": "Feature",
      "properties": {
        "name": "Xidi"
      },
      "geometry": {
        "coordinates": [
          89.73856,
          44.06593
        ],
        "type": "Point"
      }
    },
    {
      "type": "Feature",
      "properties": {
        "name": "Xiaoguai"
      },
      "geometry": {
        "coordinates": [
          85.04457,
          45.1285
        ],
        "type": "Point"
      }
    },
    {
      "type": "Feature",
      "properties": {
        "name": "Xemirxek"
      },
      "geometry": {
        "coordinates": [
          87.9663,
          47.79623
        ],
        "type": "Point"
      }
    },
    {
      "type": "Feature",
      "properties": {
        "name": "Xazgat"
      },
      "geometry": {
        "coordinates": [
          86.23456,
          46.3434
        ],
        "type": "Point"
      }
    },
    {
      "type": "Feature",
      "properties": {
        "name": "Xayar"
      },
      "geometry": {
        "coordinates": [
          82.80583,
          41.23
        ],
        "type": "Point"
      }
    },
    {
      "type": "Feature",
      "properties": {
        "name": "Wujiaqu"
      },
      "geometry": {
        "coordinates": [
          87.53497,
          44.16963
        ],
        "type": "Point"
      }
    },
    {
      "type": "Feature",
      "properties": {
        "name": "Wudun"
      },
      "geometry": {
        "coordinates": [
          94.80535,
          40.16951
        ],
        "type": "Point"
      }
    },
    {
      "type": "Feature",
      "properties": {
        "name": "Usu"
      },
      "geometry": {
        "coordinates": [
          84.67623,
          44.43105
        ],
        "type": "Point"
      }
    },
    {
      "type": "Feature",
      "properties": {
        "name": "UEruemqi"
      },
      "geometry": {
        "coordinates": [
          87.60046,
          43.80096
        ],
        "type": "Point"
      }
    },
    {
      "type": "Feature",
      "properties": {
        "name": "Urho"
      },
      "geometry": {
        "coordinates": [
          85.67769,
          46.11651
        ],
        "type": "Point"
      }
    },
    {
      "type": "Feature",
      "properties": {
        "name": "Turpan"
      },
      "geometry": {
        "coordinates": [
          89.17886,
          42.94769
        ],
        "type": "Point"
      }
    },
    {
      "type": "Feature",
      "properties": {
        "name": "Tost"
      },
      "geometry": {
        "coordinates": [
          86.12794,
          47.27428
        ],
        "type": "Point"
      }
    },
    {
      "type": "Feature",
      "properties": {
        "name": "Toli"
      },
      "geometry": {
        "coordinates": [
          83.60056,
          45.93859
        ],
        "type": "Point"
      }
    },
    {
      "type": "Feature",
      "properties": {
        "name": "Toksun"
      },
      "geometry": {
        "coordinates": [
          88.64163,
          42.79359
        ],
        "type": "Point"
      }
    },
    {
      "type": "Feature",
      "properties": {
        "name": "Todok"
      },
      "geometry": {
        "coordinates": [
          83.57278,
          44.54537
        ],
        "type": "Point"
      }
    },
    {
      "type": "Feature",
      "properties": {
        "name": "Tiechanggou"
      },
      "geometry": {
        "coordinates": [
          84.42834,
          46.16669
        ],
        "type": "Point"
      }
    },
    {
      "type": "Feature",
      "properties": {
        "name": "Temeke"
      },
      "geometry": {
        "coordinates": [
          89.74276,
          47.22244
        ],
        "type": "Point"
      }
    },
    {
      "type": "Feature",
      "properties": {
        "name": "Tashi"
      },
      "geometry": {
        "coordinates": [
          95.98021,
          40.26261
        ],
        "type": "Point"
      }
    },
    {
      "type": "Feature",
      "properties": {
        "name": "Tacheng"
      },
      "geometry": {
        "coordinates": [
          82.95847,
          46.74535
        ],
        "type": "Point"
      }
    },
    {
      "type": "Feature",
      "properties": {
        "name": "Sikeshu"
      },
      "geometry": {
        "coordinates": [
          84.226,
          44.37313
        ],
        "type": "Point"
      }
    },
    {
      "type": "Feature",
      "properties": {
        "name": "Shihezi"
      },
      "geometry": {
        "coordinates": [
          86.03694,
          44.3023
        ],
        "type": "Point"
      }
    },
    {
      "type": "Feature",
      "properties": {
        "name": "Shanshan"
      },
      "geometry": {
        "coordinates": [
          90.20463,
          42.8675
        ],
        "type": "Point"
      }
    },
    {
      "type": "Feature",
      "properties": {
        "name": "Santai"
      },
      "geometry": {
        "coordinates": [
          88.88887,
          44.08958
        ],
        "type": "Point"
      }
    },
    {
      "type": "Feature",
      "properties": {
        "name": "Sandaohezi"
      },
      "geometry": {
        "coordinates": [
          85.62009,
          44.32597
        ],
        "type": "Point"
      }
    },
    {
      "type": "Feature",
      "properties": {
        "name": "Qitai"
      },
      "geometry": {
        "coordinates": [
          89.5798,
          44.02788
        ],
        "type": "Point"
      }
    },
    {
      "type": "Feature",
      "properties": {
        "name": "Qinghe"
      },
      "geometry": {
        "coordinates": [
          90.37864,
          46.66725
        ],
        "type": "Point"
      }
    },
    {
      "type": "Feature",
      "properties": {
        "name": "Qiman"
      },
      "geometry": {
        "coordinates": [
          82.91139,
          41.53778
        ],
        "type": "Point"
      }
    },
    {
      "type": "Feature",
      "properties": {
        "name": "Qili"
      },
      "geometry": {
        "coordinates": [
          94.60882,
          40.11512
        ],
        "type": "Point"
      }
    },
    {
      "type": "Feature",
      "properties": {
        "name": "Qahurt"
      },
      "geometry": {
        "coordinates": [
          89.59236,
          46.33379
        ],
        "type": "Point"
      }
    },
    {
      "type": "Feature",
      "properties": {
        "name": "Qagan Gol"
      },
      "geometry": {
        "coordinates": [
          90.74567,
          46.47974
        ],
        "type": "Point"
      }
    },
    {
      "type": "Feature",
      "properties": {
        "name": "Mori"
      },
      "geometry": {
        "coordinates": [
          90.19476,
          43.82442
        ],
        "type": "Point"
      }
    },
    {
      "type": "Feature",
      "properties": {
        "name": "Miao'ergou"
      },
      "geometry": {
        "coordinates": [
          83.86374,
          45.51637
        ],
        "type": "Point"
      }
    },
    {
      "type": "Feature",
      "properties": {
        "name": "Mengjiaqiao"
      },
      "geometry": {
        "coordinates": [
          94.61574,
          40.18078
        ],
        "type": "Point"
      }
    },
    {
      "type": "Feature",
      "properties": {
        "name": "Manasi"
      },
      "geometry": {
        "coordinates": [
          86.21371,
          44.30638
        ],
        "type": "Point"
      }
    },
    {
      "type": "Feature",
      "properties": {
        "name": "Luntai"
      },
      "geometry": {
        "coordinates": [
          84.24417,
          41.77389
        ],
        "type": "Point"
      }
    },
    {
      "type": "Feature",
      "properties": {
        "name": "Liuyuan"
      },
      "geometry": {
        "coordinates": [
          95.50189,
          41.10244
        ],
        "type": "Point"
      }
    },
    {
      "type": "Feature",
      "properties": {
        "name": "Laoshawan"
      },
      "geometry": {
        "coordinates": [
          85.78104,
          44.63946
        ],
        "type": "Point"
      }
    },
    {
      "type": "Feature",
      "properties": {
        "name": "Kuytun"
      },
      "geometry": {
        "coordinates": [
          84.90069,
          44.42707
        ],
        "type": "Point"
      }
    },
    {
      "type": "Feature",
      "properties": {
        "name": "Kurti"
      },
      "geometry": {
        "coordinates": [
          89.30531,
          47.20003
        ],
        "type": "Point"
      }
    },
    {
      "type": "Feature",
      "properties": {
        "name": "Kuqa"
      },
      "geometry": {
        "coordinates": [
          82.93639,
          41.72778
        ],
        "type": "Point"
      }
    },
    {
      "type": "Feature",
      "properties": {
        "name": "Kupu"
      },
      "geometry": {
        "coordinates": [
          83.3098,
          45.82673
        ],
        "type": "Point"
      }
    },
    {
      "type": "Feature",
      "properties": {
        "name": "Korla"
      },
      "geometry": {
        "coordinates": [
          86.15231,
          41.76055
        ],
        "type": "Point"
      }
    },
    {
      "type": "Feature",
      "properties": {
        "name": "Koktokay"
      },
      "geometry": {
        "coordinates": [
          89.81724,
          47.21654
        ],
        "type": "Point"
      }
    },
    {
      "type": "Feature",
      "properties": {
        "name": "Karjaw"
      },
      "geometry": {
        "coordinates": [
          86.39848,
          47.19094
        ],
        "type": "Point"
      }
    },
    {
      "type": "Feature",
      "properties": {
        "name": "Kalatongke"
      },
      "geometry": {
        "coordinates": [
          89.69761,
          46.85591
        ],
        "type": "Point"
      }
    },
    {
      "type": "Feature",
      "properties": {
        "name": "Jimsar"
      },
      "geometry": {
        "coordinates": [
          89.06667,
          43.98333
        ],
        "type": "Point"
      }
    },
    {
      "type": "Feature",
      "properties": {
        "name": "Jeminay"
      },
      "geometry": {
        "coordinates": [
          85.61828,
          47.49969
        ],
        "type": "Point"
      }
    },
    {
      "type": "Feature",
      "properties": {
        "name": "Jelagax"
      },
      "geometry": {
        "coordinates": [
          83.92013,
          46.60109
        ],
        "type": "Point"
      }
    },
    {
      "type": "Feature",
      "properties": {
        "name": "Khutubi"
      },
      "geometry": {
        "coordinates": [
          86.88521,
          44.19035
        ],
        "type": "Point"
      }
    },
    {
      "type": "Feature",
      "properties": {
        "name": "Huangqu"
      },
      "geometry": {
        "coordinates": [
          94.70271,
          40.27821
        ],
        "type": "Point"
      }
    },
    {
      "type": "Feature",
      "properties": {
        "name": "Hoxut"
      },
      "geometry": {
        "coordinates": [
          86.85778,
          42.25861
        ],
        "type": "Point"
      }
    },
    {
      "type": "Feature",
      "properties": {
        "name": "Hoxtolgay"
      },
      "geometry": {
        "coordinates": [
          86.00214,
          46.51872
        ],
        "type": "Point"
      }
    },
    {
      "type": "Feature",
      "properties": {
        "name": "Hongdun"
      },
      "geometry": {
        "coordinates": [
          88.21846,
          47.72413
        ],
        "type": "Point"
      }
    },
    {
      "type": "Feature",
      "properties": {
        "name": "Hoboksar"
      },
      "geometry": {
        "coordinates": [
          85.7266,
          46.79507
        ],
        "type": "Point"
      }
    },
    {
      "type": "Feature",
      "properties": {
        "name": "Hejing"
      },
      "geometry": {
        "coordinates": [
          86.38278,
          42.31639
        ],
        "type": "Point"
      }
    },
    {
      "type": "Feature",
      "properties": {
        "name": "Haramgai"
      },
      "geometry": {
        "coordinates": [
          87.77417,
          46.65684
        ],
        "type": "Point"
      }
    },
    {
      "type": "Feature",
      "properties": {
        "name": "Hami"
      },
      "geometry": {
        "coordinates": [
          93.50601,
          42.83393
        ],
        "type": "Point"
      }
    },
    {
      "type": "Feature",
      "properties": {
        "name": "Guazhou"
      },
      "geometry": {
        "coordinates": [
          95.67119,
          40.46384
        ],
        "type": "Point"
      }
    },
    {
      "type": "Feature",
      "properties": {
        "name": "Bofeng"
      },
      "geometry": {
        "coordinates": [
          87.97418,
          44.15874
        ],
        "type": "Point"
      }
    },
    {
      "type": "Feature",
      "properties": {
        "name": "Fuhai"
      },
      "geometry": {
        "coordinates": [
          87.4881,
          47.1095
        ],
        "type": "Point"
      }
    },
    {
      "type": "Feature",
      "properties": {
        "name": "Ewirgol"
      },
      "geometry": {
        "coordinates": [
          87.66111,
          42.96444
        ],
        "type": "Point"
      }
    },
    {
      "type": "Feature",
      "properties": {
        "name": "Ertai"
      },
      "geometry": {
        "coordinates": [
          90.15125,
          46.05654
        ],
        "type": "Point"
      }
    },
    {
      "type": "Feature",
      "properties": {
        "name": "Erdaoqiao"
      },
      "geometry": {
        "coordinates": [
          83.55709,
          46.3944
        ],
        "type": "Point"
      }
    },
    {
      "type": "Feature",
      "properties": {
        "name": "Emin"
      },
      "geometry": {
        "coordinates": [
          83.63325,
          46.52574
        ],
        "type": "Point"
      }
    },
    {
      "type": "Feature",
      "properties": {
        "name": "Dushanzi"
      },
      "geometry": {
        "coordinates": [
          84.85,
          44.33333
        ],
        "type": "Point"
      }
    },
    {
      "type": "Feature",
      "properties": {
        "name": "Dure"
      },
      "geometry": {
        "coordinates": [
          88.46847,
          46.37795
        ],
        "type": "Point"
      }
    },
    {
      "type": "Feature",
      "properties": {
        "name": "Dongbatu"
      },
      "geometry": {
        "coordinates": [
          95.70593,
          40.06255
        ],
        "type": "Point"
      }
    },
    {
      "type": "Feature",
      "properties": {
        "name": "Dabancheng"
      },
      "geometry": {
        "coordinates": [
          88.32004,
          43.35833
        ],
        "type": "Point"
      }
    },
    {
      "type": "Feature",
      "properties": {
        "name": "Changji"
      },
      "geometry": {
        "coordinates": [
          87.30461,
          44.00782
        ],
        "type": "Point"
      }
    },
    {
      "type": "Feature",
      "properties": {
        "name": "Bulongji"
      },
      "geometry": {
        "coordinates": [
          96.54102,
          40.53087
        ],
        "type": "Point"
      }
    },
    {
      "type": "Feature",
      "properties": {
        "name": "Bor Tungge"
      },
      "geometry": {
        "coordinates": [
          85.37747,
          44.05317
        ],
        "type": "Point"
      }
    },
    {
      "type": "Feature",
      "properties": {
        "name": "Bohu"
      },
      "geometry": {
        "coordinates": [
          86.62198,
          41.98434
        ],
        "type": "Point"
      }
    },
    {
      "type": "Feature",
      "properties": {
        "name": "Beiwucha"
      },
      "geometry": {
        "coordinates": [
          86.31978,
          44.53134
        ],
        "type": "Point"
      }
    },
    {
      "type": "Feature",
      "properties": {
        "name": "Beitun"
      },
      "geometry": {
        "coordinates": [
          87.82053,
          47.35249
        ],
        "type": "Point"
      }
    },
    {
      "type": "Feature",
      "properties": {
        "name": "Barkol"
      },
      "geometry": {
        "coordinates": [
          93.00862,
          43.59881
        ],
        "type": "Point"
      }
    },
    {
      "type": "Feature",
      "properties": {
        "name": "Baikouquan"
      },
      "geometry": {
        "coordinates": [
          85.47453,
          45.91815
        ],
        "type": "Point"
      }
    },
    {
      "type": "Feature",
      "properties": {
        "name": "Baijiantan"
      },
      "geometry": {
        "coordinates": [
          85.12441,
          45.68928
        ],
        "type": "Point"
      }
    },
    {
      "type": "Feature",
      "properties": {
        "name": "Awiytan"
      },
      "geometry": {
        "coordinates": [
          88.05108,
          47.72457
        ],
        "type": "Point"
      }
    },
    {
      "type": "Feature",
      "properties": {
        "name": "Araltobe"
      },
      "geometry": {
        "coordinates": [
          90.21681,
          46.52089
        ],
        "type": "Point"
      }
    },
    {
      "type": "Feature",
      "properties": {
        "name": "Araltobe"
      },
      "geometry": {
        "coordinates": [
          83.76474,
          43.41029
        ],
        "type": "Point"
      }
    },
    {
      "type": "Feature",
      "properties": {
        "name": "Anjihai"
      },
      "geometry": {
        "coordinates": [
          85.35189,
          44.35787
        ],
        "type": "Point"
      }
    },
    {
      "type": "Feature",
      "properties": {
        "name": "Altay"
      },
      "geometry": {
        "coordinates": [
          88.13361,
          47.84864
        ],
        "type": "Point"
      }
    },
    {
      "type": "Feature",
      "properties": {
        "name": "Agax Obo"
      },
      "geometry": {
        "coordinates": [
          90.42119,
          46.28644
        ],
        "type": "Point"
      }
    },
    {
      "type": "Feature",
      "properties": {
        "name": "Anningqu"
      },
      "geometry": {
        "coordinates": [
          87.53333,
          43.98333
        ],
        "type": "Point"
      }
    },
    {
      "type": "Feature",
      "properties": {
        "name": "Diwopu"
      },
      "geometry": {
        "coordinates": [
          87.48333,
          43.88333
        ],
        "type": "Point"
      }
    },
    {
      "type": "Feature",
      "properties": {
        "name": "Ergong"
      },
      "geometry": {
        "coordinates": [
          87.56667,
          43.85
        ],
        "type": "Point"
      }
    },
    {
      "type": "Feature",
      "properties": {
        "name": "Tiechanggou"
      },
      "geometry": {
        "coordinates": [
          87.78333,
          43.91667
        ],
        "type": "Point"
      }
    },
    {
      "type": "Feature",
      "properties": {
        "name": "Lucaogou"
      },
      "geometry": {
        "coordinates": [
          87.78333,
          43.86667
        ],
        "type": "Point"
      }
    },
    {
      "type": "Feature",
      "properties": {
        "name": "Shuimogou"
      },
      "geometry": {
        "coordinates": [
          87.6382,
          43.82856
        ],
        "type": "Point"
      }
    },
    {
      "type": "Feature",
      "properties": {
        "name": "Sishilichengzi"
      },
      "geometry": {
        "coordinates": [
          86.47667,
          41.96194
        ],
        "type": "Point"
      }
    },
    {
      "type": "Feature",
      "properties": {
        "name": "Axili"
      },
      "geometry": {
        "coordinates": [
          83.12263,
          46.85628
        ],
        "type": "Point"
      }
    },
    {
      "type": "Feature",
      "properties": {
        "name": "Karakabak"
      },
      "geometry": {
        "coordinates": [
          83.14697,
          46.76786
        ],
        "type": "Point"
      }
    },
    {
      "type": "Feature",
      "properties": {
        "name": "Qaxa"
      },
      "geometry": {
        "coordinates": [
          83.4053,
          46.68861
        ],
        "type": "Point"
      }
    },
    {
      "type": "Feature",
      "properties": {
        "name": "Emil"
      },
      "geometry": {
        "coordinates": [
          83.0743,
          46.64719
        ],
        "type": "Point"
      }
    },
    {
      "type": "Feature",
      "properties": {
        "name": "Shanghu"
      },
      "geometry": {
        "coordinates": [
          83.82391,
          46.63723
        ],
        "type": "Point"
      }
    },
    {
      "type": "Feature",
      "properties": {
        "name": "Altunemil"
      },
      "geometry": {
        "coordinates": [
          83.09014,
          46.11923
        ],
        "type": "Point"
      }
    },
    {
      "type": "Feature",
      "properties": {
        "name": "Yushikalasu"
      },
      "geometry": {
        "coordinates": [
          84.04502,
          46.70969
        ],
        "type": "Point"
      }
    },
    {
      "type": "Feature",
      "properties": {
        "name": "Motge"
      },
      "geometry": {
        "coordinates": [
          85.79743,
          46.81282
        ],
        "type": "Point"
      }
    },
    {
      "type": "Feature",
      "properties": {
        "name": "Qagan Hol"
      },
      "geometry": {
        "coordinates": [
          85.95543,
          46.81696
        ],
        "type": "Point"
      }
    },
    {
      "type": "Feature",
      "properties": {
        "name": "Topterek"
      },
      "geometry": {
        "coordinates": [
          85.87113,
          47.43403
        ],
        "type": "Point"
      }
    },
    {
      "type": "Feature",
      "properties": {
        "name": "Besterek"
      },
      "geometry": {
        "coordinates": [
          85.87979,
          47.30408
        ],
        "type": "Point"
      }
    },
    {
      "type": "Feature",
      "properties": {
        "name": "Oymak"
      },
      "geometry": {
        "coordinates": [
          86.98955,
          47.87809
        ],
        "type": "Point"
      }
    },
    {
      "type": "Feature",
      "properties": {
        "name": "Xalxikay"
      },
      "geometry": {
        "coordinates": [
          86.21583,
          47.5225
        ],
        "type": "Point"
      }
    },
    {
      "type": "Feature",
      "properties": {
        "name": "Egiztobe"
      },
      "geometry": {
        "coordinates": [
          87.00466,
          47.85938
        ],
        "type": "Point"
      }
    },
    {
      "type": "Feature",
      "properties": {
        "name": "Kostik"
      },
      "geometry": {
        "coordinates": [
          87.33078,
          47.78682
        ],
        "type": "Point"
      }
    },
    {
      "type": "Feature",
      "properties": {
        "name": "Alakak"
      },
      "geometry": {
        "coordinates": [
          87.49813,
          47.74462
        ],
        "type": "Point"
      }
    },
    {
      "type": "Feature",
      "properties": {
        "name": "Balbagay"
      },
      "geometry": {
        "coordinates": [
          87.74228,
          47.51797
        ],
        "type": "Point"
      }
    },
    {
      "type": "Feature",
      "properties": {
        "name": "Jetaral"
      },
      "geometry": {
        "coordinates": [
          87.44536,
          47.0977
        ],
        "type": "Point"
      }
    },
    {
      "type": "Feature",
      "properties": {
        "name": "Kokagax"
      },
      "geometry": {
        "coordinates": [
          87.68753,
          47.01741
        ],
        "type": "Point"
      }
    },
    {
      "type": "Feature",
      "properties": {
        "name": "Turgun"
      },
      "geometry": {
        "coordinates": [
          89.84335,
          46.97933
        ],
        "type": "Point"
      }
    },
    {
      "type": "Feature",
      "properties": {
        "name": "Taldi"
      },
      "geometry": {
        "coordinates": [
          83.05389,
          43.41353
        ],
        "type": "Point"
      }
    },
    {
      "type": "Feature",
      "properties": {
        "name": "Dolati"
      },
      "geometry": {
        "coordinates": [
          83.65645,
          46.01068
        ],
        "type": "Point"
      }
    },
    {
      "type": "Feature",
      "properties": {
        "name": "Sidaohezi"
      },
      "geometry": {
        "coordinates": [
          85.70456,
          44.68907
        ],
        "type": "Point"
      }
    },
    {
      "type": "Feature",
      "properties": {
        "name": "Huanggong"
      },
      "geometry": {
        "coordinates": [
          84.77024,
          44.58304
        ],
        "type": "Point"
      }
    },
    {
      "type": "Feature",
      "properties": {
        "name": "Ganhezi"
      },
      "geometry": {
        "coordinates": [
          84.52827,
          44.4607
        ],
        "type": "Point"
      }
    },
    {
      "type": "Feature",
      "properties": {
        "name": "Xihu"
      },
      "geometry": {
        "coordinates": [
          84.62708,
          44.53377
        ],
        "type": "Point"
      }
    },
    {
      "type": "Feature",
      "properties": {
        "name": "Jiujianlou"
      },
      "geometry": {
        "coordinates": [
          84.83259,
          44.54107
        ],
        "type": "Point"
      }
    },
    {
      "type": "Feature",
      "properties": {
        "name": "Hatu Buh"
      },
      "geometry": {
        "coordinates": [
          84.30713,
          44.41113
        ],
        "type": "Point"
      }
    },
    {
      "type": "Feature",
      "properties": {
        "name": "Xidagou"
      },
      "geometry": {
        "coordinates": [
          84.57902,
          44.33478
        ],
        "type": "Point"
      }
    },
    {
      "type": "Feature",
      "properties": {
        "name": "Liumaowan"
      },
      "geometry": {
        "coordinates": [
          85.91098,
          44.60243
        ],
        "type": "Point"
      }
    },
    {
      "type": "Feature",
      "properties": {
        "name": "Daquan"
      },
      "geometry": {
        "coordinates": [
          85.58078,
          44.36264
        ],
        "type": "Point"
      }
    },
    {
      "type": "Feature",
      "properties": {
        "name": "Jingouhe"
      },
      "geometry": {
        "coordinates": [
          85.68466,
          44.31366
        ],
        "type": "Point"
      }
    },
    {
      "type": "Feature",
      "properties": {
        "name": "Ulan Us"
      },
      "geometry": {
        "coordinates": [
          85.85731,
          44.28848
        ],
        "type": "Point"
      }
    },
    {
      "type": "Feature",
      "properties": {
        "name": "Dongwan"
      },
      "geometry": {
        "coordinates": [
          85.8034,
          44.06412
        ],
        "type": "Point"
      }
    },
    {
      "type": "Feature",
      "properties": {
        "name": "Xigebi"
      },
      "geometry": {
        "coordinates": [
          85.5171,
          44.05467
        ],
        "type": "Point"
      }
    },
    {
      "type": "Feature",
      "properties": {
        "name": "Yushugou"
      },
      "geometry": {
        "coordinates": [
          87.12908,
          44.0467
        ],
        "type": "Point"
      }
    },
    {
      "type": "Feature",
      "properties": {
        "name": "Erliugong"
      },
      "geometry": {
        "coordinates": [
          87.17036,
          44.05286
        ],
        "type": "Point"
      }
    },
    {
      "type": "Feature",
      "properties": {
        "name": "Ershilidian"
      },
      "geometry": {
        "coordinates": [
          86.9663,
          44.15805
        ],
        "type": "Point"
      }
    },
    {
      "type": "Feature",
      "properties": {
        "name": "Wugongtai"
      },
      "geometry": {
        "coordinates": [
          86.79624,
          44.19212
        ],
        "type": "Point"
      }
    },
    {
      "type": "Feature",
      "properties": {
        "name": "Dafeng"
      },
      "geometry": {
        "coordinates": [
          86.59097,
          44.17932
        ],
        "type": "Point"
      }
    },
    {
      "type": "Feature",
      "properties": {
        "name": "Letuyi"
      },
      "geometry": {
        "coordinates": [
          86.45808,
          44.1994
        ],
        "type": "Point"
      }
    },
    {
      "type": "Feature",
      "properties": {
        "name": "Baojiadian"
      },
      "geometry": {
        "coordinates": [
          86.3067,
          44.24872
        ],
        "type": "Point"
      }
    },
    {
      "type": "Feature",
      "properties": {
        "name": "Changshanzi"
      },
      "geometry": {
        "coordinates": [
          87.6122,
          44.08864
        ],
        "type": "Point"
      }
    },
    {
      "type": "Feature",
      "properties": {
        "name": "Sandaoba"
      },
      "geometry": {
        "coordinates": [
          87.62083,
          44.12801
        ],
        "type": "Point"
      }
    },
    {
      "type": "Feature",
      "properties": {
        "name": "Yangmaogong"
      },
      "geometry": {
        "coordinates": [
          87.58578,
          44.1584
        ],
        "type": "Point"
      }
    },
    {
      "type": "Feature",
      "properties": {
        "name": "Liugong"
      },
      "geometry": {
        "coordinates": [
          87.40221,
          44.07613
        ],
        "type": "Point"
      }
    },
    {
      "type": "Feature",
      "properties": {
        "name": "Daxiqu"
      },
      "geometry": {
        "coordinates": [
          87.27653,
          44.10695
        ],
        "type": "Point"
      }
    },
    {
      "type": "Feature",
      "properties": {
        "name": "Dianba"
      },
      "geometry": {
        "coordinates": [
          87.32964,
          44.12448
        ],
        "type": "Point"
      }
    },
    {
      "type": "Feature",
      "properties": {
        "name": "Xibeiwan"
      },
      "geometry": {
        "coordinates": [
          89.56193,
          44.07289
        ],
        "type": "Point"
      }
    },
    {
      "type": "Feature",
      "properties": {
        "name": "Beiting"
      },
      "geometry": {
        "coordinates": [
          89.20901,
          44.06385
        ],
        "type": "Point"
      }
    },
    {
      "type": "Feature",
      "properties": {
        "name": "Qingyanghu"
      },
      "geometry": {
        "coordinates": [
          88.96515,
          44.08253
        ],
        "type": "Point"
      }
    },
    {
      "type": "Feature",
      "properties": {
        "name": "Laotai"
      },
      "geometry": {
        "coordinates": [
          88.86423,
          44.11873
        ],
        "type": "Point"
      }
    },
    {
      "type": "Feature",
      "properties": {
        "name": "Qoren"
      },
      "geometry": {
        "coordinates": [
          90.05849,
          44.06437
        ],
        "type": "Point"
      }
    },
    {
      "type": "Feature",
      "properties": {
        "name": "Hujirti Mongolzuxiang"
      },
      "geometry": {
        "coordinates": [
          83.83711,
          46.36994
        ],
        "type": "Point"
      }
    },
    {
      "type": "Feature",
      "properties": {
        "name": "Emalgolin Mongolzuxiang"
      },
      "geometry": {
        "coordinates": [
          84.00739,
          46.67075
        ],
        "type": "Point"
      }
    },
    {
      "type": "Feature",
      "properties": {
        "name": "Yengimahalla"
      },
      "geometry": {
        "coordinates": [
          82.65083,
          41.34639
        ],
        "type": "Point"
      }
    },
    {
      "type": "Feature",
      "properties": {
        "name": "Hongqi"
      },
      "geometry": {
        "coordinates": [
          82.86096,
          41.44244
        ],
        "type": "Point"
      }
    },
    {
      "type": "Feature",
      "properties": {
        "name": "Alakaga"
      },
      "geometry": {
        "coordinates": [
          82.76639,
          41.54667
        ],
        "type": "Point"
      }
    },
    {
      "type": "Feature",
      "properties": {
        "name": "Zhusha"
      },
      "geometry": {
        "coordinates": [
          110.96609,
          22.56552
        ],
        "type": "Point"
      }
    },
    {
      "type": "Feature",
      "properties": {
        "name": "Zhongdong"
      },
      "geometry": {
        "coordinates": [
          110.46856,
          21.83713
        ],
        "type": "Point"
      }
    },
    {
      "type": "Feature",
      "properties": {
        "name": "Zhanjiang"
      },
      "geometry": {
        "coordinates": [
          110.34271,
          21.28145
        ],
        "type": "Point"
      }
    },
    {
      "type": "Feature",
      "properties": {
        "name": "Yingzai"
      },
      "geometry": {
        "coordinates": [
          109.9252,
          21.49052
        ],
        "type": "Point"
      }
    },
    {
      "type": "Feature",
      "properties": {
        "name": "Yingli"
      },
      "geometry": {
        "coordinates": [
          110.09626,
          20.56421
        ],
        "type": "Point"
      }
    },
    {
      "type": "Feature",
      "properties": {
        "name": "Yatang"
      },
      "geometry": {
        "coordinates": [
          110.04147,
          21.61287
        ],
        "type": "Point"
      }
    },
    {
      "type": "Feature",
      "properties": {
        "name": "Yangqing"
      },
      "geometry": {
        "coordinates": [
          110.10819,
          21.35415
        ],
        "type": "Point"
      }
    },
    {
      "type": "Feature",
      "properties": {
        "name": "Xucheng"
      },
      "geometry": {
        "coordinates": [
          110.16712,
          20.32917
        ],
        "type": "Point"
      }
    },
    {
      "type": "Feature",
      "properties": {
        "name": "Xin'an"
      },
      "geometry": {
        "coordinates": [
          110.43097,
          21.64935
        ],
        "type": "Point"
      }
    },
    {
      "type": "Feature",
      "properties": {
        "name": "Xilian"
      },
      "geometry": {
        "coordinates": [
          109.94545,
          20.38003
        ],
        "type": "Point"
      }
    },
    {
      "type": "Feature",
      "properties": {
        "name": "Xieji"
      },
      "geometry": {
        "coordinates": [
          110.98333,
          21.91667
        ],
        "type": "Point"
      }
    },
    {
      "type": "Feature",
      "properties": {
        "name": "Xiaqiao"
      },
      "geometry": {
        "coordinates": [
          110.13264,
          20.44849
        ],
        "type": "Point"
      }
    },
    {
      "type": "Feature",
      "properties": {
        "name": "Xiadong"
      },
      "geometry": {
        "coordinates": [
          111.11003,
          21.73333
        ],
        "type": "Point"
      }
    },
    {
      "type": "Feature",
      "properties": {
        "name": "Wuyang"
      },
      "geometry": {
        "coordinates": [
          110.68829,
          21.34766
        ],
        "type": "Point"
      }
    },
    {
      "type": "Feature",
      "properties": {
        "name": "Wushi"
      },
      "geometry": {
        "coordinates": [
          109.86594,
          20.55297
        ],
        "type": "Point"
      }
    },
    {
      "type": "Feature",
      "properties": {
        "name": "Wenlou"
      },
      "geometry": {
        "coordinates": [
          110.42157,
          22.09393
        ],
        "type": "Point"
      }
    },
    {
      "type": "Feature",
      "properties": {
        "name": "Wangfu"
      },
      "geometry": {
        "coordinates": [
          111.37006,
          21.73239
        ],
        "type": "Point"
      }
    },
    {
      "type": "Feature",
      "properties": {
        "name": "Tongqing"
      },
      "geometry": {
        "coordinates": [
          110.69241,
          21.59241
        ],
        "type": "Point"
      }
    },
    {
      "type": "Feature",
      "properties": {
        "name": "Tiaofeng"
      },
      "geometry": {
        "coordinates": [
          110.25188,
          20.68639
        ],
        "type": "Point"
      }
    },
    {
      "type": "Feature",
      "properties": {
        "name": "Tangpeng"
      },
      "geometry": {
        "coordinates": [
          110.11233,
          21.79431
        ],
        "type": "Point"
      }
    },
    {
      "type": "Feature",
      "properties": {
        "name": "Tangjia"
      },
      "geometry": {
        "coordinates": [
          109.84694,
          20.8425
        ],
        "type": "Point"
      }
    },
    {
      "type": "Feature",
      "properties": {
        "name": "Taiping"
      },
      "geometry": {
        "coordinates": [
          110.15702,
          21.044
        ],
        "type": "Point"
      }
    },
    {
      "type": "Feature",
      "properties": {
        "name": "Suicheng"
      },
      "geometry": {
        "coordinates": [
          110.25052,
          21.37951
        ],
        "type": "Point"
      }
    },
    {
      "type": "Feature",
      "properties": {
        "name": "Shuikou"
      },
      "geometry": {
        "coordinates": [
          110.91391,
          22.25
        ],
        "type": "Point"
      }
    },
    {
      "type": "Feature",
      "properties": {
        "name": "Shuidong"
      },
      "geometry": {
        "coordinates": [
          111.00184,
          21.5134
        ],
        "type": "Point"
      }
    },
    {
      "type": "Feature",
      "properties": {
        "name": "Shiling"
      },
      "geometry": {
        "coordinates": [
          110.1271,
          21.65095
        ],
        "type": "Point"
      }
    },
    {
      "type": "Feature",
      "properties": {
        "name": "Shijing"
      },
      "geometry": {
        "coordinates": [
          110.0233,
          21.69851
        ],
        "type": "Point"
      }
    },
    {
      "type": "Feature",
      "properties": {
        "name": "Shigu"
      },
      "geometry": {
        "coordinates": [
          110.76471,
          21.825
        ],
        "type": "Point"
      }
    },
    {
      "type": "Feature",
      "properties": {
        "name": "Shenzhen"
      },
      "geometry": {
        "coordinates": [
          111.11793,
          22.1823
        ],
        "type": "Point"
      }
    },
    {
      "type": "Feature",
      "properties": {
        "name": "Shalang"
      },
      "geometry": {
        "coordinates": [
          111.21532,
          21.78618
        ],
        "type": "Point"
      }
    },
    {
      "type": "Feature",
      "properties": {
        "name": "Qujie"
      },
      "geometry": {
        "coordinates": [
          110.32556,
          20.48556
        ],
        "type": "Point"
      }
    },
    {
      "type": "Feature",
      "properties": {
        "name": "Qishui"
      },
      "geometry": {
        "coordinates": [
          109.77813,
          20.75398
        ],
        "type": "Point"
      }
    },
    {
      "type": "Feature",
      "properties": {
        "name": "Qingping"
      },
      "geometry": {
        "coordinates": [
          109.91897,
          21.6248
        ],
        "type": "Point"
      }
    },
    {
      "type": "Feature",
      "properties": {
        "name": "Qijing"
      },
      "geometry": {
        "coordinates": [
          110.99406,
          21.56857
        ],
        "type": "Point"
      }
    },
    {
      "type": "Feature",
      "properties": {
        "name": "Qianshan"
      },
      "geometry": {
        "coordinates": [
          110.46115,
          20.42678
        ],
        "type": "Point"
      }
    },
    {
      "type": "Feature",
      "properties": {
        "name": "Qianpai"
      },
      "geometry": {
        "coordinates": [
          111.26114,
          22.36457
        ],
        "type": "Point"
      }
    },
    {
      "type": "Feature",
      "properties": {
        "name": "Potou"
      },
      "geometry": {
        "coordinates": [
          110.43545,
          21.26841
        ],
        "type": "Point"
      }
    },
    {
      "type": "Feature",
      "properties": {
        "name": "Pingtang"
      },
      "geometry": {
        "coordinates": [
          111.35091,
          22.48321
        ],
        "type": "Point"
      }
    },
    {
      "type": "Feature",
      "properties": {
        "name": "Pingding"
      },
      "geometry": {
        "coordinates": [
          110.40133,
          22.01355
        ],
        "type": "Point"
      }
    },
    {
      "type": "Feature",
      "properties": {
        "name": "Nawu"
      },
      "geometry": {
        "coordinates": [
          110.5874,
          22.00389
        ],
        "type": "Point"
      }
    },
    {
      "type": "Feature",
      "properties": {
        "name": "Nanxing"
      },
      "geometry": {
        "coordinates": [
          110.09363,
          20.80376
        ],
        "type": "Point"
      }
    },
    {
      "type": "Feature",
      "properties": {
        "name": "Nantang"
      },
      "geometry": {
        "coordinates": [
          110.78902,
          22.06192
        ],
        "type": "Point"
      }
    },
    {
      "type": "Feature",
      "properties": {
        "name": "Nansheng"
      },
      "geometry": {
        "coordinates": [
          110.70813,
          21.73279
        ],
        "type": "Point"
      }
    },
    {
      "type": "Feature",
      "properties": {
        "name": "Nahuo"
      },
      "geometry": {
        "coordinates": [
          111.23862,
          21.89092
        ],
        "type": "Point"
      }
    },
    {
      "type": "Feature",
      "properties": {
        "name": "Wuchuan"
      },
      "geometry": {
        "coordinates": [
          110.76591,
          21.45713
        ],
        "type": "Point"
      }
    },
    {
      "type": "Feature",
      "properties": {
        "name": "Meihua"
      },
      "geometry": {
        "coordinates": [
          110.93521,
          21.57866
        ],
        "type": "Point"
      }
    },
    {
      "type": "Feature",
      "properties": {
        "name": "Mazhang"
      },
      "geometry": {
        "coordinates": [
          110.32212,
          21.27574
        ],
        "type": "Point"
      }
    },
    {
      "type": "Feature",
      "properties": {
        "name": "Maoming"
      },
      "geometry": {
        "coordinates": [
          110.9,
          21.65
        ],
        "type": "Point"
      }
    },
    {
      "type": "Feature",
      "properties": {
        "name": "Maichen"
      },
      "geometry": {
        "coordinates": [
          109.99481,
          20.335
        ],
        "type": "Point"
      }
    },
    {
      "type": "Feature",
      "properties": {
        "name": "Magang"
      },
      "geometry": {
        "coordinates": [
          111.16802,
          21.54607
        ],
        "type": "Point"
      }
    },
    {
      "type": "Feature",
      "properties": {
        "name": "Longtang"
      },
      "geometry": {
        "coordinates": [
          110.34258,
          20.32111
        ],
        "type": "Point"
      }
    },
    {
      "type": "Feature",
      "properties": {
        "name": "Longmen"
      },
      "geometry": {
        "coordinates": [
          110.03647,
          20.71094
        ],
        "type": "Point"
      }
    },
    {
      "type": "Feature",
      "properties": {
        "name": "Lintou"
      },
      "geometry": {
        "coordinates": [
          111.04865,
          21.66572
        ],
        "type": "Point"
      }
    },
    {
      "type": "Feature",
      "properties": {
        "name": "Linchen"
      },
      "geometry": {
        "coordinates": [
          110.57466,
          21.83184
        ],
        "type": "Point"
      }
    },
    {
      "type": "Feature",
      "properties": {
        "name": "Liangguang"
      },
      "geometry": {
        "coordinates": [
          110.54756,
          21.56667
        ],
        "type": "Point"
      }
    },
    {
      "type": "Feature",
      "properties": {
        "name": "Liangdong"
      },
      "geometry": {
        "coordinates": [
          110.39675,
          21.49946
        ],
        "type": "Point"
      }
    },
    {
      "type": "Feature",
      "properties": {
        "name": "Lianjiang"
      },
      "geometry": {
        "coordinates": [
          110.28172,
          21.64673
        ],
        "type": "Point"
      }
    },
    {
      "type": "Feature",
      "properties": {
        "name": "Kelu"
      },
      "geometry": {
        "coordinates": [
          110.01711,
          21.08694
        ],
        "type": "Point"
      }
    },
    {
      "type": "Feature",
      "properties": {
        "name": "Jintang"
      },
      "geometry": {
        "coordinates": [
          110.8424,
          21.75173
        ],
        "type": "Point"
      }
    },
    {
      "type": "Feature",
      "properties": {
        "name": "Jinhe"
      },
      "geometry": {
        "coordinates": [
          110.41083,
          20.57079
        ],
        "type": "Point"
      }
    },
    {
      "type": "Feature",
      "properties": {
        "name": "Jindong"
      },
      "geometry": {
        "coordinates": [
          110.78078,
          22.46245
        ],
        "type": "Point"
      }
    },
    {
      "type": "Feature",
      "properties": {
        "name": "Jijia"
      },
      "geometry": {
        "coordinates": [
          109.79477,
          20.95311
        ],
        "type": "Point"
      }
    },
    {
      "type": "Feature",
      "properties": {
        "name": "Jianghong"
      },
      "geometry": {
        "coordinates": [
          109.71638,
          21.01594
        ],
        "type": "Point"
      }
    },
    {
      "type": "Feature",
      "properties": {
        "name": "Huazhou"
      },
      "geometry": {
        "coordinates": [
          110.58333,
          21.63333
        ],
        "type": "Point"
      }
    },
    {
      "type": "Feature",
      "properties": {
        "name": "Huangpo"
      },
      "geometry": {
        "coordinates": [
          110.58822,
          21.31681
        ],
        "type": "Point"
      }
    },
    {
      "type": "Feature",
      "properties": {
        "name": "Hetou"
      },
      "geometry": {
        "coordinates": [
          109.85062,
          21.05769
        ],
        "type": "Point"
      }
    },
    {
      "type": "Feature",
      "properties": {
        "name": "Heshui"
      },
      "geometry": {
        "coordinates": [
          111.40973,
          22.36865
        ],
        "type": "Point"
      }
    },
    {
      "type": "Feature",
      "properties": {
        "name": "Hengshan"
      },
      "geometry": {
        "coordinates": [
          110.06422,
          21.4748
        ],
        "type": "Point"
      }
    },
    {
      "type": "Feature",
      "properties": {
        "name": "Hejiang"
      },
      "geometry": {
        "coordinates": [
          110.55813,
          21.93523
        ],
        "type": "Point"
      }
    },
    {
      "type": "Feature",
      "properties": {
        "name": "Hechun"
      },
      "geometry": {
        "coordinates": [
          110.3004,
          21.6981
        ],
        "type": "Point"
      }
    },
    {
      "type": "Feature",
      "properties": {
        "name": "Hai'an"
      },
      "geometry": {
        "coordinates": [
          110.22912,
          20.28013
        ],
        "type": "Point"
      }
    },
    {
      "type": "Feature",
      "properties": {
        "name": "Guizi"
      },
      "geometry": {
        "coordinates": [
          111.11311,
          22.63628
        ],
        "type": "Point"
      }
    },
    {
      "type": "Feature",
      "properties": {
        "name": "Guanzhu"
      },
      "geometry": {
        "coordinates": [
          111.1733,
          21.69052
        ],
        "type": "Point"
      }
    },
    {
      "type": "Feature",
      "properties": {
        "name": "Guanqiao"
      },
      "geometry": {
        "coordinates": [
          110.49526,
          21.73468
        ],
        "type": "Point"
      }
    },
    {
      "type": "Feature",
      "properties": {
        "name": "Gongguan"
      },
      "geometry": {
        "coordinates": [
          110.83732,
          21.68323
        ],
        "type": "Point"
      }
    },
    {
      "type": "Feature",
      "properties": {
        "name": "Gaozhou"
      },
      "geometry": {
        "coordinates": [
          110.84607,
          21.93924
        ],
        "type": "Point"
      }
    },
    {
      "type": "Feature",
      "properties": {
        "name": "Fenjie"
      },
      "geometry": {
        "coordinates": [
          110.96287,
          21.77236
        ],
        "type": "Point"
      }
    },
    {
      "type": "Feature",
      "properties": {
        "name": "Xinyi"
      },
      "geometry": {
        "coordinates": [
          110.94746,
          22.37303
        ],
        "type": "Point"
      }
    },
    {
      "type": "Feature",
      "properties": {
        "name": "Dongshan"
      },
      "geometry": {
        "coordinates": [
          110.39236,
          21.03506
        ],
        "type": "Point"
      }
    },
    {
      "type": "Feature",
      "properties": {
        "name": "Dongli"
      },
      "geometry": {
        "coordinates": [
          110.3611,
          20.79201
        ],
        "type": "Point"
      }
    },
    {
      "type": "Feature",
      "properties": {
        "name": "Dongjian"
      },
      "geometry": {
        "coordinates": [
          110.49542,
          21.03658
        ],
        "type": "Point"
      }
    },
    {
      "type": "Feature",
      "properties": {
        "name": "Dong'an"
      },
      "geometry": {
        "coordinates": [
          110.95104,
          22.12977
        ],
        "type": "Point"
      }
    },
    {
      "type": "Feature",
      "properties": {
        "name": "Diancheng"
      },
      "geometry": {
        "coordinates": [
          111.3,
          21.51667
        ],
        "type": "Point"
      }
    },
    {
      "type": "Feature",
      "properties": {
        "name": "Dapo"
      },
      "geometry": {
        "coordinates": [
          111.24471,
          22.0808
        ],
        "type": "Point"
      }
    },
    {
      "type": "Feature",
      "properties": {
        "name": "Danchang"
      },
      "geometry": {
        "coordinates": [
          111.10098,
          21.51277
        ],
        "type": "Point"
      }
    },
    {
      "type": "Feature",
      "properties": {
        "name": "Dajing"
      },
      "geometry": {
        "coordinates": [
          110.87118,
          22.08396
        ],
        "type": "Point"
      }
    },
    {
      "type": "Feature",
      "properties": {
        "name": "Chikan"
      },
      "geometry": {
        "coordinates": [
          110.35906,
          21.27116
        ],
        "type": "Point"
      }
    },
    {
      "type": "Feature",
      "properties": {
        "name": "Chidong"
      },
      "geometry": {
        "coordinates": [
          110.94702,
          22.4276
        ],
        "type": "Point"
      }
    },
    {
      "type": "Feature",
      "properties": {
        "name": "Chengyue"
      },
      "geometry": {
        "coordinates": [
          110.07214,
          21.16679
        ],
        "type": "Point"
      }
    },
    {
      "type": "Feature",
      "properties": {
        "name": "Changshan"
      },
      "geometry": {
        "coordinates": [
          110.00514,
          21.79621
        ],
        "type": "Point"
      }
    },
    {
      "type": "Feature",
      "properties": {
        "name": "Changqi"
      },
      "geometry": {
        "coordinates": [
          110.72322,
          21.53379
        ],
        "type": "Point"
      }
    },
    {
      "type": "Feature",
      "properties": {
        "name": "Changpo"
      },
      "geometry": {
        "coordinates": [
          111.01667,
          22.06438
        ],
        "type": "Point"
      }
    },
    {
      "type": "Feature",
      "properties": {
        "name": "Caotan"
      },
      "geometry": {
        "coordinates": [
          109.78089,
          21.26497
        ],
        "type": "Point"
      }
    },
    {
      "type": "Feature",
      "properties": {
        "name": "Boyang"
      },
      "geometry": {
        "coordinates": [
          110.59621,
          22.10948
        ],
        "type": "Point"
      }
    },
    {
      "type": "Feature",
      "properties": {
        "name": "Bohe"
      },
      "geometry": {
        "coordinates": [
          111.21885,
          21.48957
        ],
        "type": "Point"
      }
    },
    {
      "type": "Feature",
      "properties": {
        "name": "Beipo"
      },
      "geometry": {
        "coordinates": [
          109.89378,
          21.21896
        ],
        "type": "Point"
      }
    },
    {
      "type": "Feature",
      "properties": {
        "name": "Baoxu"
      },
      "geometry": {
        "coordinates": [
          110.67805,
          22.14865
        ],
        "type": "Point"
      }
    },
    {
      "type": "Feature",
      "properties": {
        "name": "Baishi"
      },
      "geometry": {
        "coordinates": [
          111.09368,
          22.35782
        ],
        "type": "Point"
      }
    },
    {
      "type": "Feature",
      "properties": {
        "name": "Anpu"
      },
      "geometry": {
        "coordinates": [
          110.02615,
          21.45474
        ],
        "type": "Point"
      }
    },
    {
      "type": "Feature",
      "properties": {
        "name": "Dacheng"
      },
      "geometry": {
        "coordinates": [
          111.10552,
          22.29776
        ],
        "type": "Point"
      }
    },
    {
      "type": "Feature",
      "properties": {
        "name": "Aotou"
      },
      "geometry": {
        "coordinates": [
          110.85753,
          21.55333
        ],
        "type": "Point"
      }
    },
    {
      "type": "Feature",
      "properties": {
        "name": "Yangjiao"
      },
      "geometry": {
        "coordinates": [
          110.98387,
          21.67772
        ],
        "type": "Point"
      }
    },
    {
      "type": "Feature",
      "properties": {
        "name": "Mata"
      },
      "geometry": {
        "coordinates": [
          111.34675,
          21.60705
        ],
        "type": "Point"
      }
    },
    {
      "type": "Feature",
      "properties": {
        "name": "Dingbao"
      },
      "geometry": {
        "coordinates": [
          110.97425,
          22.30175
        ],
        "type": "Point"
      }
    },
    {
      "type": "Feature",
      "properties": {
        "name": "Beijie"
      },
      "geometry": {
        "coordinates": [
          110.79895,
          22.31911
        ],
        "type": "Point"
      }
    },
    {
      "type": "Feature",
      "properties": {
        "name": "Nanhai"
      },
      "geometry": {
        "coordinates": [
          111.02684,
          21.47251
        ],
        "type": "Point"
      }
    },
    {
      "type": "Feature",
      "properties": {
        "name": "Shuzi"
      },
      "geometry": {
        "coordinates": [
          111.22331,
          21.54467
        ],
        "type": "Point"
      }
    },
    {
      "type": "Feature",
      "properties": {
        "name": "Lingmen"
      },
      "geometry": {
        "coordinates": [
          111.38722,
          21.57028
        ],
        "type": "Point"
      }
    },
    {
      "type": "Feature",
      "properties": {
        "name": "Genzi"
      },
      "geometry": {
        "coordinates": [
          111.03998,
          21.79905
        ],
        "type": "Point"
      }
    },
    {
      "type": "Feature",
      "properties": {
        "name": "Luokeng"
      },
      "geometry": {
        "coordinates": [
          111.23901,
          21.82155
        ],
        "type": "Point"
      }
    },
    {
      "type": "Feature",
      "properties": {
        "name": "Huangling"
      },
      "geometry": {
        "coordinates": [
          111.15444,
          21.83444
        ],
        "type": "Point"
      }
    },
    {
      "type": "Feature",
      "properties": {
        "name": "Yuntan"
      },
      "geometry": {
        "coordinates": [
          111.1643,
          21.88415
        ],
        "type": "Point"
      }
    },
    {
      "type": "Feature",
      "properties": {
        "name": "Xindong"
      },
      "geometry": {
        "coordinates": [
          111.06302,
          21.90817
        ],
        "type": "Point"
      }
    },
    {
      "type": "Feature",
      "properties": {
        "name": "Pingshan"
      },
      "geometry": {
        "coordinates": [
          111.08843,
          22.09482
        ],
        "type": "Point"
      }
    },
    {
      "type": "Feature",
      "properties": {
        "name": "Guding"
      },
      "geometry": {
        "coordinates": [
          111.19648,
          22.15209
        ],
        "type": "Point"
      }
    },
    {
      "type": "Feature",
      "properties": {
        "name": "Xinbao"
      },
      "geometry": {
        "coordinates": [
          111.46199,
          22.38127
        ],
        "type": "Point"
      }
    },
    {
      "type": "Feature",
      "properties": {
        "name": "Sihe"
      },
      "geometry": {
        "coordinates": [
          111.5852,
          22.47358
        ],
        "type": "Point"
      }
    },
    {
      "type": "Feature",
      "properties": {
        "name": "Hongguan"
      },
      "geometry": {
        "coordinates": [
          111.14542,
          22.45206
        ],
        "type": "Point"
      }
    },
    {
      "type": "Feature",
      "properties": {
        "name": "Chashan"
      },
      "geometry": {
        "coordinates": [
          111.13972,
          22.55778
        ],
        "type": "Point"
      }
    },
    {
      "type": "Feature",
      "properties": {
        "name": "Tandou"
      },
      "geometry": {
        "coordinates": [
          109.89556,
          20.52686
        ],
        "type": "Point"
      }
    },
    {
      "type": "Feature",
      "properties": {
        "name": "Xinliao"
      },
      "geometry": {
        "coordinates": [
          110.4631,
          20.62049
        ],
        "type": "Point"
      }
    },
    {
      "type": "Feature",
      "properties": {
        "name": "Leigao"
      },
      "geometry": {
        "coordinates": [
          110.19364,
          20.80931
        ],
        "type": "Point"
      }
    },
    {
      "type": "Feature",
      "properties": {
        "name": "Songzhu"
      },
      "geometry": {
        "coordinates": [
          110.05783,
          20.85616
        ],
        "type": "Point"
      }
    },
    {
      "type": "Feature",
      "properties": {
        "name": "Yangjia"
      },
      "geometry": {
        "coordinates": [
          109.96031,
          20.89802
        ],
        "type": "Point"
      }
    },
    {
      "type": "Feature",
      "properties": {
        "name": "Baisha"
      },
      "geometry": {
        "coordinates": [
          110.08888,
          20.89083
        ],
        "type": "Point"
      }
    },
    {
      "type": "Feature",
      "properties": {
        "name": "Shentang"
      },
      "geometry": {
        "coordinates": [
          110.12067,
          20.99989
        ],
        "type": "Point"
      }
    },
    {
      "type": "Feature",
      "properties": {
        "name": "Min'an"
      },
      "geometry": {
        "coordinates": [
          110.31995,
          21.0139
        ],
        "type": "Point"
      }
    },
    {
      "type": "Feature",
      "properties": {
        "name": "Jianxin"
      },
      "geometry": {
        "coordinates": [
          110.2021,
          21.11603
        ],
        "type": "Point"
      }
    },
    {
      "type": "Feature",
      "properties": {
        "name": "Lemin"
      },
      "geometry": {
        "coordinates": [
          109.7567,
          21.13406
        ],
        "type": "Point"
      }
    },