{
  "type": "FeatureCollection",
  "features": [
    {
      "type": "Feature",
      "properties": {
        "name": "Praiyawang"
      },
      "geometry": {
        "coordinates": [
          120.66997,
          -9.93547
        ],
        "type": "Point"
      }
    },
    {
      "type": "Feature",
      "properties": {
        "name": "Wureh"
      },
      "geometry": {
        "coordinates": [
          123.0421,
          -8.306
        ],
        "type": "Point"
      }
    },
    {
      "type": "Feature",
      "properties": {
        "name": "Wotu"
      },
      "geometry": {
        "coordinates": [
          120.804,
          -2.5906
        ],
        "type": "Point"
      }
    },
    {
      "type": "Feature",
      "properties": {
        "name": "Wori"
      },
      "geometry": {
        "coordinates": [
          124.85246,
          1.59714
        ],
        "type": "Point"
      }
    },
    {
      "type": "Feature",
      "properties": {
        "name": "Wonorejo"
      },
      "geometry": {
        "coordinates": [
          120.8126,
          -2.4937
        ],
        "type": "Point"
      }
    },
    {
      "type": "Feature",
      "properties": {
        "name": "Wolowiro"
      },
      "geometry": {
        "coordinates": [
          122.0136,
          -8.7803
        ],
        "type": "Point"
      }
    },
    {
      "type": "Feature",
      "properties": {
        "name": "Wolowaru"
      },
      "geometry": {
        "coordinates": [
          121.886,
          -8.7835
        ],
        "type": "Point"
      }
    },
    {
      "type": "Feature",
      "properties": {
        "name": "Wolosoko"
      },
      "geometry": {
        "coordinates": [
          121.7107,
          -8.8531
        ],
        "type": "Point"
      }
    },
    {
      "type": "Feature",
      "properties": {
        "name": "Wolo"
      },
      "geometry": {
        "coordinates": [
          122.8539,
          -8.4045
        ],
        "type": "Point"
      }
    },
    {
      "type": "Feature",
      "properties": {
        "name": "Witihama"
      },
      "geometry": {
        "coordinates": [
          123.2627,
          -8.2996
        ],
        "type": "Point"
      }
    },
    {
      "type": "Feature",
      "properties": {
        "name": "Wera"
      },
      "geometry": {
        "coordinates": [
          120.72,
          -8.34
        ],
        "type": "Point"
      }
    },
    {
      "type": "Feature",
      "properties": {
        "name": "Wekmurak"
      },
      "geometry": {
        "coordinates": [
          124.7199,
          -9.5622
        ],
        "type": "Point"
      }
    },
    {
      "type": "Feature",
      "properties": {
        "name": "Waworada"
      },
      "geometry": {
        "coordinates": [
          118.7991,
          -8.6995
        ],
        "type": "Point"
      }
    },
    {
      "type": "Feature",
      "properties": {
        "name": "Watuapi"
      },
      "geometry": {
        "coordinates": [
          121.4203,
          -8.6122
        ],
        "type": "Point"
      }
    },
    {
      "type": "Feature",
      "properties": {
        "name": "Watansoppeng"
      },
      "geometry": {
        "coordinates": [
          119.8841,
          -4.3522
        ],
        "type": "Point"
      }
    },
    {
      "type": "Feature",
      "properties": {
        "name": "Watampone"
      },
      "geometry": {
        "coordinates": [
          120.3279,
          -4.5386
        ],
        "type": "Point"
      }
    },
    {
      "type": "Feature",
      "properties": {
        "name": "Wanci"
      },
      "geometry": {
        "coordinates": [
          123.5388,
          -5.3271
        ],
        "type": "Point"
      }
    },
    {
      "type": "Feature",
      "properties": {
        "name": "Waiwerang"
      },
      "geometry": {
        "coordinates": [
          123.1648,
          -8.3884
        ],
        "type": "Point"
      }
    },
    {
      "type": "Feature",
      "properties": {
        "name": "Weetobula"
      },
      "geometry": {
        "coordinates": [
          119.2323,
          -9.4413
        ],
        "type": "Point"
      }
    },
    {
      "type": "Feature",
      "properties": {
        "name": "Waigete"
      },
      "geometry": {
        "coordinates": [
          122.4198,
          -8.6127
        ],
        "type": "Point"
      }
    },
    {
      "type": "Feature",
      "properties": {
        "name": "Waipukang"
      },
      "geometry": {
        "coordinates": [
          123.4638,
          -8.3207
        ],
        "type": "Point"
      }
    },
    {
      "type": "Feature",
      "properties": {
        "name": "Waioti"
      },
      "geometry": {
        "coordinates": [
          122.2413,
          -8.6308
        ],
        "type": "Point"
      }
    },
    {
      "type": "Feature",
      "properties": {
        "name": "Waingapu"
      },
      "geometry": {
        "coordinates": [
          120.2641,
          -9.6567
        ],
        "type": "Point"
      }
    },
    {
      "type": "Feature",
      "properties": {
        "name": "Waimangura"
      },
      "geometry": {
        "coordinates": [
          119.2377,
          -9.5098
        ],
        "type": "Point"
      }
    },
    {
      "type": "Feature",
      "properties": {
        "name": "Wailebe"
      },
      "geometry": {
        "coordinates": [
          123.0005,
          -8.3695
        ],
        "type": "Point"
      }
    },
    {
      "type": "Feature",
      "properties": {
        "name": "Waikabubak"
      },
      "geometry": {
        "coordinates": [
          119.3889,
          -9.6475
        ],
        "type": "Point"
      }
    },
    {
      "type": "Feature",
      "properties": {
        "name": "Waibalun"
      },
      "geometry": {
        "coordinates": [
          122.9542,
          -8.3453
        ],
        "type": "Point"
      }
    },
    {
      "type": "Feature",
      "properties": {
        "name": "Waibakul"
      },
      "geometry": {
        "coordinates": [
          119.41333,
          -9.63556
        ],
        "type": "Point"
      }
    },
    {
      "type": "Feature",
      "properties": {
        "name": "Utan"
      },
      "geometry": {
        "coordinates": [
          117.1332,
          -8.4129
        ],
        "type": "Point"
      }
    },
    {
      "type": "Feature",
      "properties": {
        "name": "Uluwolo"
      },
      "geometry": {
        "coordinates": [
          121.2908,
          -8.5753
        ],
        "type": "Point"
      }
    },
    {
      "type": "Feature",
      "properties": {
        "name": "Kolaka"
      },
      "geometry": {
        "coordinates": [
          121.60556,
          -4.0597
        ],
        "type": "Point"
      }
    },
    {
      "type": "Feature",
      "properties": {
        "name": "Ulu"
      },
      "geometry": {
        "coordinates": [
          125.39375,
          2.70363
        ],
        "type": "Point"
      }
    },
    {
      "type": "Feature",
      "properties": {
        "name": "Makassar"
      },
      "geometry": {
        "coordinates": [
          119.43194,
          -5.14861
        ],
        "type": "Point"
      }
    },
    {
      "type": "Feature",
      "properties": {
        "name": "Ujoh Bilang"
      },
      "geometry": {
        "coordinates": [
          115.25,
          0.55
        ],
        "type": "Point"
      }
    },
    {
      "type": "Feature",
      "properties": {
        "name": "Ubud"
      },
      "geometry": {
        "coordinates": [
          115.2654,
          -8.5098
        ],
        "type": "Point"
      }
    },
    {
      "type": "Feature",
      "properties": {
        "name": "Terong"
      },
      "geometry": {
        "coordinates": [
          123.1404,
          -8.3911
        ],
        "type": "Point"
      }
    },
    {
      "type": "Feature",
      "properties": {
        "name": "Toyapakeh"
      },
      "geometry": {
        "coordinates": [
          115.488,
          -8.682
        ],
        "type": "Point"
      }
    },
    {
      "type": "Feature",
      "properties": {
        "name": "Tangga"
      },
      "geometry": {
        "coordinates": [
          118.6937,
          -8.656
        ],
        "type": "Point"
      }
    },
    {
      "type": "Feature",
      "properties": {
        "name": "Tondano"
      },
      "geometry": {
        "coordinates": [
          124.91261,
          1.3054
        ],
        "type": "Point"
      }
    },
    {
      "type": "Feature",
      "properties": {
        "name": "Tomohon"
      },
      "geometry": {
        "coordinates": [
          124.80379,
          1.31678
        ],
        "type": "Point"
      }
    },
    {
      "type": "Feature",
      "properties": {
        "name": "Tombatu"
      },
      "geometry": {
        "coordinates": [
          124.68362,
          1.04168
        ],
        "type": "Point"
      }
    },
    {
      "type": "Feature",
      "properties": {
        "name": "Tolitoli"
      },
      "geometry": {
        "coordinates": [
          120.8169,
          1.0392
        ],
        "type": "Point"
      }
    },
    {
      "type": "Feature",
      "properties": {
        "name": "Tokojaeng"
      },
      "geometry": {
        "coordinates": [
          123.5469,
          -8.258
        ],
        "type": "Point"
      }
    },
    {
      "type": "Feature",
      "properties": {
        "name": "Tinabogan"
      },
      "geometry": {
        "coordinates": [
          120.5264,
          0.7823
        ],
        "type": "Point"
      }
    },
    {
      "type": "Feature",
      "properties": {
        "name": "Tilamuta"
      },
      "geometry": {
        "coordinates": [
          122.3463,
          0.5273
        ],
        "type": "Point"
      }
    },
    {
      "type": "Feature",
      "properties": {
        "name": "Tideng Pale"
      },
      "geometry": {
        "coordinates": [
          116.90668,
          3.60815
        ],
        "type": "Point"
      }
    },
    {
      "type": "Feature",
      "properties": {
        "name": "Teta Satu"
      },
      "geometry": {
        "coordinates": [
          118.8028,
          -8.5685
        ],
        "type": "Point"
      }
    },
    {
      "type": "Feature",
      "properties": {
        "name": "Tepas"
      },
      "geometry": {
        "coordinates": [
          116.91667,
          -8.71667
        ],
        "type": "Point"
      }
    },
    {
      "type": "Feature",
      "properties": {
        "name": "Tepal"
      },
      "geometry": {
        "coordinates": [
          117.1787,
          -8.6261
        ],
        "type": "Point"
      }
    },
    {
      "type": "Feature",
      "properties": {
        "name": "Tentena"
      },
      "geometry": {
        "coordinates": [
          120.648,
          -1.7562
        ],
        "type": "Point"
      }
    },
    {
      "type": "Feature",
      "properties": {
        "name": "Tenga"
      },
      "geometry": {
        "coordinates": [
          124.43929,
          1.16146
        ],
        "type": "Point"
      }
    },
    {
      "type": "Feature",
      "properties": {
        "name": "Teluksantong"
      },
      "geometry": {
        "coordinates": [
          117.8884,
          -8.7218
        ],
        "type": "Point"
      }
    },
    {
      "type": "Feature",
      "properties": {
        "name": "Tegalalang"
      },
      "geometry": {
        "coordinates": [
          115.2792,
          -8.4366
        ],
        "type": "Point"
      }
    },
    {
      "type": "Feature",
      "properties": {
        "name": "Tatelu"
      },
      "geometry": {
        "coordinates": [
          124.94765,
          1.5307
        ],
        "type": "Point"
      }
    },
    {
      "type": "Feature",
      "properties": {
        "name": "Taramana"
      },
      "geometry": {
        "coordinates": [
          124.8507,
          -8.1675
        ],
        "type": "Point"
      }
    },
    {
      "type": "Feature",
      "properties": {
        "name": "Tarakan"
      },
      "geometry": {
        "coordinates": [
          117.59152,
          3.31332
        ],
        "type": "Point"
      }
    },
    {
      "type": "Feature",
      "properties": {
        "name": "Tapalang"
      },
      "geometry": {
        "coordinates": [
          118.8672,
          -2.8637
        ],
        "type": "Point"
      }
    },
    {
      "type": "Feature",
      "properties": {
        "name": "Tanjung Selor"
      },
      "geometry": {
        "coordinates": [
          117.36528,
          2.8375
        ],
        "type": "Point"
      }
    },
    {
      "type": "Feature",
      "properties": {
        "name": "Tanjungluar"
      },
      "geometry": {
        "coordinates": [
          116.5177,
          -8.7752
        ],
        "type": "Point"
      }
    },
    {
      "type": "Feature",
      "properties": {
        "name": "Tanjungbatu"
      },
      "geometry": {
        "coordinates": [
          116.2227,
          -3.0002
        ],
        "type": "Point"
      }
    },
    {
      "type": "Feature",
      "properties": {
        "name": "Tanjung"
      },
      "geometry": {
        "coordinates": [
          116.1565,
          -8.356
        ],
        "type": "Point"
      }
    },
    {
      "type": "Feature",
      "properties": {
        "name": "Tanjung"
      },
      "geometry": {
        "coordinates": [
          115.4077,
          -2.1709
        ],
        "type": "Point"
      }
    },
    {
      "type": "Feature",
      "properties": {
        "name": "Tanglad"
      },
      "geometry": {
        "coordinates": [
          115.5831,
          -8.7737
        ],
        "type": "Point"
      }
    },
    {
      "type": "Feature",
      "properties": {
        "name": "Tanahwangko"
      },
      "geometry": {
        "coordinates": [
          124.68227,
          1.39368
        ],
        "type": "Point"
      }
    },
    {
      "type": "Feature",
      "properties": {
        "name": "Tana Paser"
      },
      "geometry": {
        "coordinates": [
          116.1913,
          -1.9051
        ],
        "type": "Point"
      }
    },
    {
      "type": "Feature",
      "properties": {
        "name": "Tamalabang"
      },
      "geometry": {
        "coordinates": [
          124.2572,
          -8.3527
        ],
        "type": "Point"
      }
    },
    {
      "type": "Feature",
      "properties": {
        "name": "Tamako"
      },
      "geometry": {
        "coordinates": [
          125.52696,
          3.44589
        ],
        "type": "Point"
      }
    },
    {
      "type": "Feature",
      "properties": {
        "name": "Taliwang"
      },
      "geometry": {
        "coordinates": [
          116.8532,
          -8.7449
        ],
        "type": "Point"
      }
    },
    {
      "type": "Feature",
      "properties": {
        "name": "Talise"
      },
      "geometry": {
        "coordinates": [
          125.06949,
          1.83344
        ],
        "type": "Point"
      }
    },
    {
      "type": "Feature",
      "properties": {
        "name": "Takalar"
      },
      "geometry": {
        "coordinates": [
          119.4384,
          -5.4258
        ],
        "type": "Point"
      }
    },
    {
      "type": "Feature",
      "properties": {
        "name": "Tagolu"
      },
      "geometry": {
        "coordinates": [
          120.7731,
          -1.4393
        ],
        "type": "Point"
      }
    },
    {
      "type": "Feature",
      "properties": {
        "name": "Taccipi"
      },
      "geometry": {
        "coordinates": [
          120.1842,
          -4.5066
        ],
        "type": "Point"
      }
    },
    {
      "type": "Feature",
      "properties": {
        "name": "Tabanan"
      },
      "geometry": {
        "coordinates": [
          115.12522,
          -8.5413
        ],
        "type": "Point"
      }
    },
    {
      "type": "Feature",
      "properties": {
        "name": "Banjar Susut Kaja"
      },
      "geometry": {
        "coordinates": [
          115.3301,
          -8.4368
        ],
        "type": "Point"
      }
    },
    {
      "type": "Feature",
      "properties": {
        "name": "Lasusua"
      },
      "geometry": {
        "coordinates": [
          120.8844,
          -3.5105
        ],
        "type": "Point"
      }
    },
    {
      "type": "Feature",
      "properties": {
        "name": "Sungguminasa"
      },
      "geometry": {
        "coordinates": [
          119.451,
          -5.1971
        ],
        "type": "Point"
      }
    },
    {
      "type": "Feature",
      "properties": {
        "name": "Sungairaya"
      },
      "geometry": {
        "coordinates": [
          115.2474,
          -2.8566
        ],
        "type": "Point"
      }
    },
    {
      "type": "Feature",
      "properties": {
        "name": "Sungaikupang"
      },
      "geometry": {
        "coordinates": [
          115.9918,
          -3.0438
        ],
        "type": "Point"
      }
    },
    {
      "type": "Feature",
      "properties": {
        "name": "Sungaibali"
      },
      "geometry": {
        "coordinates": [
          116.4044,
          -3.4027
        ],
        "type": "Point"
      }
    },
    {
      "type": "Feature",
      "properties": {
        "name": "Sumbawa Besar"
      },
      "geometry": {
        "coordinates": [
          117.42024,
          -8.49317
        ],
        "type": "Point"
      }
    },
    {
      "type": "Feature",
      "properties": {
        "name": "Sukasada"
      },
      "geometry": {
        "coordinates": [
          115.1031,
          -8.1395
        ],
        "type": "Point"
      }
    },
    {
      "type": "Feature",
      "properties": {
        "name": "Stagen"
      },
      "geometry": {
        "coordinates": [
          116.1779,
          -3.3049
        ],
        "type": "Point"
      }
    },
    {
      "type": "Feature",
      "properties": {
        "name": "Sowa"
      },
      "geometry": {
        "coordinates": [
          118.69009,
          -8.37509
        ],
        "type": "Point"
      }
    },
    {
      "type": "Feature",
      "properties": {
        "name": "Sondo"
      },
      "geometry": {
        "coordinates": [
          118.665,
          -8.7455
        ],
        "type": "Point"
      }
    },
    {
      "type": "Feature",
      "properties": {
        "name": "Sonder"
      },
      "geometry": {
        "coordinates": [
          124.77945,
          1.25474
        ],
        "type": "Point"
      }
    },
    {
      "type": "Feature",
      "properties": {
        "name": "Somba"
      },
      "geometry": {
        "coordinates": [
          118.8475,
          -3.3772
        ],
        "type": "Point"
      }
    },
    {
      "type": "Feature",
      "properties": {
        "name": "Soe"
      },
      "geometry": {
        "coordinates": [
          124.28395,
          -9.86071
        ],
        "type": "Point"
      }
    },
    {
      "type": "Feature",
      "properties": {
        "name": "Siwa"
      },
      "geometry": {
        "coordinates": [
          120.4156,
          -3.6999
        ],
        "type": "Point"
      }
    },
    {
      "type": "Feature",
      "properties": {
        "name": "Sinjai"
      },
      "geometry": {
        "coordinates": [
          120.253,
          -5.1241
        ],
        "type": "Point"
      }
    },
    {
      "type": "Feature",
      "properties": {
        "name": "Sengkang"
      },
      "geometry": {
        "coordinates": [
          120.0297,
          -4.1279
        ],
        "type": "Point"
      }
    },
    {
      "type": "Feature",
      "properties": {
        "name": "Singaraja"
      },
      "geometry": {
        "coordinates": [
          115.08818,
          -8.112
        ],
        "type": "Point"
      }
    },
    {
      "type": "Feature",
      "properties": {
        "name": "Simu"
      },
      "geometry": {
        "coordinates": [
          117.6898,
          -8.6686
        ],
        "type": "Point"
      }
    },
    {
      "type": "Feature",
      "properties": {
        "name": "Simpur"
      },
      "geometry": {
        "coordinates": [
          115.2666,
          -2.8281
        ],
        "type": "Point"
      }
    },
    {
      "type": "Feature",
      "properties": {
        "name": "Simpangempat"
      },
      "geometry": {
        "coordinates": [
          115.0293,
          -3.2785
        ],
        "type": "Point"
      }
    },
    {
      "type": "Feature",
      "properties": {
        "name": "Sila"
      },
      "geometry": {
        "coordinates": [
          118.62,
          -8.5025
        ],
        "type": "Point"
      }
    },
    {
      "type": "Feature",
      "properties": {
        "name": "Sikka"
      },
      "geometry": {
        "coordinates": [
          122.1961,
          -8.7494
        ],
        "type": "Point"
      }
    },
    {
      "type": "Feature",
      "properties": {
        "name": "Seteluk"
      },
      "geometry": {
        "coordinates": [
          116.86674,
          -8.62549
        ],
        "type": "Point"
      }
    },
    {
      "type": "Feature",
      "properties": {
        "name": "Sesayap"
      },
      "geometry": {
        "coordinates": [
          117.00765,
          3.58525
        ],
        "type": "Point"
      }
    },
    {
      "type": "Feature",
      "properties": {
        "name": "Sepit"
      },
      "geometry": {
        "coordinates": [
          116.4607,
          -8.7418
        ],
        "type": "Point"
      }
    },
    {
      "type": "Feature",
      "properties": {
        "name": "Sepang"
      },
      "geometry": {
        "coordinates": [
          114.9171,
          -8.3089
        ],
        "type": "Point"
      }
    },
    {
      "type": "Feature",
      "properties": {
        "name": "Sangatta"
      },
      "geometry": {
        "coordinates": [
          117.5279,
          0.5049
        ],
        "type": "Point"
      }
    },
    {
      "type": "Feature",
      "properties": {
        "name": "Semongkat"
      },
      "geometry": {
        "coordinates": [
          117.3193,
          -8.5721
        ],
        "type": "Point"
      }
    },
    {
      "type": "Feature",
      "properties": {
        "name": "Sembalunlawang"
      },
      "geometry": {
        "coordinates": [
          116.5339,
          -8.3635
        ],
        "type": "Point"
      }
    },
    {
      "type": "Feature",
      "properties": {
        "name": "Sembalunbumbung"
      },
      "geometry": {
        "coordinates": [
          116.5447,
          -8.3852
        ],
        "type": "Point"
      }
    },
    {
      "type": "Feature",
      "properties": {
        "name": "Sembakung"
      },
      "geometry": {
        "coordinates": [
          117.25,
          3.81667
        ],
        "type": "Point"
      }
    },
    {
      "type": "Feature",
      "properties": {
        "name": "Semamung"
      },
      "geometry": {
        "coordinates": [
          117.4288,
          -8.6515
        ],
        "type": "Point"
      }
    },
    {
      "type": "Feature",
      "properties": {
        "name": "Selong"
      },
      "geometry": {
        "coordinates": [
          116.5318,
          -8.6503
        ],
        "type": "Point"
      }
    },
    {
      "type": "Feature",
      "properties": {
        "name": "Selebung"
      },
      "geometry": {
        "coordinates": [
          116.482,
          -8.7651
        ],
        "type": "Point"
      }
    },
    {
      "type": "Feature",
      "properties": {
        "name": "Sekongkang Bawah"
      },
      "geometry": {
        "coordinates": [
          116.74917,
          -8.9659
        ],
        "type": "Point"
      }
    },
    {
      "type": "Feature",
      "properties": {
        "name": "Sebulu"
      },
      "geometry": {
        "coordinates": [
          116.99835,
          -0.27393
        ],
        "type": "Point"
      }
    },
    {
      "type": "Feature",
      "properties": {
        "name": "Sebuku"
      },
      "geometry": {
        "coordinates": [
          117.03456,
          4.00232
        ],
        "type": "Point"
      }
    },
    {
      "type": "Feature",
      "properties": {
        "name": "Satui"
      },
      "geometry": {
        "coordinates": [
          115.4575,
          -3.7818
        ],
        "type": "Point"
      }
    },
    {
      "type": "Feature",
      "properties": {
        "name": "Sape"
      },
      "geometry": {
        "coordinates": [
          118.98333,
          -8.56667
        ],
        "type": "Point"
      }
    },
    {
      "type": "Feature",
      "properties": {
        "name": "Sangkulirang"
      },
      "geometry": {
        "coordinates": [
          117.9803,
          0.977
        ],
        "type": "Point"
      }
    },
    {
      "type": "Feature",
      "properties": {
        "name": "Kore"
      },
      "geometry": {
        "coordinates": [
          118.29876,
          -8.37599
        ],
        "type": "Point"
      }
    },
    {
      "type": "Feature",
      "properties": {
        "name": "Sangasangadalam"
      },
      "geometry": {
        "coordinates": [
          117.2365,
          -0.6624
        ],
        "type": "Point"
      }
    },
    {
      "type": "Feature",
      "properties": {
        "name": "Sampungu"
      },
      "geometry": {
        "coordinates": [
          118.5442,
          -8.2655
        ],
        "type": "Point"
      }
    },
    {
      "type": "Feature",
      "properties": {
        "name": "Sampalan"
      },
      "geometry": {
        "coordinates": [
          115.5586,
          -8.6736
        ],
        "type": "Point"
      }
    },
    {
      "type": "Feature",
      "properties": {
        "name": "Samboja"
      },
      "geometry": {
        "coordinates": [
          117.03333,
          -1.03333
        ],
        "type": "Point"
      }
    },
    {
      "type": "Feature",
      "properties": {
        "name": "Samarinda"
      },
      "geometry": {
        "coordinates": [
          117.14583,
          -0.49167
        ],
        "type": "Point"
      }
    },
    {
      "type": "Feature",
      "properties": {
        "name": "Tanjungsamalantakan"
      },
      "geometry": {
        "coordinates": [
          116.4099,
          -2.5818
        ],
        "type": "Point"
      }
    },
    {
      "type": "Feature",
      "properties": {
        "name": "Salinbatu"
      },
      "geometry": {
        "coordinates": [
          117.34343,
          2.94051
        ],
        "type": "Point"
      }
    },
    {
      "type": "Feature",
      "properties": {
        "name": "Salakan"
      },
      "geometry": {
        "coordinates": [
          123.2909,
          -1.3085
        ],
        "type": "Point"
      }
    },
    {
      "type": "Feature",
      "properties": {
        "name": "Sakra"
      },
      "geometry": {
        "coordinates": [
          116.462,
          -8.6831
        ],
        "type": "Point"
      }
    },
    {
      "type": "Feature",
      "properties": {
        "name": "Sai"
      },
      "geometry": {
        "coordinates": [
          118.6591,
          -8.3155
        ],
        "type": "Point"
      }
    },
    {
      "type": "Feature",
      "properties": {
        "name": "Sebewe"
      },
      "geometry": {
        "coordinates": [
          117.4788,
          -8.4788
        ],
        "type": "Point"
      }
    },
    {
      "type": "Feature",
      "properties": {
        "name": "Ruteng"
      },
      "geometry": {
        "coordinates": [
          120.46444,
          -8.61139
        ],
        "type": "Point"
      }
    },
    {
      "type": "Feature",
      "properties": {
        "name": "Rumbia"
      },
      "geometry": {
        "coordinates": [
          122.00472,
          -4.62767
        ],
        "type": "Point"
      }
    },
    {
      "type": "Feature",
      "properties": {
        "name": "Riung"
      },
      "geometry": {
        "coordinates": [
          121.0256,
          -8.4213
        ],
        "type": "Point"
      }
    },
    {
      "type": "Feature",
      "properties": {
        "name": "Riangbao"
      },
      "geometry": {
        "coordinates": [
          123.4519,
          -8.3014
        ],
        "type": "Point"
      }
    },
    {
      "type": "Feature",
      "properties": {
        "name": "Reo"
      },
      "geometry": {
        "coordinates": [
          120.4893,
          -8.3098
        ],
        "type": "Point"
      }
    },
    {
      "type": "Feature",
      "properties": {
        "name": "Rego"
      },
      "geometry": {
        "coordinates": [
          120.2565,
          -8.4266
        ],
        "type": "Point"
      }
    },
    {
      "type": "Feature",
      "properties": {
        "name": "Ratahan"
      },
      "geometry": {
        "coordinates": [
          124.8012,
          1.0549
        ],
        "type": "Point"
      }
    },
    {
      "type": "Feature",
      "properties": {
        "name": "Rarang Selatan"
      },
      "geometry": {
        "coordinates": [
          116.3937,
          -8.6387
        ],
        "type": "Point"
      }
    },
    {
      "type": "Feature",
      "properties": {
        "name": "Rappang"
      },
      "geometry": {
        "coordinates": [
          119.8173,
          -3.8445
        ],
        "type": "Point"
      }
    },
    {
      "type": "Feature",
      "properties": {
        "name": "Rantepao"
      },
      "geometry": {
        "coordinates": [
          119.8978,
          -2.9701
        ],
        "type": "Point"
      }
    },
    {
      "type": "Feature",
      "properties": {
        "name": "Rantau"
      },
      "geometry": {
        "coordinates": [
          115.1621,
          -2.9334
        ],
        "type": "Point"
      }
    },
    {
      "type": "Feature",
      "properties": {
        "name": "Rainis"
      },
      "geometry": {
        "coordinates": [
          126.86129,
          4.23282
        ],
        "type": "Point"
      }
    },
    {
      "type": "Feature",
      "properties": {
        "name": "Raha"
      },
      "geometry": {
        "coordinates": [
          122.7209,
          -4.838
        ],
        "type": "Point"
      }
    },
    {
      "type": "Feature",
      "properties": {
        "name": "Raba"
      },
      "geometry": {
        "coordinates": [
          118.747,
          -8.4613
        ],
        "type": "Point"
      }
    },
    {
      "type": "Feature",
      "properties": {
        "name": "Pretana"
      },
      "geometry": {
        "coordinates": [
          119.6441,
          -9.6161
        ],
        "type": "Point"
      }
    },
    {
      "type": "Feature",
      "properties": {
        "name": "Praya"
      },
      "geometry": {
        "coordinates": [
          116.27036,
          -8.70536
        ],
        "type": "Point"
      }
    },
    {
      "type": "Feature",
      "properties": {
        "name": "Pota"
      },
      "geometry": {
        "coordinates": [
          120.7607,
          -8.3414
        ],
        "type": "Point"
      }
    },
    {
      "type": "Feature",
      "properties": {
        "name": "Poso"
      },
      "geometry": {
        "coordinates": [
          120.7524,
          -1.3959
        ],
        "type": "Point"
      }
    },
    {
      "type": "Feature",
      "properties": {
        "name": "Popnam"
      },
      "geometry": {
        "coordinates": [
          124.5315,
          -9.6248
        ],
        "type": "Point"
      }
    },
    {
      "type": "Feature",
      "properties": {
        "name": "Polewali"
      },
      "geometry": {
        "coordinates": [
          119.3435,
          -3.4324
        ],
        "type": "Point"
      }
    },
    {
      "type": "Feature",
      "properties": {
        "name": "Poigar"
      },
      "geometry": {
        "coordinates": [
          124.30894,
          1.02082
        ],
        "type": "Point"
      }
    },
    {
      "type": "Feature",
      "properties": {
        "name": "Plampang"
      },
      "geometry": {
        "coordinates": [
          117.7791,
          -8.7974
        ],
        "type": "Point"
      }
    },
    {
      "type": "Feature",
      "properties": {
        "name": "Pinrang"
      },
      "geometry": {
        "coordinates": [
          119.65222,
          -3.78611
        ],
        "type": "Point"
      }
    },
    {
      "type": "Feature",
      "properties": {
        "name": "Pineleng"
      },
      "geometry": {
        "coordinates": [
          124.83865,
          1.42422
        ],
        "type": "Point"
      }
    },
    {
      "type": "Feature",
      "properties": {
        "name": "Pimpi"
      },
      "geometry": {
        "coordinates": [
          123.5502,
          0.8825
        ],
        "type": "Point"
      }
    },
    {
      "type": "Feature",
      "properties": {
        "name": "Peuara"
      },
      "geometry": {
        "coordinates": [
          123.7505,
          -8.2444
        ],
        "type": "Point"
      }
    },
    {
      "type": "Feature",
      "properties": {
        "name": "Pangaron"
      },
      "geometry": {
        "coordinates": [
          115.1961,
          -3.3101
        ],
        "type": "Point"
      }
    },
    {
      "type": "Feature",
      "properties": {
        "name": "Penebel"
      },
      "geometry": {
        "coordinates": [
          115.1454,
          -8.4205
        ],
        "type": "Point"
      }
    },
    {
      "type": "Feature",
      "properties": {
        "name": "Pendolo"
      },
      "geometry": {
        "coordinates": [
          120.6851,
          -2.0746
        ],
        "type": "Point"
      }
    },
    {
      "type": "Feature",
      "properties": {
        "name": "Pelaihari"
      },
      "geometry": {
        "coordinates": [
          114.7788,
          -3.7987
        ],
        "type": "Point"
      }
    },
    {
      "type": "Feature",
      "properties": {
        "name": "Pecatu"
      },
      "geometry": {
        "coordinates": [
          115.1247,
          -8.8323
        ],
        "type": "Point"
      }
    },
    {
      "type": "Feature",
      "properties": {
        "name": "Payunga"
      },
      "geometry": {
        "coordinates": [
          122.9519,
          0.5632
        ],
        "type": "Point"
      }
    },
    {
      "type": "Feature",
      "properties": {
        "name": "Pemenang"
      },
      "geometry": {
        "coordinates": [
          116.10255,
          -8.40401
        ],
        "type": "Point"
      }
    },
    {
      "type": "Feature",
      "properties": {
        "name": "Pototano"
      },
      "geometry": {
        "coordinates": [
          117.4811,
          -8.4126
        ],
        "type": "Point"
      }
    },
    {
      "type": "Feature",
      "properties": {
        "name": "Patawang"
      },
      "geometry": {
        "coordinates": [
          120.6225,
          -9.8107
        ],
        "type": "Point"
      }
    },
    {
      "type": "Feature",
      "properties": {
        "name": "Passi"
      },
      "geometry": {
        "coordinates": [
          124.2982,
          0.7655
        ],
        "type": "Point"
      }
    },
    {
      "type": "Feature",
      "properties": {
        "name": "Pasar Wajo"
      },
      "geometry": {
        "coordinates": [
          122.8447,
          -5.4957
        ],
        "type": "Point"
      }
    },
    {
      "type": "Feature",
      "properties": {
        "name": "Paringin"
      },
      "geometry": {
        "coordinates": [
          115.4749,
          -2.3357
        ],
        "type": "Point"
      }
    },
    {
      "type": "Feature",
      "properties": {
        "name": "Parigi"
      },
      "geometry": {
        "coordinates": [
          120.1768,
          -0.8156
        ],
        "type": "Point"
      }
    },
    {
      "type": "Feature",
      "properties": {
        "name": "Parepare"
      },
      "geometry": {
        "coordinates": [
          119.6255,
          -4.0135
        ],
        "type": "Point"
      }
    },
    {
      "type": "Feature",
      "properties": {
        "name": "Papilawe"
      },
      "geometry": {
        "coordinates": [
          123.1609,
          -8.3153
        ],
        "type": "Point"
      }
    },
    {
      "type": "Feature",
      "properties": {
        "name": "Pantaihambawang"
      },
      "geometry": {
        "coordinates": [
          115.33087,
          -2.64659
        ],
        "type": "Point"
      }
    },
    {
      "type": "Feature",
      "properties": {
        "name": "Pantai"
      },
      "geometry": {
        "coordinates": [
          116.1353,
          -3.1313
        ],
        "type": "Point"
      }
    },
    {
      "type": "Feature",
      "properties": {
        "name": "Pangkajene"
      },
      "geometry": {
        "coordinates": [
          119.5472,
          -4.8372
        ],
        "type": "Point"
      }
    },
    {
      "type": "Feature",
      "properties": {
        "name": "Penajam"
      },
      "geometry": {
        "coordinates": [
          116.76968,
          -1.24919
        ],
        "type": "Point"
      }
    },
    {
      "type": "Feature",
      "properties": {
        "name": "Pompanua"
      },
      "geometry": {
        "coordinates": [
          120.1484,
          -4.2254
        ],
        "type": "Point"
      }
    },
    {
      "type": "Feature",
      "properties": {
        "name": "Pamakayo"
      },
      "geometry": {
        "coordinates": [
          122.983,
          -8.4368
        ],
        "type": "Point"
      }
    },
    {
      "type": "Feature",
      "properties": {
        "name": "Palu"
      },
      "geometry": {
        "coordinates": [
          119.87083,
          -0.90833
        ],
        "type": "Point"
      }
    },
    {
      "type": "Feature",
      "properties": {
        "name": "Palopo"
      },
      "geometry": {
        "coordinates": [
          120.19694,
          -2.9925
        ],
        "type": "Point"
      }
    },
    {
      "type": "Feature",
      "properties": {
        "name": "Palla"
      },
      "geometry": {
        "coordinates": [
          119.3552,
          -9.5266
        ],
        "type": "Point"
      }
    },
    {
      "type": "Feature",
      "properties": {
        "name": "Palattae"
      },
      "geometry": {
        "coordinates": [
          120.1127,
          -4.9711
        ],
        "type": "Point"
      }
    },
    {
      "type": "Feature",
      "properties": {
        "name": "Palakka"
      },
      "geometry": {
        "coordinates": [
          120.2892,
          -4.5313
        ],
        "type": "Point"
      }
    },
    {
      "type": "Feature",
      "properties": {
        "name": "Kuaro"
      },
      "geometry": {
        "coordinates": [
          116.0797,
          -1.8198
        ],
        "type": "Point"
      }
    },
    {
      "type": "Feature",
      "properties": {
        "name": "Paitoko"
      },
      "geometry": {
        "coordinates": [
          124.8944,
          -8.3633
        ],
        "type": "Point"
      }
    },
    {
      "type": "Feature",
      "properties": {
        "name": "Pai"
      },
      "geometry": {
        "coordinates": [
          119.0255,
          -8.4316
        ],
        "type": "Point"
      }
    },
    {
      "type": "Feature",
      "properties": {
        "name": "Pagatan"
      },
      "geometry": {
        "coordinates": [
          115.9381,
          -3.6075
        ],
        "type": "Point"
      }
    },
    {
      "type": "Feature",
      "properties": {
        "name": "Pagat"
      },
      "geometry": {
        "coordinates": [
          115.4338,
          -2.6243
        ],
        "type": "Point"
      }
    },
    {
      "type": "Feature",
      "properties": {
        "name": "Paga"
      },
      "geometry": {
        "coordinates": [
          122.0455,
          -8.7766
        ],
        "type": "Point"
      }
    },
    {
      "type": "Feature",
      "properties": {
        "name": "Padangbatung"
      },
      "geometry": {
        "coordinates": [
          115.2912,
          -2.838
        ],
        "type": "Point"
      }
    },
    {
      "type": "Feature",
      "properties": {
        "name": "Padangbai"
      },
      "geometry": {
        "coordinates": [
          115.5072,
          -8.5317
        ],
        "type": "Point"
      }
    },
    {
      "type": "Feature",
      "properties": {
        "name": "Pacar"
      },
      "geometry": {
        "coordinates": [
          120.2011,
          -8.4824
        ],
        "type": "Point"
      }
    },
    {
      "type": "Feature",
      "properties": {
        "name": "Ondong Siau"
      },
      "geometry": {
        "coordinates": [
          125.3611,
          2.7473
        ],
        "type": "Point"
      }
    },
    {
      "type": "Feature",
      "properties": {
        "name": "Oetuke"
      },
      "geometry": {
        "coordinates": [
          124.5543,
          -9.9909
        ],
        "type": "Point"
      }
    },
    {
      "type": "Feature",
      "properties": {
        "name": "Nunhala"
      },
      "geometry": {
        "coordinates": [
          124.4923,
          -9.6218
        ],
        "type": "Point"
      }
    },
    {
      "type": "Feature",
      "properties": {
        "name": "Numba"
      },
      "geometry": {
        "coordinates": [
          121.5265,
          -8.8067
        ],
        "type": "Point"
      }
    },
    {
      "type": "Feature",
      "properties": {
        "name": "Nuhawala"
      },
      "geometry": {
        "coordinates": [
          124.2389,
          -8.3747
        ],
        "type": "Point"
      }
    },
    {
      "type": "Feature",
      "properties": {
        "name": "Ntonggu"
      },
      "geometry": {
        "coordinates": [
          118.761,
          -8.5302
        ],
        "type": "Point"
      }
    },
    {
      "type": "Feature",
      "properties": {
        "name": "Ntoke"
      },
      "geometry": {
        "coordinates": [
          118.9066,
          -8.4083
        ],
        "type": "Point"
      }
    },
    {
      "type": "Feature",
      "properties": {
        "name": "Noenoni"
      },
      "geometry": {
        "coordinates": [
          124.3737,
          -9.7297
        ],
        "type": "Point"
      }
    },
    {
      "type": "Feature",
      "properties": {
        "name": "Noemuti"
      },
      "geometry": {
        "coordinates": [
          124.495,
          -9.568
        ],
        "type": "Point"
      }
    },
    {
      "type": "Feature",
      "properties": {
        "name": "Noeltoko"
      },
      "geometry": {
        "coordinates": [
          124.3596,
          -9.5373
        ],
        "type": "Point"
      }
    },
    {
      "type": "Feature",
      "properties": {
        "name": "Nobo"
      },
      "geometry": {
        "coordinates": [
          122.7896,
          -8.4851
        ],
        "type": "Point"
      }
    },
    {
      "type": "Feature",
      "properties": {
        "name": "Nita"
      },
      "geometry": {
        "coordinates": [
          122.1706,
          -8.6782
        ],
        "type": "Point"
      }
    },
    {
      "type": "Feature",
      "properties": {
        "name": "Nikiniki"
      },
      "geometry": {
        "coordinates": [
          124.47649,
          -9.81361
        ],
        "type": "Point"
      }
    },
    {
      "type": "Feature",
      "properties": {
        "name": "Nggalak"
      },
      "geometry": {
        "coordinates": [
          120.3173,
          -8.3539
        ],
        "type": "Point"
      }
    },
    {
      "type": "Feature",
      "properties": {
        "name": "Nele"
      },
      "geometry": {
        "coordinates": [
          122.2144,
          -8.6767
        ],
        "type": "Point"
      }
    },
    {
      "type": "Feature",
      "properties": {
        "name": "Negara"
      },
      "geometry": {
        "coordinates": [
          114.61694,
          -8.35694
        ],
        "type": "Point"
      }
    },
    {
      "type": "Feature",
      "properties": {
        "name": "Nefoneut"
      },
      "geometry": {
        "coordinates": [
          123.7971,
          -9.7114
        ],
        "type": "Point"
      }
    },
    {
      "type": "Feature",
      "properties": {
        "name": "Nebe"
      },
      "geometry": {
        "coordinates": [
          122.5615,
          -8.4741
        ],
        "type": "Point"
      }
    },
    {
      "type": "Feature",
      "properties": {
        "name": "Detukeli"
      },
      "geometry": {
        "coordinates": [
          121.8195,
          -8.6318
        ],
        "type": "Point"
      }
    },
    {
      "type": "Feature",
      "properties": {
        "name": "Ndano"
      },
      "geometry": {
        "coordinates": [
          118.5407,
          -8.496
        ],
        "type": "Point"
      }
    },
    {
      "type": "Feature",
      "properties": {
        "name": "Narmada"
      },
      "geometry": {
        "coordinates": [
          116.202,
          -8.5912
        ],
        "type": "Point"
      }
    },
    {
      "type": "Feature",
      "properties": {
        "name": "Napu"
      },
      "geometry": {
        "coordinates": [
          119.92637,
          -9.39627
        ],
        "type": "Point"
      }
    },
    {
      "type": "Feature",
      "properties": {
        "name": "Nangaroro"
      },
      "geometry": {
        "coordinates": [
          121.3923,
          -8.7872
        ],
        "type": "Point"
      }
    },
    {
      "type": "Feature",
      "properties": {
        "name": "Nangaraba"
      },
      "geometry": {
        "coordinates": [
          118.7681,
          -8.3154
        ],
        "type": "Point"
      }
    },
    {
      "type": "Feature",
      "properties": {
        "name": "Kolo"
      },
      "geometry": {
        "coordinates": [
          118.7193,
          -8.3722
        ],
        "type": "Point"
      }
    },
    {
      "type": "Feature",
      "properties": {
        "name": "Nangalimang"
      },
      "geometry": {
        "coordinates": [
          122.2058,
          -8.6469
        ],
        "type": "Point"
      }
    },
    {
      "type": "Feature",
      "properties": {
        "name": "Nangalili"
      },
      "geometry": {
        "coordinates": [
          120.131,
          -8.7765
        ],
        "type": "Point"
      }
    },
    {
      "type": "Feature",
      "properties": {
        "name": "Nangahale"
      },
      "geometry": {
        "coordinates": [
          122.5065,
          -8.559
        ],
        "type": "Point"
      }
    },
    {
      "type": "Feature",
      "properties": {
        "name": "Muraloka"
      },
      "geometry": {
        "coordinates": [
          116.87932,
          -8.77213
        ],
        "type": "Point"
      }
    },
    {
      "type": "Feature",
      "properties": {
        "name": "Muer"
      },
      "geometry": {
        "coordinates": [
          117.7305,
          -8.749
        ],
        "type": "Point"
      }
    },
    {
      "type": "Feature",
      "properties": {
        "name": "Mungkin"
      },
      "geometry": {
        "coordinates": [
          117.12705,
          -8.75106
        ],
        "type": "Point"
      }
    },
    {
      "type": "Feature",
      "properties": {
        "name": "Munduk"
      },
      "geometry": {
        "coordinates": [
          115.07947,
          -8.26866
        ],
        "type": "Point"
      }
    },
    {
      "type": "Feature",
      "properties": {
        "name": "Mulankera"
      },
      "geometry": {
        "coordinates": [
          123.4854,
          -8.5162
        ],
        "type": "Point"
      }
    },
    {
      "type": "Feature",
      "properties": {
        "name": "Mukusaki"
      },
      "geometry": {
        "coordinates": [
          121.61671,
          -8.56533
        ],
        "type": "Point"
      }
    },
    {
      "type": "Feature",
      "properties": {
        "name": "Mujur"
      },
      "geometry": {
        "coordinates": [
          116.3548,
          -8.7617
        ],
        "type": "Point"
      }
    },
    {
      "type": "Feature",
      "properties": {
        "name": "Muarauya"
      },
      "geometry": {
        "coordinates": [
          115.595,
          -1.8875
        ],
        "type": "Point"
      }
    },
    {
      "type": "Feature",
      "properties": {
        "name": "Muarakomam"
      },
      "geometry": {
        "coordinates": [
          115.8129,
          -1.6785
        ],
        "type": "Point"
      }
    },
    {
      "type": "Feature",
      "properties": {
        "name": "Muarabadak"
      },
      "geometry": {
        "coordinates": [
          117.43523,
          -0.35085
        ],
        "type": "Point"
      }
    },
    {
      "type": "Feature",
      "properties": {
        "name": "Munse"
      },
      "geometry": {
        "coordinates": [
          123.2519,
          -4.0967
        ],
        "type": "Point"
      }
    },
    {
      "type": "Feature",
      "properties": {
        "name": "Molobulahe"
      },
      "geometry": {
        "coordinates": [
          122.5748,
          0.6326
        ],
        "type": "Point"
      }
    },
    {
      "type": "Feature",
      "properties": {
        "name": "Molibagu"
      },
      "geometry": {
        "coordinates": [
          123.9824,
          0.3862
        ],
        "type": "Point"
      }
    },
    {
      "type": "Feature",
      "properties": {
        "name": "Mensalong"
      },
      "geometry": {
        "coordinates": [
          116.74532,
          3.75883
        ],
        "type": "Point"
      }
    },
    {
      "type": "Feature",
      "properties": {
        "name": "Borong"
      },
      "geometry": {
        "coordinates": [
          120.60972,
          -8.8125
        ],
        "type": "Point"
      }
    },
    {
      "type": "Feature",
      "properties": {
        "name": "Mayong"
      },
      "geometry": {
        "coordinates": [
          114.9625,
          -8.2443
        ],
        "type": "Point"
      }
    },
    {
      "type": "Feature",
      "properties": {
        "name": "Mauponggo"
      },
      "geometry": {
        "coordinates": [
          121.2112,
          -8.8892
        ],
        "type": "Point"
      }
    },
    {
      "type": "Feature",
      "properties": {
        "name": "Maunura"
      },
      "geometry": {
        "coordinates": [
          121.364,
          -8.8819
        ],
        "type": "Point"
      }
    },
    {
      "type": "Feature",
      "properties": {
        "name": "Maundai"
      },
      "geometry": {
        "coordinates": [
          121.2901,
          -8.8993
        ],
        "type": "Point"
      }
    },
    {
      "type": "Feature",
      "properties": {
        "name": "Maumere"
      },
      "geometry": {
        "coordinates": [
          122.2111,
          -8.6199
        ],
        "type": "Point"
      }
    },
    {
      "type": "Feature",
      "properties": {
        "name": "Mataram"
      },
      "geometry": {
        "coordinates": [
          116.11667,
          -8.58333
        ],
        "type": "Point"
      }
    },
    {
      "type": "Feature",
      "properties": {
        "name": "Masbagik"
      },
      "geometry": {
        "coordinates": [
          116.4773,
          -8.622
        ],
        "type": "Point"
      }
    },
    {
      "type": "Feature",
      "properties": {
        "name": "Masamba"
      },
      "geometry": {
        "coordinates": [
          120.3279,
          -2.5537
        ],
        "type": "Point"
      }
    },
    {
      "type": "Feature",
      "properties": {
        "name": "Maronge"
      },
      "geometry": {
        "coordinates": [
          117.707,
          -8.6715
        ],
        "type": "Point"
      }
    },
    {
      "type": "Feature",
      "properties": {
        "name": "Martapura"
      },
      "geometry": {
        "coordinates": [
          114.8642,
          -3.4109
        ],
        "type": "Point"
      }
    },
    {
      "type": "Feature",
      "properties": {
        "name": "Maros"
      },
      "geometry": {
        "coordinates": [
          119.5727,
          -5.006
        ],
        "type": "Point"
      }
    },
    {
      "type": "Feature",
      "properties": {
        "name": "Buakayu"
      },
      "geometry": {
        "coordinates": [
          119.7232,
          -3.1995
        ],
        "type": "Point"
      }
    },
    {
      "type": "Feature",
      "properties": {
        "name": "Marisa"
      },
      "geometry": {
        "coordinates": [
          121.9386,
          0.4655
        ],
        "type": "Point"
      }
    },
    {
      "type": "Feature",
      "properties": {
        "name": "Marenteh"
      },
      "geometry": {
        "coordinates": [
          117.0181,
          -8.5472
        ],
        "type": "Point"
      }
    },
    {
      "type": "Feature",
      "properties": {
        "name": "Maria"
      },
      "geometry": {
        "coordinates": [
          118.84294,
          -8.52388
        ],
        "type": "Point"
      }
    },
    {
      "type": "Feature",
      "properties": {
        "name": "Marabahan"
      },
      "geometry": {
        "coordinates": [
          114.7687,
          -3.0136
        ],
        "type": "Point"
      }
    },
    {
      "type": "Feature",
      "properties": {
        "name": "Manuakalada"
      },
      "geometry": {
        "coordinates": [
          119.545,
          -9.4013
        ],
        "type": "Point"
      }
    },
    {
      "type": "Feature",
      "properties": {
        "name": "Mangkutana"
      },
      "geometry": {
        "coordinates": [
          120.812,
          -2.4894
        ],
        "type": "Point"
      }
    },
    {
      "type": "Feature",
      "properties": {
        "name": "Mangarang"
      },
      "geometry": {
        "coordinates": [
          126.75135,
          3.81284
        ],
        "type": "Point"
      }
    },
    {
      "type": "Feature",
      "properties": {
        "name": "Manganitu"
      },
      "geometry": {
        "coordinates": [
          125.51849,
          3.57622
        ],
        "type": "Point"
      }
    },
    {
      "type": "Feature",
      "properties": {
        "name": "Manalu"
      },
      "geometry": {
        "coordinates": [
          125.62302,
          3.51225
        ],
        "type": "Point"
      }
    },
    {
      "type": "Feature",
      "properties": {
        "name": "Manado"
      },
      "geometry": {
        "coordinates": [
          124.84892,
          1.48218
        ],
        "type": "Point"
      }
    },
    {
      "type": "Feature",
      "properties": {
        "name": "Mamuju"
      },
      "geometry": {
        "coordinates": [
          118.88611,
          -2.68056
        ],
        "type": "Point"
      }
    },
    {
      "type": "Feature",
      "properties": {
        "name": "Mambi"
      },
      "geometry": {
        "coordinates": [
          119.1747,
          -2.9505
        ],
        "type": "Point"
      }
    },
    {
      "type": "Feature",
      "properties": {
        "name": "Banjar Mambalkajanan"
      },
      "geometry": {
        "coordinates": [
          115.2234,
          -8.5506
        ],
        "type": "Point"
      }
    },
    {
      "type": "Feature",
      "properties": {
        "name": "Mamasa"
      },
      "geometry": {
        "coordinates": [
          119.3776,
          -2.942
        ],
        "type": "Point"
      }
    },
    {
      "type": "Feature",
      "properties": {
        "name": "Malili"
      },
      "geometry": {
        "coordinates": [
          121.0948,
          -2.6351
        ],
        "type": "Point"
      }
    },
    {
      "type": "Feature",
      "properties": {
        "name": "Makale"
      },
      "geometry": {
        "coordinates": [
          119.8539,
          -3.1019
        ],
        "type": "Point"
      }
    },
    {
      "type": "Feature",
      "properties": {
        "name": "Majene"
      },
      "geometry": {
        "coordinates": [
          118.9707,
          -3.5403
        ],
        "type": "Point"
      }
    },
    {
      "type": "Feature",
      "properties": {
        "name": "Maikawada"
      },
      "geometry": {
        "coordinates": [
          124.7128,
          -8.2816
        ],
        "type": "Point"
      }
    },
    {
      "type": "Feature",
      "properties": {
        "name": "Magepanda"
      },
      "geometry": {
        "coordinates": [
          122.0486,
          -8.5487
        ],
        "type": "Point"
      }
    },
    {
      "type": "Feature",
      "properties": {
        "name": "Luwuk"
      },
      "geometry": {
        "coordinates": [
          122.7875,
          -0.9516
        ],
        "type": "Point"
      }
    },
    {
      "type": "Feature",
      "properties": {
        "name": "Lunyuk Ode"
      },
      "geometry": {
        "coordinates": [
          117.216,
          -8.9709
        ],
        "type": "Point"
      }
    },
    {
      "type": "Feature",
      "properties": {
        "name": "Lopokloka"
      },
      "geometry": {
        "coordinates": [
          117.5475,
          -8.608
        ],
        "type": "Point"
      }
    },
    {
      "type": "Feature",
      "properties": {
        "name": "Long Pujungan"
      },
      "geometry": {
        "coordinates": [
          115.79478,
          2.58769
        ],
        "type": "Point"
      }
    },
    {
      "type": "Feature",
      "properties": {
        "name": "Longnawang"
      },
      "geometry": {
        "coordinates": [
          114.9013,
          1.78931
        ],
        "type": "Point"
      }
    },
    {
      "type": "Feature",
      "properties": {
        "name": "Longkali"
      },
      "geometry": {
        "coordinates": [
          116.3205,
          -1.5218
        ],
        "type": "Point"
      }
    },
    {
      "type": "Feature",
      "properties": {
        "name": "Longikis"
      },
      "geometry": {
        "coordinates": [
          116.2061,
          -1.5834
        ],
        "type": "Point"
      }
    },
    {
      "type": "Feature",
      "properties": {
        "name": "Labuan Lombok"
      },
      "geometry": {
        "coordinates": [
          116.66667,
          -8.5
        ],
        "type": "Point"
      }
    },
    {
      "type": "Feature",
      "properties": {
        "name": "Lolak"
      },
      "geometry": {
        "coordinates": [
          124.0098,
          0.8755
        ],
        "type": "Point"
      }
    },
    {
      "type": "Feature",
      "properties": {
        "name": "Loakulu"
      },
      "geometry": {
        "coordinates": [
          117.01567,
          -0.51489
        ],
        "type": "Point"
      }
    },
    {
      "type": "Feature",
      "properties": {
        "name": "Loa Janan"
      },
      "geometry": {
        "coordinates": [
          117.09503,
          -0.58295
        ],
        "type": "Point"
      }
    },
    {
      "type": "Feature",
      "properties": {
        "name": "Lirung"
      },
      "geometry": {
        "coordinates": [
          126.67265,
          3.94481
        ],
        "type": "Point"
      }
    },
    {
      "type": "Feature",
      "properties": {
        "name": "Limboto"
      },
      "geometry": {
        "coordinates": [
          122.9778,
          0.627
        ],
        "type": "Point"
      }
    },
    {
      "type": "Feature",
      "properties": {
        "name": "Likupang"
      },
      "geometry": {
        "coordinates": [
          125.06104,
          1.6722
        ],
        "type": "Point"
      }
    },
    {
      "type": "Feature",
      "properties": {
        "name": "Lewobelen"
      },
      "geometry": {
        "coordinates": [
          123.3937,
          -8.2731
        ],
        "type": "Point"
      }
    },
    {
      "type": "Feature",
      "properties": {
        "name": "Lewotobi"
      },
      "geometry": {
        "coordinates": [
          122.836,
          -8.576
        ],
        "type": "Point"
      }
    },
    {
      "type": "Feature",
      "properties": {
        "name": "Lewotolok"
      },
      "geometry": {
        "coordinates": [
          123.4691,
          -8.2647
        ],
        "type": "Point"
      }
    },
    {
      "type": "Feature",
      "properties": {
        "name": "Lewoeleng"
      },
      "geometry": {
        "coordinates": [
          123.6264,
          -8.3359
        ],
        "type": "Point"
      }
    },
    {
      "type": "Feature",
      "properties": {
        "name": "Lewoleba"
      },
      "geometry": {
        "coordinates": [
          123.418,
          -8.3723
        ],
        "type": "Point"
      }
    },
    {
      "type": "Feature",
      "properties": {
        "name": "Lewolaga"
      },
      "geometry": {
        "coordinates": [
          122.8094,
          -8.4196
        ],
        "type": "Point"
      }
    },
    {
      "type": "Feature",
      "properties": {
        "name": "Lewohala"
      },
      "geometry": {
        "coordinates": [
          122.954,
          -8.2834
        ],
        "type": "Point"
      }
    },
    {
      "type": "Feature",
      "properties": {
        "name": "Lenangguar"
      },
      "geometry": {
        "coordinates": [
          117.3653,
          -8.7356
        ],
        "type": "Point"
      }
    },
    {
      "type": "Feature",
      "properties": {
        "name": "Lemito"
      },
      "geometry": {
        "coordinates": [
          121.5713,
          0.5424
        ],
        "type": "Point"
      }
    },
    {
      "type": "Feature",
      "properties": {
        "name": "Lembongan Kawan"
      },
      "geometry": {
        "coordinates": [
          115.4397,
          -8.6902
        ],
        "type": "Point"
      }
    },
    {
      "type": "Feature",
      "properties": {
        "name": "Lembar"
      },
      "geometry": {
        "coordinates": [
          116.0744,
          -8.7264
        ],
        "type": "Point"
      }
    },
    {
      "type": "Feature",
      "properties": {
        "name": "Lelogama"
      },
      "geometry": {
        "coordinates": [
          123.954,
          -9.7114
        ],
        "type": "Point"
      }
    },
    {
      "type": "Feature",
      "properties": {
        "name": "Lela"
      },
      "geometry": {
        "coordinates": [
          122.1726,
          -8.7289
        ],
        "type": "Point"
      }
    },
    {
      "type": "Feature",
      "properties": {
        "name": "Lekong"
      },
      "geometry": {
        "coordinates": [
          116.9657,
          -8.5346
        ],
        "type": "Point"
      }
    },
    {
      "type": "Feature",
      "properties": {
        "name": "Lekebai"
      },
      "geometry": {
        "coordinates": [
          122.0762,
          -8.712
        ],
        "type": "Point"
      }
    },
    {
      "type": "Feature",
      "properties": {
        "name": "Lawonda"
      },
      "geometry": {
        "coordinates": [
          119.5923,
          -9.5252
        ],
        "type": "Point"
      }
    },
    {
      "type": "Feature",
      "properties": {
        "name": "Lohayong"
      },
      "geometry": {
        "coordinates": [
          123.0688,
          -8.4345
        ],
        "type": "Point"
      }
    },
    {
      "type": "Feature",
      "properties": {
        "name": "Latuna"
      },
      "geometry": {
        "coordinates": [
          124.05583,
          -8.39234
        ],
        "type": "Point"
      }
    },
    {
      "type": "Feature",
      "properties": {
        "name": "Lasehao"
      },
      "geometry": {
        "coordinates": [
          122.4943,
          -5.0068
        ],
        "type": "Point"
      }
    },
    {
      "type": "Feature",
      "properties": {
        "name": "Larompong"
      },
      "geometry": {
        "coordinates": [
          120.3704,
          -3.515
        ],
        "type": "Point"
      }
    },
    {
      "type": "Feature",
      "properties": {
        "name": "Larantuka"
      },
      "geometry": {
        "coordinates": [
          122.9771,
          -8.3468
        ],
        "type": "Point"
      }
    },
    {
      "type": "Feature",
      "properties": {
        "name": "Lampihung"
      },
      "geometry": {
        "coordinates": [
          115.5277,
          -2.3809
        ],
        "type": "Point"
      }
    },
    {
      "type": "Feature",
      "properties": {
        "name": "Langnga"
      },
      "geometry": {
        "coordinates": [
          119.5222,
          -3.8459
        ],
        "type": "Point"
      }
    },
    {
      "type": "Feature",
      "properties": {
        "name": "Langara"
      },
      "geometry": {
        "coordinates": [
          122.9906,
          -4.0248
        ],
        "type": "Point"
      }
    },
    {
      "type": "Feature",
      "properties": {
        "name": "Lamalera"
      },
      "geometry": {
        "coordinates": [
          123.4239,
          -8.5748
        ],
        "type": "Point"
      }
    },
    {
      "type": "Feature",
      "properties": {
        "name": "Lamakera Satu"
      },
      "geometry": {
        "coordinates": [
          123.1646,
          -8.4358
        ],
        "type": "Point"
      }
    },
    {
      "type": "Feature",
      "properties": {
        "name": "Laikit, Laikit II (Dimembe)"
      },
      "geometry": {
        "coordinates": [
          124.97444,
          1.48833
        ],
        "type": "Point"
      }
    },
    {
      "type": "Feature",
      "properties": {
        "name": "Labuhansumbawa"
      },
      "geometry": {
        "coordinates": [
          117.4014,
          -8.4726
        ],
        "type": "Point"
      }
    },
    {
      "type": "Feature",
      "properties": {
        "name": "Labuhanmapin"
      },
      "geometry": {
        "coordinates": [
          116.9398,
          -8.5193
        ],
        "type": "Point"
      }
    },
    {
      "type": "Feature",
      "properties": {
        "name": "Labuhanlalar"
      },
      "geometry": {
        "coordinates": [
          116.8157,
          -8.8146
        ],
        "type": "Point"
      }
    },
    {
      "type": "Feature",
      "properties": {
        "name": "Labuhankananga"
      },
      "geometry": {
        "coordinates": [
          117.7714,
          -8.1391
        ],
        "type": "Point"
      }
    },
    {
      "type": "Feature",
      "properties": {
        "name": "Labuhanjambu"
      },
      "geometry": {
        "coordinates": [
          118.0205,
          -8.6962
        ],
        "type": "Point"
      }
    },
    {
      "type": "Feature",
      "properties": {
        "name": "Labuan Bajo"
      },
      "geometry": {
        "coordinates": [
          119.8877,
          -8.4964
        ],
        "type": "Point"
      }
    },
    {
      "type": "Feature",
      "properties": {
        "name": "Labuhanaji"
      },
      "geometry": {
        "coordinates": [
          117.48611,
          -8.21889
        ],
        "type": "Point"
      }
    },
    {
      "type": "Feature",
      "properties": {
        "name": "Labala"
      },
      "geometry": {
        "coordinates": [
          123.4912,
          -8.5147
        ],
        "type": "Point"
      }
    },
    {
      "type": "Feature",
      "properties": {
        "name": "Komi"
      },
      "geometry": {
        "coordinates": [
          119.3029,
          -9.4299
        ],
        "type": "Point"
      }
    },
    {
      "type": "Feature",
      "properties": {
        "name": "Kute"
      },
      "geometry": {
        "coordinates": [
          116.2776,
          -8.892
        ],
        "type": "Point"
      }
    },
    {
      "type": "Feature",
      "properties": {
        "name": "Kuta"
      },
      "geometry": {
        "coordinates": [
          115.17234,
          -8.72332
        ],
        "type": "Point"
      }
    },
    {
      "type": "Feature",
      "properties": {
        "name": "Kuma"
      },
      "geometry": {
        "coordinates": [
          125.57746,
          3.57467
        ],
        "type": "Point"
      }
    },
    {
      "type": "Feature",
      "properties": {
        "name": "Kubu"
      },
      "geometry": {
        "coordinates": [
          115.5666,
          -8.2524
        ],
        "type": "Point"
      }
    },
    {
      "type": "Feature",
      "properties": {
        "name": "Kwandang"
      },
      "geometry": {
        "coordinates": [
          122.915,
          0.8348
        ],
        "type": "Point"
      }
    },
    {
      "type": "Feature",
      "properties": {
        "name": "Kotabunan"
      },
      "geometry": {
        "coordinates": [
          124.65546,
          0.81217
        ],
        "type": "Point"
      }
    },
    {
      "type": "Feature",
      "properties": {
        "name": "Kotabaru Hilir"
      },
      "geometry": {
        "coordinates": [
          116.22514,
          -3.24267
        ],
        "type": "Point"
      }
    },
    {
      "type": "Feature",
      "properties": {
        "name": "Kopang Satu"
      },
      "geometry": {
        "coordinates": [
          116.3517,
          -8.6335
        ],
        "type": "Point"
      }
    },
    {
      "type": "Feature",
      "properties": {
        "name": "Konga"
      },
      "geometry": {
        "coordinates": [
          122.7756,
          -8.451
        ],
        "type": "Point"
      }
    },
    {
      "type": "Feature",
      "properties": {
        "name": "Komodo"
      },
      "geometry": {
        "coordinates": [
          119.4913,
          -8.5895
        ],
        "type": "Point"
      }
    },
    {
      "type": "Feature",
      "properties": {
        "name": "Kolonodale"
      },
      "geometry": {
        "coordinates": [
          121.3364,
          -1.9825
        ],
        "type": "Point"
      }
    },
    {
      "type": "Feature",
      "properties": {
        "name": "Kokar"
      },
      "geometry": {
        "coordinates": [
          124.4473,
          -8.1629
        ],
        "type": "Point"
      }
    },
    {
      "type": "Feature",
      "properties": {
        "name": "Klungkung"
      },
      "geometry": {
        "coordinates": [
          115.4,
          -8.53333
        ],
        "type": "Point"
      }
    },
    {
      "type": "Feature",
      "properties": {
        "name": "Kelua"
      },
      "geometry": {
        "coordinates": [
          115.3993,
          -2.2048
        ],
        "type": "Point"
      }
    },
    {
      "type": "Feature",
      "properties": {
        "name": "Kikilai"
      },
      "geometry": {
        "coordinates": [
          124.5228,
          -8.2646
        ],
        "type": "Point"
      }
    },
    {
      "type": "Feature",
      "properties": {
        "name": "Kerang"
      },
      "geometry": {
        "coordinates": [
          116.0718,
          -2.2333
        ],
        "type": "Point"
      }
    },
    {
      "type": "Feature",
      "properties": {
        "name": "Kendari"
      },
      "geometry": {
        "coordinates": [
          122.51507,
          -3.9778
        ],
        "type": "Point"
      }
    },
    {
      "type": "Feature",
      "properties": {
        "name": "Kema"
      },
      "geometry": {
        "coordinates": [
          125.07484,
          1.36574
        ],
        "type": "Point"
      }
    },
    {
      "type": "Feature",
      "properties": {
        "name": "Kefamenanu"
      },
      "geometry": {
        "coordinates": [
          124.47806,
          -9.44667
        ],
        "type": "Point"
      }
    },
    {
      "type": "Feature",
      "properties": {
        "name": "Kediri"
      },
      "geometry": {
        "coordinates": [
          116.1515,
          -8.6343
        ],
        "type": "Point"
      }
    },
    {
      "type": "Feature",
      "properties": {
        "name": "Marica"
      },
      "geometry": {
        "coordinates": [
          123.96628,
          -8.34884
        ],
        "type": "Point"
      }
    },
    {
      "type": "Feature",
      "properties": {
        "name": "Kawangu"
      },
      "geometry": {
        "coordinates": [
          120.3409,
          -9.6728
        ],
        "type": "Point"
      }
    },
    {
      "type": "Feature",
      "properties": {
        "name": "Kawangkoan"
      },
      "geometry": {
        "coordinates": [
          124.78218,
          1.20525
        ],
        "type": "Point"
      }
    },
    {
      "type": "Feature",
      "properties": {
        "name": "Katabu"
      },
      "geometry": {
        "coordinates": [
          122.5167,
          -4.9333
        ],
        "type": "Point"
      }
    },
    {
      "type": "Feature",
      "properties": {
        "name": "Kasiguncu"
      },
      "geometry": {
        "coordinates": [
          120.6554,
          -1.42114
        ],
        "type": "Point"
      }
    },
    {
      "type": "Feature",
      "properties": {
        "name": "Kasarangan"
      },
      "geometry": {
        "coordinates": [
          115.29739,
          -2.62636
        ],
        "type": "Point"
      }
    },
    {
      "type": "Feature",
      "properties": {
        "name": "Karumbu"
      },
      "geometry": {
        "coordinates": [
          118.8304,
          -8.6949
        ],
        "type": "Point"
      }
    },
    {
      "type": "Feature",
      "properties": {
        "name": "Karangintan"
      },
      "geometry": {
        "coordinates": [
          115.0134,
          -3.4116
        ],
        "type": "Point"
      }
    },
    {
      "type": "Feature",
      "properties": {
        "name": "Karangasem"
      },
      "geometry": {
        "coordinates": [
          115.61667,
          -8.45
        ],
        "type": "Point"
      }
    },
    {
      "type": "Feature",
      "properties": {
        "name": "Kapan"
      },
      "geometry": {
        "coordinates": [
          124.2739,
          -9.7348
        ],
        "type": "Point"
      }
    },
    {
      "type": "Feature",
      "properties": {
        "name": "Kandangan"
      },
      "geometry": {
        "coordinates": [
          115.2772,
          -2.7837
        ],
        "type": "Point"
      }
    },
    {
      "type": "Feature",
      "properties": {
        "name": "Malaju"
      },
      "geometry": {
        "coordinates": [
          118.394,
          -8.3104
        ],
        "type": "Point"
      }
    },
    {
      "type": "Feature",
      "properties": {
        "name": "Hampang"
      },
      "geometry": {
        "coordinates": [
          115.8373,
          -2.918
        ],
        "type": "Point"
      }
    },
    {
      "type": "Feature",
      "properties": {
        "name": "Kambu"
      },
      "geometry": {
        "coordinates": [
          118.3212,
          -8.3861
        ],
        "type": "Point"
      }
    },
    {
      "type": "Feature",
      "properties": {
        "name": "Kalikasa"
      },
      "geometry": {
        "coordinates": [
          123.4678,
          -8.4338
        ],
        "type": "Point"
      }
    },
    {
      "type": "Feature",
      "properties": {
        "name": "Kiraman"
      },
      "geometry": {
        "coordinates": [
          124.75059,
          -8.40044
        ],
        "type": "Point"
      }
    },
    {
      "type": "Feature",
      "properties": {
        "name": "Kalabahi"
      },
      "geometry": {
        "coordinates": [
          124.5458,
          -8.2151
        ],
        "type": "Point"
      }
    },
    {
      "type": "Feature",
      "properties": {
        "name": "Kahale"
      },
      "geometry": {
        "coordinates": [
          119.1047,
          -9.6962
        ],
        "type": "Point"
      }
    },
    {
      "type": "Feature",
      "properties": {
        "name": "Kabir"
      },
      "geometry": {
        "coordinates": [
          124.2145,
          -8.2545
        ],
        "type": "Point"
      }
    },
    {
      "type": "Feature",
      "properties": {
        "name": "Jorong"
      },
      "geometry": {
        "coordinates": [
          114.9518,
          -3.986
        ],
        "type": "Point"
      }
    },
    {
      "type": "Feature",
      "properties": {
        "name": "Jimbaran"
      },
      "geometry": {
        "coordinates": [
          115.16006,
          -8.79093
        ],
        "type": "Point"
      }
    },
    {
      "type": "Feature",
      "properties": {
        "name": "Jeneponto"
      },
      "geometry": {
        "coordinates": [
          119.7484,
          -5.6765
        ],
        "type": "Point"
      }
    },
    {
      "type": "Feature",
      "properties": {
        "name": "Jalang"
      },
      "geometry": {
        "coordinates": [
          120.3216,
          -4.0383
        ],
        "type": "Point"
      }
    },
    {
      "type": "Feature",
      "properties": {
        "name": "Isimu"
      },
      "geometry": {
        "coordinates": [
          122.8614,
          0.6446
        ],
        "type": "Point"
      }
    },
    {
      "type": "Feature",
      "properties": {
        "name": "Alung"
      },
      "geometry": {
        "coordinates": [
          115.4275,
          -2.5161
        ],
        "type": "Point"
      }
    },
    {
      "type": "Feature",
      "properties": {
        "name": "Ili"
      },
      "geometry": {
        "coordinates": [
          122.266,
          -8.6748
        ],
        "type": "Point"
      }
    },
    {
      "type": "Feature",
      "properties": {
        "name": "Hinga"
      },
      "geometry": {
        "coordinates": [
          123.2288,
          -8.3085
        ],
        "type": "Point"
      }
    },
    {
      "type": "Feature",
      "properties": {
        "name": "Haruyan"
      },
      "geometry": {
        "coordinates": [
          115.34992,
          -2.69169
        ],
        "type": "Point"
      }
    },
    {
      "type": "Feature",
      "properties": {
        "name": "Haruai"
      },
      "geometry": {
        "coordinates": [
          115.5072,
          -2.0154
        ],
        "type": "Point"
      }
    },
    {
      "type": "Feature",
      "properties": {
        "name": "Hadakewa"
      },
      "geometry": {
        "coordinates": [
          123.5473,
          -8.3698
        ],
        "type": "Point"
      }
    },
    {
      "type": "Feature",
      "properties": {
        "name": "Gunungbatubesar"
      },
      "geometry": {
        "coordinates": [
          116.2931,
          -2.6211
        ],
        "type": "Point"
      }
    },
    {
      "type": "Feature",
      "properties": {
        "name": "Gorontalo"
      },
      "geometry": {
        "coordinates": [
          123.0625,
          0.5375
        ],
        "type": "Point"
      }
    },
    {
      "type": "Feature",
      "properties": {
        "name": "Godo"
      },
      "geometry": {
        "coordinates": [
          118.66647,
          -8.56114
        ],
        "type": "Point"
      }
    },
    {
      "type": "Feature",
      "properties": {
        "name": "Gisiliba"
      },
      "geometry": {
        "coordinates": [
          121.05243,
          -8.83126
        ],
        "type": "Point"
      }
    },
    {
      "type": "Feature",
      "properties": {
        "name": "Gilimanuk"
      },
      "geometry": {
        "coordinates": [
          114.4344,
          -8.1716
        ],
        "type": "Point"
      }
    },
    {
      "type": "Feature",
      "properties": {
        "name": "Gianyar"
      },
      "geometry": {
        "coordinates": [
          115.3272,
          -8.5435
        ],
        "type": "Point"
      }
    },
    {
      "type": "Feature",
      "properties": {
        "name": "Gerung"
      },
      "geometry": {
        "coordinates": [
          116.1253,
          -8.683
        ],
        "type": "Point"
      }
    },
    {
      "type": "Feature",
      "properties": {
        "name": "Galunggalung"
      },
      "geometry": {
        "coordinates": [
          118.896,
          -3.489
        ],
        "type": "Point"
      }
    },
    {
      "type": "Feature",
      "properties": {
        "name": "Kalumpang"
      },
      "geometry": {
        "coordinates": [
          119.4859,
          -2.4781
        ],
        "type": "Point"
      }
    },
    {
      "type": "Feature",
      "properties": {
        "name": "Galesong"
      },
      "geometry": {
        "coordinates": [
          119.3661,
          -5.3166
        ],
        "type": "Point"
      }
    },
    {
      "type": "Feature",
      "properties": {
        "name": "Essang"
      },
      "geometry": {
        "coordinates": [
          126.73859,
          4.45501
        ],
        "type": "Point"
      }
    },
    {
      "type": "Feature",
      "properties": {
        "name": "Enrekang"
      },
      "geometry": {
        "coordinates": [
          119.77025,
          -3.56508
        ],
        "type": "Point"
      }
    },
    {
      "type": "Feature",
      "properties": {
        "name": "Enemawira"
      },
      "geometry": {
        "coordinates": [
          125.5612,
          3.6565
        ],
        "type": "Point"
      }
    },
    {
      "type": "Feature",
      "properties": {
        "name": "Ende"
      },
      "geometry": {
        "coordinates": [
          121.6623,
          -8.8432
        ],
        "type": "Point"
      }
    },
    {
      "type": "Feature",
      "properties": {
        "name": "Elopada"
      },
      "geometry": {
        "coordinates": [
          119.3172,
          -9.5686
        ],
        "type": "Point"
      }
    },
    {
      "type": "Feature",
      "properties": {
        "name": "Dumoga"
      },
      "geometry": {
        "coordinates": [
          124.0826,
          0.6096
        ],
        "type": "Point"
      }
    },
    {
      "type": "Feature",
      "properties": {
        "name": "Dulolong"
      },
      "geometry": {
        "coordinates": [
          124.4476,
          -8.2547
        ],
        "type": "Point"
      }
    },
    {
      "type": "Feature",
      "properties": {
        "name": "Soro"
      },
      "geometry": {
        "coordinates": [
          118.2381,
          -8.5573
        ],
        "type": "Point"
      }
    },
    {
      "type": "Feature",
      "properties": {
        "name": "Kesi"
      },
      "geometry": {
        "coordinates": [
          118.1922,
          -8.5338
        ],
        "type": "Point"
      }
    },
    {
      "type": "Feature",
      "properties": {
        "name": "Kempo"
      },
      "geometry": {
        "coordinates": [
          118.24821,
          -8.54286
        ],
        "type": "Point"
      }
    },
    {
      "type": "Feature",
      "properties": {
        "name": "Taloko"
      },
      "geometry": {
        "coordinates": [
          118.3165,
          -8.4012
        ],
        "type": "Point"
      }
    },
    {
      "type": "Feature",
      "properties": {
        "name": "Donggala"
      },
      "geometry": {
        "coordinates": [
          119.7402,
          -0.6723
        ],
        "type": "Point"
      }
    },
    {
      "type": "Feature",
      "properties": {
        "name": "Dompu"
      },
      "geometry": {
        "coordinates": [
          118.4634,
          -8.5365
        ],
        "type": "Point"
      }
    },
    {
      "type": "Feature",
      "properties": {
        "name": "Denpasar"
      },
      "geometry": {
        "coordinates": [
          115.21667,
          -8.65
        ],
        "type": "Point"
      }
    },
    {
      "type": "Feature",
      "properties": {
        "name": "Camming"
      },
      "geometry": {
        "coordinates": [
          120.0771,
          -4.8118
        ],
        "type": "Point"
      }
    },
    {
      "type": "Feature",
      "properties": {
        "name": "Cakke"
      },
      "geometry": {
        "coordinates": [
          119.7985,
          -3.4101
        ],
        "type": "Point"
      }
    },
    {
      "type": "Feature",
      "properties": {
        "name": "Buriwutung"
      },
      "geometry": {
        "coordinates": [
          123.8088,
          -8.1832
        ],
        "type": "Point"
      }
    },
    {
      "type": "Feature",
      "properties": {
        "name": "Buraga"
      },
      "geometry": {
        "coordinates": [
          124.4871,
          -8.4205
        ],
        "type": "Point"
      }
    },
    {
      "type": "Feature",
      "properties": {
        "name": "Buol"
      },
      "geometry": {
        "coordinates": [
          121.4361,
          1.1584
        ],
        "type": "Point"
      }
    },
    {
      "type": "Feature",
      "properties": {
        "name": "Bungku"
      },
      "geometry": {
        "coordinates": [
          121.972,
          -2.5471
        ],
        "type": "Point"
      }
    },
    {
      "type": "Feature",
      "properties": {
        "name": "Bulukumba"
      },
      "geometry": {
        "coordinates": [
          120.18333,
          -5.55
        ],
        "type": "Point"
      }
    },
    {
      "type": "Feature",
      "properties": {
        "name": "Karangbugis"
      },
      "geometry": {
        "coordinates": [
          117.4219,
          -8.4966
        ],
        "type": "Point"
      }
    },
    {
      "type": "Feature",
      "properties": {
        "name": "Banjar Bugbug"
      },
      "geometry": {
        "coordinates": [
          115.5935,
          -8.4889
        ],
        "type": "Point"
      }
    },
    {
      "type": "Feature",
      "properties": {
        "name": "Bualu"
      },
      "geometry": {
        "coordinates": [
          115.2172,
          -8.796
        ],
        "type": "Point"
      }
    },
    {
      "type": "Feature",
      "properties": {
        "name": "Boroko"
      },
      "geometry": {
        "coordinates": [
          123.2679,
          0.9083
        ],
        "type": "Point"
      }
    },
    {
      "type": "Feature",
      "properties": {
        "name": "Bontang"
      },
      "geometry": {
        "coordinates": [
          117.4854,
          0.1324
        ],
        "type": "Point"
      }
    },
    {
      "type": "Feature",
      "properties": {
        "name": "Bunobogu"
      },
      "geometry": {
        "coordinates": [
          121.6126,
          1.0407
        ],
        "type": "Point"
      }
    },
    {
      "type": "Feature",
      "properties": {
        "name": "Bonebone"
      },
      "geometry": {
        "coordinates": [
          120.5195,
          -2.6005
        ],
        "type": "Point"
      }
    },
    {
      "type": "Feature",
      "properties": {
        "name": "Bondokodi"
      },
      "geometry": {
        "coordinates": [
          118.9934,
          -9.5943
        ],
        "type": "Point"
      }
    },
    {
      "type": "Feature",
      "properties": {
        "name": "Boleng"
      },
      "geometry": {
        "coordinates": [
          123.2954,
          -8.3831
        ],
        "type": "Point"
      }
    },
    {
      "type": "Feature",
      "properties": {
        "name": "Bolaang"
      },
      "geometry": {
        "coordinates": [
          124.1556,
          0.9411
        ],
        "type": "Point"
      }
    },
    {
      "type": "Feature",
      "properties": {
        "name": "Bolangitang"
      },
      "geometry": {
        "coordinates": [
          123.3067,
          0.9068
        ],
        "type": "Point"
      }
    },
    {
      "type": "Feature",
      "properties": {
        "name": "Bola"
      },
      "geometry": {
        "coordinates": [
          122.2958,
          -8.7419
        ],
        "type": "Point"
      }
    },
    {
      "type": "Feature",
      "properties": {
        "name": "Bokong Timur"
      },
      "geometry": {
        "coordinates": [
          124.0611,
          -9.9727
        ],
        "type": "Point"
      }
    },
    {
      "type": "Feature",
      "properties": {
        "name": "Bokat"
      },
      "geometry": {
        "coordinates": [
          121.505,
          1.0871
        ],
        "type": "Point"
      }
    },
    {
      "type": "Feature",
      "properties": {
        "name": "Boawae"
      },
      "geometry": {
        "coordinates": [
          121.1694,
          -8.7639
        ],
        "type": "Point"
      }
    },
    {
      "type": "Feature",
      "properties": {
        "name": "Boafeo"
      },
      "geometry": {
        "coordinates": [
          121.626,
          -8.6903
        ],
        "type": "Point"
      }
    },
    {
      "type": "Feature",
      "properties": {
        "name": "Baranusa"
      },
      "geometry": {
        "coordinates": [
          124.0888,
          -8.3622
        ],
        "type": "Point"
      }
    },
    {
      "type": "Feature",
      "properties": {
        "name": "Bitung"
      },
      "geometry": {
        "coordinates": [
          125.1895,
          1.45697
        ],
        "type": "Point"
      }
    },
    {
      "type": "Feature",
      "properties": {
        "name": "Bitung"
      },
      "geometry": {
        "coordinates": [
          124.5958,
          1.20746
        ],
        "type": "Point"
      }
    },
    {
      "type": "Feature",
      "properties": {
        "name": "Birayang"
      },
      "geometry": {
        "coordinates": [
          115.4549,
          -2.5328
        ],
        "type": "Point"
      }
    },
    {
      "type": "Feature",
      "properties": {
        "name": "Binuang"
      },
      "geometry": {
        "coordinates": [
          115.1638,
          -3.0707
        ],
        "type": "Point"
      }
    },
    {
      "type": "Feature",
      "properties": {
        "name": "Bima"
      },
      "geometry": {
        "coordinates": [
          118.72667,
          -8.46006
        ],
        "type": "Point"
      }
    },
    {
      "type": "Feature",
      "properties": {
        "name": "Bilungala"
      },
      "geometry": {
        "coordinates": [
          123.2135,
          0.3815
        ],
        "type": "Point"
      }
    },
    {
      "type": "Feature",
      "properties": {
        "name": "Beo"
      },
      "geometry": {
        "coordinates": [
          126.79872,
          4.22867
        ],
        "type": "Point"
      }
    },
    {
      "type": "Feature",
      "properties": {
        "name": "Benteng"
      },
      "geometry": {
        "coordinates": [
          120.4605,
          -6.1184
        ],
        "type": "Point"
      }
    },
    {
      "type": "Feature",
      "properties": {
        "name": "Belopa"
      },
      "geometry": {
        "coordinates": [
          120.3676,
          -3.3849
        ],
        "type": "Point"
      }
    },
    {
      "type": "Feature",
      "properties": {
        "name": "Belimbing"
      },
      "geometry": {
        "coordinates": [
          115.3502,
          -2.9823
        ],
        "type": "Point"
      }
    },
    {
      "type": "Feature",
      "properties": {
        "name": "Mentarang"
      },
      "geometry": {
        "coordinates": [
          116.16786,
          3.60626
        ],
        "type": "Point"
      }
    },
    {
      "type": "Feature",
      "properties": {
        "name": "Bebandem"
      },
      "geometry": {
        "coordinates": [
          115.5602,
          -8.4403
        ],
        "type": "Point"
      }
    },
    {
      "type": "Feature",
      "properties": {
        "name": "Bayan"
      },
      "geometry": {
        "coordinates": [
          116.4255,
          -8.2689
        ],
        "type": "Point"
      }
    },
    {
      "type": "Feature",
      "properties": {
        "name": "Baturotok"
      },
      "geometry": {
        "coordinates": [
          117.146,
          -8.6651
        ],
        "type": "Point"
      }
    },
    {
      "type": "Feature",
      "properties": {
        "name": "Batumandi"
      },
      "geometry": {
        "coordinates": [
          115.4409,
          -2.4218
        ],
        "type": "Point"
      }
    },
    {
      "type": "Feature",
      "properties": {
        "name": "Batumadeg Kaja"
      },
      "geometry": {
        "coordinates": [
          115.5069,
          -8.7465
        ],
        "type": "Point"
      }
    },
    {
      "type": "Feature",
      "properties": {
        "name": "Batulicin"
      },
      "geometry": {
        "coordinates": [
          116.00611,
          -3.42022
        ],
        "type": "Point"
      }
    },
    {
      "type": "Feature",
      "properties": {
        "name": "Batudulang"
      },
      "geometry": {
        "coordinates": [
          117.2809,
          -8.5873
        ],
        "type": "Point"
      }
    },
    {
      "type": "Feature",
      "properties": {
        "name": "Batibati"
      },
      "geometry": {
        "coordinates": [
          114.7166,
          -3.6184
        ],
        "type": "Point"
      }
    },
    {
      "type": "Feature",
      "properties": {
        "name": "Batauga"
      },
      "geometry": {
        "coordinates": [
          122.5964,
          -5.5882
        ],
        "type": "Point"
      }
    },
    {
      "type": "Feature",
      "properties": {
        "name": "Barru"
      },
      "geometry": {
        "coordinates": [
          119.618,
          -4.412
        ],
        "type": "Point"
      }
    },
    {
      "type": "Feature",
      "properties": {
        "name": "Bareng"
      },
      "geometry": {
        "coordinates": [
          123.7744,
          -8.1731
        ],
        "type": "Point"
      }
    },
    {
      "type": "Feature",
      "properties": {
        "name": "Bari"
      },
      "geometry": {
        "coordinates": [
          120.1822,
          -8.3518
        ],
        "type": "Point"
      }
    },
    {
      "type": "Feature",
      "properties": {
        "name": "Barabai"
      },
      "geometry": {
        "coordinates": [
          115.38333,
          -2.58333
        ],
        "type": "Point"
      }
    },
    {
      "type": "Feature",
      "properties": {
        "name": "Bantaeng"
      },
      "geometry": {
        "coordinates": [
          119.9509,
          -5.5475
        ],
        "type": "Point"
      }
    },
    {
      "type": "Feature",
      "properties": {
        "name": "Banjarmasin"
      },
      "geometry": {
        "coordinates": [
          114.59075,
          -3.31987
        ],
        "type": "Point"
      }
    },
    {
      "type": "Feature",
      "properties": {
        "name": "Banjar"
      },
      "geometry": {
        "coordinates": [
          114.9675,
          -8.19
        ],
        "type": "Point"
      }
    },
    {
      "type": "Feature",
      "properties": {
        "name": "Bangli"
      },
      "geometry": {
        "coordinates": [
          115.3545,
          -8.4542
        ],
        "type": "Point"
      }
    },
    {
      "type": "Feature",
      "properties": {
        "name": "Banggai"
      },
      "geometry": {
        "coordinates": [
          123.4992,
          -1.5887
        ],
        "type": "Point"
      }
    },
    {
      "type": "Feature",
      "properties": {
        "name": "Bama"
      },
      "geometry": {
        "coordinates": [
          122.8808,
          -8.3761
        ],
        "type": "Point"
      }
    },
    {
      "type": "Feature",
      "properties": {
        "name": "Baluk"
      },
      "geometry": {
        "coordinates": [
          122.3044,
          -8.7426
        ],
        "type": "Point"
      }
    },
    {
      "type": "Feature",
      "properties": {
        "name": "Balikpapan"
      },
      "geometry": {
        "coordinates": [
          116.82887,
          -1.26753
        ],
        "type": "Point"
      }
    },
    {
      "type": "Feature",
      "properties": {
        "name": "Balauring"
      },
      "geometry": {
        "coordinates": [
          123.706,
          -8.2336
        ],
        "type": "Point"
      }
    },
    {
      "type": "Feature",
      "properties": {
        "name": "Bajo"
      },
      "geometry": {
        "coordinates": [
          120.3102,
          -3.3788
        ],
        "type": "Point"
      }
    },
    {
      "type": "Feature",
      "properties": {
        "name": "Bajawa"
      },
      "geometry": {
        "coordinates": [
          120.9744,
          -8.7848
        ],
        "type": "Point"
      }
    },
    {
      "type": "Feature",
      "properties": {
        "name": "Labuhanbadas"
      },
      "geometry": {
        "coordinates": [
          117.3681,
          -8.4637
        ],
        "type": "Point"
      }
    },
    {
      "type": "Feature",
      "properties": {
        "name": "Babirik"
      },
      "geometry": {
        "coordinates": [
          115.1588,
          -2.5409
        ],
        "type": "Point"
      }
    },
    {
      "type": "Feature",
      "properties": {
        "name": "Babana"
      },
      "geometry": {
        "coordinates": [
          119.1986,
          -2.0779
        ],
        "type": "Point"
      }
    },
    {
      "type": "Feature",
      "properties": {
        "name": "Atap"
      },
      "geometry": {
        "coordinates": [
          117.04654,
          3.85714
        ],
        "type": "Point"
      }
    },
    {
      "type": "Feature",
      "properties": {
        "name": "Atambua"
      },
      "geometry": {
        "coordinates": [
          124.8925,
          -9.10611
        ],
        "type": "Point"
      }
    },
    {
      "type": "Feature",
      "properties": {
        "name": "Asera"
      },
      "geometry": {
        "coordinates": [
          122.0669,
          -3.4746
        ],
        "type": "Point"
      }
    },
    {
      "type": "Feature",
      "properties": {
        "name": "Anggana"
      },
      "geometry": {
        "coordinates": [
          117.2844,
          -0.5705
        ],
        "type": "Point"
      }
    },