{
  "type": "FeatureCollection",
  "features": [
    {
      "type": "Feature",
      "properties": {
        "name": "Ak-Say"
      },
      "geometry": {
        "coordinates": [
          70.52211,
          39.87438
        ],
        "type": "Point"
      }
    },
    {
      "type": "Feature",
      "properties": {
        "name": "Yovon"
      },
      "geometry": {
        "coordinates": [
          69.03784,
          38.31408
        ],
        "type": "Point"
      }
    },
    {
      "type": "Feature",
      "properties": {
        "name": "Vose'"
      },
      "geometry": {
        "coordinates": [
          69.64417,
          37.80396
        ],
        "type": "Point"
      }
    },
    {
      "type": "Feature",
      "properties": {
        "name": "Vorukh"
      },
      "geometry": {
        "coordinates": [
          70.58012,
          39.85125
        ],
        "type": "Point"
      }
    },
    {
      "type": "Feature",
      "properties": {
        "name": "Varzob"
      },
      "geometry": {
        "coordinates": [
          68.81776,
          38.77369
        ],
        "type": "Point"
      }
    },
    {
      "type": "Feature",
      "properties": {
        "name": "Vanj"
      },
      "geometry": {
        "coordinates": [
          71.45474,
          38.37078
        ],
        "type": "Point"
      }
    },
    {
      "type": "Feature",
      "properties": {
        "name": "Vakhsh"
      },
      "geometry": {
        "coordinates": [
          68.83456,
          37.71485
        ],
        "type": "Point"
      }
    },
    {
      "type": "Feature",
      "properties": {
        "name": "Istaravshan"
      },
      "geometry": {
        "coordinates": [
          69.00328,
          39.9142
        ],
        "type": "Point"
      }
    },
    {
      "type": "Feature",
      "properties": {
        "name": "Tursunzoda"
      },
      "geometry": {
        "coordinates": [
          68.23327,
          38.51437
        ],
        "type": "Point"
      }
    },
    {
      "type": "Feature",
      "properties": {
        "name": "Tavildara"
      },
      "geometry": {
        "coordinates": [
          70.48422,
          38.69529
        ],
        "type": "Point"
      }
    },
    {
      "type": "Feature",
      "properties": {
        "name": "Tartiki"
      },
      "geometry": {
        "coordinates": [
          68.13347,
          37.58221
        ],
        "type": "Point"
      }
    },
    {
      "type": "Feature",
      "properties": {
        "name": "Tagob"
      },
      "geometry": {
        "coordinates": [
          68.89847,
          38.83827
        ],
        "type": "Point"
      }
    },
    {
      "type": "Feature",
      "properties": {
        "name": "Tajikobod"
      },
      "geometry": {
        "coordinates": [
          70.84009,
          39.12405
        ],
        "type": "Point"
      }
    },
    {
      "type": "Feature",
      "properties": {
        "name": "Sovet"
      },
      "geometry": {
        "coordinates": [
          69.58822,
          38.0467
        ],
        "type": "Point"
      }
    },
    {
      "type": "Feature",
      "properties": {
        "name": "Shurobod"
      },
      "geometry": {
        "coordinates": [
          70.04865,
          37.84137
        ],
        "type": "Point"
      }
    },
    {
      "type": "Feature",
      "properties": {
        "name": "Shahrinav"
      },
      "geometry": {
        "coordinates": [
          68.33498,
          38.57085
        ],
        "type": "Point"
      }
    },
    {
      "type": "Feature",
      "properties": {
        "name": "Shahriston"
      },
      "geometry": {
        "coordinates": [
          68.80929,
          39.77447
        ],
        "type": "Point"
      }
    },
    {
      "type": "Feature",
      "properties": {
        "name": "Shahritus"
      },
      "geometry": {
        "coordinates": [
          68.13849,
          37.26206
        ],
        "type": "Point"
      }
    },
    {
      "type": "Feature",
      "properties": {
        "name": "Rushon"
      },
      "geometry": {
        "coordinates": [
          71.55745,
          37.94487
        ],
        "type": "Point"
      }
    },
    {
      "type": "Feature",
      "properties": {
        "name": "Roshtqal'a"
      },
      "geometry": {
        "coordinates": [
          71.82591,
          37.25827
        ],
        "type": "Point"
      }
    },
    {
      "type": "Feature",
      "properties": {
        "name": "Roghun"
      },
      "geometry": {
        "coordinates": [
          69.87081,
          38.78257
        ],
        "type": "Point"
      }
    },
    {
      "type": "Feature",
      "properties": {
        "name": "Qurghonteppa"
      },
      "geometry": {
        "coordinates": [
          68.78186,
          37.83399
        ],
        "type": "Point"
      }
    },
    {
      "type": "Feature",
      "properties": {
        "name": "Panj"
      },
      "geometry": {
        "coordinates": [
          69.09911,
          37.23634
        ],
        "type": "Point"
      }
    },
    {
      "type": "Feature",
      "properties": {
        "name": "Panjakent"
      },
      "geometry": {
        "coordinates": [
          67.60931,
          39.49524
        ],
        "type": "Point"
      }
    },
    {
      "type": "Feature",
      "properties": {
        "name": "Farkhor"
      },
      "geometry": {
        "coordinates": [
          69.40356,
          37.49219
        ],
        "type": "Point"
      }
    },
    {
      "type": "Feature",
      "properties": {
        "name": "Orzu"
      },
      "geometry": {
        "coordinates": [
          68.81952,
          37.5582
        ],
        "type": "Point"
      }
    },
    {
      "type": "Feature",
      "properties": {
        "name": "Vahdat"
      },
      "geometry": {
        "coordinates": [
          69.01354,
          38.55632
        ],
        "type": "Point"
      }
    },
    {
      "type": "Feature",
      "properties": {
        "name": "Ismoili Somoni"
      },
      "geometry": {
        "coordinates": [
          68.80126,
          37.76627
        ],
        "type": "Point"
      }
    },
    {
      "type": "Feature",
      "properties": {
        "name": "Obikiik"
      },
      "geometry": {
        "coordinates": [
          68.66605,
          38.16033
        ],
        "type": "Point"
      }
    },
    {
      "type": "Feature",
      "properties": {
        "name": "Obigarm"
      },
      "geometry": {
        "coordinates": [
          69.70885,
          38.71731
        ],
        "type": "Point"
      }
    },
    {
      "type": "Feature",
      "properties": {
        "name": "Norak"
      },
      "geometry": {
        "coordinates": [
          69.32272,
          38.38917
        ],
        "type": "Point"
      }
    },
    {
      "type": "Feature",
      "properties": {
        "name": "Novobod"
      },
      "geometry": {
        "coordinates": [
          70.15082,
          39.01084
        ],
        "type": "Point"
      }
    },
    {
      "type": "Feature",
      "properties": {
        "name": "Murghob"
      },
      "geometry": {
        "coordinates": [
          73.96674,
          38.17023
        ],
        "type": "Point"
      }
    },
    {
      "type": "Feature",
      "properties": {
        "name": "Moskva"
      },
      "geometry": {
        "coordinates": [
          69.62849,
          37.66101
        ],
        "type": "Point"
      }
    },
    {
      "type": "Feature",
      "properties": {
        "name": "Somoniyon"
      },
      "geometry": {
        "coordinates": [
          68.77458,
          38.44173
        ],
        "type": "Point"
      }
    },
    {
      "type": "Feature",
      "properties": {
        "name": "Mu'minobod"
      },
      "geometry": {
        "coordinates": [
          70.03213,
          38.10714
        ],
        "type": "Point"
      }
    },
    {
      "type": "Feature",
      "properties": {
        "name": "Abdurahmoni Jomi"
      },
      "geometry": {
        "coordinates": [
          68.80878,
          37.94636
        ],
        "type": "Point"
      }
    },
    {
      "type": "Feature",
      "properties": {
        "name": "Kulob"
      },
      "geometry": {
        "coordinates": [
          69.78454,
          37.91459
        ],
        "type": "Point"
      }
    },
    {
      "type": "Feature",
      "properties": {
        "name": "Darband"
      },
      "geometry": {
        "coordinates": [
          69.96642,
          38.86776
        ],
        "type": "Point"
      }
    },
    {
      "type": "Feature",
      "properties": {
        "name": "Kolkhozobod"
      },
      "geometry": {
        "coordinates": [
          68.65886,
          37.58823
        ],
        "type": "Point"
      }
    },
    {
      "type": "Feature",
      "properties": {
        "name": "Kirov"
      },
      "geometry": {
        "coordinates": [
          68.85905,
          37.81908
        ],
        "type": "Point"
      }
    },
    {
      "type": "Feature",
      "properties": {
        "name": "Khovaling"
      },
      "geometry": {
        "coordinates": [
          69.97531,
          38.34194
        ],
        "type": "Point"
      }
    },
    {
      "type": "Feature",
      "properties": {
        "name": "Khorugh"
      },
      "geometry": {
        "coordinates": [
          71.55304,
          37.48974
        ],
        "type": "Point"
      }
    },
    {
      "type": "Feature",
      "properties": {
        "name": "Khodzha-Maston"
      },
      "geometry": {
        "coordinates": [
          68.62702,
          38.74457
        ],
        "type": "Point"
      }
    },
    {
      "type": "Feature",
      "properties": {
        "name": "Karakenja"
      },
      "geometry": {
        "coordinates": [
          71.52412,
          39.23585
        ],
        "type": "Point"
      }
    },
    {
      "type": "Feature",
      "properties": {
        "name": "Sarband"
      },
      "geometry": {
        "coordinates": [
          68.92233,
          37.87136
        ],
        "type": "Point"
      }
    },
    {
      "type": "Feature",
      "properties": {
        "name": "Qalaikhumb"
      },
      "geometry": {
        "coordinates": [
          70.78902,
          38.45373
        ],
        "type": "Point"
      }
    },
    {
      "type": "Feature",
      "properties": {
        "name": "Qubodiyon"
      },
      "geometry": {
        "coordinates": [
          68.18644,
          37.40973
        ],
        "type": "Point"
      }
    },
    {
      "type": "Feature",
      "properties": {
        "name": "Ishqoshim"
      },
      "geometry": {
        "coordinates": [
          71.61331,
          36.72484
        ],
        "type": "Point"
      }
    },
    {
      "type": "Feature",
      "properties": {
        "name": "Hisor"
      },
      "geometry": {
        "coordinates": [
          68.55124,
          38.52504
        ],
        "type": "Point"
      }
    },
    {
      "type": "Feature",
      "properties": {
        "name": "Rasht"
      },
      "geometry": {
        "coordinates": [
          70.37446,
          39.02871
        ],
        "type": "Point"
      }
    },
    {
      "type": "Feature",
      "properties": {
        "name": "Gharavuti"
      },
      "geometry": {
        "coordinates": [
          68.44668,
          37.56703
        ],
        "type": "Point"
      }
    },
    {
      "type": "Feature",
      "properties": {
        "name": "Ghonchi"
      },
      "geometry": {
        "coordinates": [
          69.12966,
          39.96238
        ],
        "type": "Point"
      }
    },
    {
      "type": "Feature",
      "properties": {
        "name": "Fayzobod"
      },
      "geometry": {
        "coordinates": [
          69.3198,
          38.54731
        ],
        "type": "Point"
      }
    },
    {
      "type": "Feature",
      "properties": {
        "name": "Jirghatol"
      },
      "geometry": {
        "coordinates": [
          71.19155,
          39.21966
        ],
        "type": "Point"
      }
    },
    {
      "type": "Feature",
      "properties": {
        "name": "Jilikul"
      },
      "geometry": {
        "coordinates": [
          68.53106,
          37.49167
        ],
        "type": "Point"
      }
    },
    {
      "type": "Feature",
      "properties": {
        "name": "Dusti"
      },
      "geometry": {
        "coordinates": [
          68.66398,
          37.34812
        ],
        "type": "Point"
      }
    },
    {
      "type": "Feature",
      "properties": {
        "name": "Dushanbe"
      },
      "geometry": {
        "coordinates": [
          68.77905,
          38.53575
        ],
        "type": "Point"
      }
    },
    {
      "type": "Feature",
      "properties": {
        "name": "Danghara"
      },
      "geometry": {
        "coordinates": [
          69.33998,
          38.09578
        ],
        "type": "Point"
      }
    },
    {
      "type": "Feature",
      "properties": {
        "name": "Chubek"
      },
      "geometry": {
        "coordinates": [
          69.70525,
          37.61453
        ],
        "type": "Point"
      }
    },
    {
      "type": "Feature",
      "properties": {
        "name": "Boshchorbogh"
      },
      "geometry": {
        "coordinates": [
          68.12825,
          37.52027
        ],
        "type": "Point"
      }
    },
    {
      "type": "Feature",
      "properties": {
        "name": "Bustonqal'a"
      },
      "geometry": {
        "coordinates": [
          68.83125,
          37.84783
        ],
        "type": "Point"
      }
    },
    {
      "type": "Feature",
      "properties": {
        "name": "Boshkengash"
      },
      "geometry": {
        "coordinates": [
          68.80533,
          38.46613
        ],
        "type": "Point"
      }
    },
    {
      "type": "Feature",
      "properties": {
        "name": "Baljuvon"
      },
      "geometry": {
        "coordinates": [
          69.67672,
          38.30838
        ],
        "type": "Point"
      }
    },
    {
      "type": "Feature",
      "properties": {
        "name": "Ayni"
      },
      "geometry": {
        "coordinates": [
          68.53766,
          39.39406
        ],
        "type": "Point"
      }
    },
    {
      "type": "Feature",
      "properties": {
        "name": "Tursunzoda"
      },
      "geometry": {
        "coordinates": [
          68.23163,
          38.51271
        ],
        "type": "Point"
      }
    },
    {
      "type": "Feature",
      "properties": {
        "name": "Roghun"
      },
      "geometry": {
        "coordinates": [
          69.73692,
          38.69331
        ],
        "type": "Point"
      }
    },
    {
      "type": "Feature",
      "properties": {
        "name": "Bahori"
      },
      "geometry": {
        "coordinates": [
          67.99446,
          37.40195
        ],
        "type": "Point"
      }
    },
    {
      "type": "Feature",
      "properties": {
        "name": "Zafarobod"
      },
      "geometry": {
        "coordinates": [
          68.84679,
          40.17603
        ],
        "type": "Point"
      }
    },
    {
      "type": "Feature",
      "properties": {
        "name": "Taboshar"
      },
      "geometry": {
        "coordinates": [
          69.64175,
          40.57017
        ],
        "type": "Point"
      }
    },
    {
      "type": "Feature",
      "properties": {
        "name": "Shurob"
      },
      "geometry": {
        "coordinates": [
          70.54117,
          40.04605
        ],
        "type": "Point"
      }
    },
    {
      "type": "Feature",
      "properties": {
        "name": "Proletar"
      },
      "geometry": {
        "coordinates": [
          69.50163,
          40.16713
        ],
        "type": "Point"
      }
    },
    {
      "type": "Feature",
      "properties": {
        "name": "Palos"
      },
      "geometry": {
        "coordinates": [
          69.73743,
          40.31628
        ],
        "type": "Point"
      }
    },
    {
      "type": "Feature",
      "properties": {
        "name": "Pakhtakoron"
      },
      "geometry": {
        "coordinates": [
          68.74659,
          40.15709
        ],
        "type": "Point"
      }
    },
    {
      "type": "Feature",
      "properties": {
        "name": "Neftobod"
      },
      "geometry": {
        "coordinates": [
          70.57193,
          40.21524
        ],
        "type": "Point"
      }
    },
    {
      "type": "Feature",
      "properties": {
        "name": "Nov"
      },
      "geometry": {
        "coordinates": [
          69.37076,
          40.1522
        ],
        "type": "Point"
      }
    },
    {
      "type": "Feature",
      "properties": {
        "name": "Quruqsoy"
      },
      "geometry": {
        "coordinates": [
          69.37962,
          40.57648
        ],
        "type": "Point"
      }
    },
    {
      "type": "Feature",
      "properties": {
        "name": "Kim"
      },
      "geometry": {
        "coordinates": [
          70.46882,
          40.20798
        ],
        "type": "Point"
      }
    },
    {
      "type": "Feature",
      "properties": {
        "name": "Khujand"
      },
      "geometry": {
        "coordinates": [
          69.62216,
          40.28256
        ],
        "type": "Point"
      }
    },
    {
      "type": "Feature",
      "properties": {
        "name": "Konsoy"
      },
      "geometry": {
        "coordinates": [
          69.70245,
          40.49155
        ],
        "type": "Point"
      }
    },
    {
      "type": "Feature",
      "properties": {
        "name": "Konibodom"
      },
      "geometry": {
        "coordinates": [
          70.43122,
          40.29414
        ],
        "type": "Point"
      }
    },
    {
      "type": "Feature",
      "properties": {
        "name": "Isfara"
      },
      "geometry": {
        "coordinates": [
          70.62526,
          40.12649
        ],
        "type": "Point"
      }
    },
    {
      "type": "Feature",
      "properties": {
        "name": "Ghafurov"
      },
      "geometry": {
        "coordinates": [
          69.72867,
          40.21571
        ],
        "type": "Point"
      }
    },
    {
      "type": "Feature",
      "properties": {
        "name": "Buston"
      },
      "geometry": {
        "coordinates": [
          69.33307,
          40.52286
        ],
        "type": "Point"
      }
    },
    {
      "type": "Feature",
      "properties": {
        "name": "Shaydon"
      },
      "geometry": {
        "coordinates": [
          70.3502,
          40.66992
        ],
        "type": "Point"
      }
    },
    {
      "type": "Feature",
      "properties": {
        "name": "Oltintopkan"
      },
      "geometry": {
        "coordinates": [
          69.59811,
          40.65425
        ],
        "type": "Point"
      }
    },
    {
      "type": "Feature",
      "properties": {
        "name": "Adrasmon"
      },
      "geometry": {
        "coordinates": [
          69.98472,
          40.64928
        ],
        "type": "Point"
      }
    },
    {
      "type": "Feature",
      "properties": {
        "name": "Chkalov"
      },
      "geometry": {
        "coordinates": [
          69.69481,
          40.23417
        ],
        "type": "Point"
      }
    },
    {
      "type": "Feature",
      "properties": {
        "name": "Mehron"
      },
      "geometry": {
        "coordinates": [
          69.28677,
          39.41691
        ],
        "type": "Point"
      }
    },
    {
      "type": "Feature",
      "properties": {
        "name": "Moskovskiy"
      },
      "geometry": {
        "coordinates": [
          68.58094,
          37.60931
        ],
        "type": "Point"
      }
    }
  ]
}