{
  "type": "FeatureCollection",
  "features": [
    {
      "type": "Feature",
      "properties": {
        "name": "Don Sak"
      },
      "geometry": {
        "coordinates": [
          99.69184,
          9.31676
        ],
        "type": "Point"
      }
    },
    {
      "type": "Feature",
      "properties": {
        "name": "Thung Sai"
      },
      "geometry": {
        "coordinates": [
          99.83267,
          16.31489
        ],
        "type": "Point"
      }
    },
    {
      "type": "Feature",
      "properties": {
        "name": "Tham Phannara"
      },
      "geometry": {
        "coordinates": [
          99.39517,
          8.42045
        ],
        "type": "Point"
      }
    },
    {
      "type": "Feature",
      "properties": {
        "name": "Ban Talat Yai"
      },
      "geometry": {
        "coordinates": [
          98.40008,
          7.88481
        ],
        "type": "Point"
      }
    },
    {
      "type": "Feature",
      "properties": {
        "name": "Ban Talat Nua"
      },
      "geometry": {
        "coordinates": [
          98.38557,
          7.88489
        ],
        "type": "Point"
      }
    },
    {
      "type": "Feature",
      "properties": {
        "name": "Sam Roi Yot"
      },
      "geometry": {
        "coordinates": [
          99.87203,
          12.27081
        ],
        "type": "Point"
      }
    },
    {
      "type": "Feature",
      "properties": {
        "name": "Nopphitam"
      },
      "geometry": {
        "coordinates": [
          99.74878,
          8.72206
        ],
        "type": "Point"
      }
    },
    {
      "type": "Feature",
      "properties": {
        "name": "Lam Thap"
      },
      "geometry": {
        "coordinates": [
          99.29225,
          8.07228
        ],
        "type": "Point"
      }
    },
    {
      "type": "Feature",
      "properties": {
        "name": "Ban Huai I Huak"
      },
      "geometry": {
        "coordinates": [
          98.035,
          18.07861
        ],
        "type": "Point"
      }
    },
    {
      "type": "Feature",
      "properties": {
        "name": "Phrao"
      },
      "geometry": {
        "coordinates": [
          99.20187,
          19.36586
        ],
        "type": "Point"
      }
    },
    {
      "type": "Feature",
      "properties": {
        "name": "Mae Taeng"
      },
      "geometry": {
        "coordinates": [
          98.94176,
          19.11712
        ],
        "type": "Point"
      }
    },
    {
      "type": "Feature",
      "properties": {
        "name": "Mae Ai"
      },
      "geometry": {
        "coordinates": [
          99.29833,
          20.02883
        ],
        "type": "Point"
      }
    },
    {
      "type": "Feature",
      "properties": {
        "name": "Phetchaburi"
      },
      "geometry": {
        "coordinates": [
          99.94467,
          13.11189
        ],
        "type": "Point"
      }
    },
    {
      "type": "Feature",
      "properties": {
        "name": "Mae Chai"
      },
      "geometry": {
        "coordinates": [
          99.814,
          19.34597
        ],
        "type": "Point"
      }
    },
    {
      "type": "Feature",
      "properties": {
        "name": "Yan Ta Khao"
      },
      "geometry": {
        "coordinates": [
          99.66692,
          7.38622
        ],
        "type": "Point"
      }
    },
    {
      "type": "Feature",
      "properties": {
        "name": "Wiang Sa"
      },
      "geometry": {
        "coordinates": [
          99.3666,
          8.63585
        ],
        "type": "Point"
      }
    },
    {
      "type": "Feature",
      "properties": {
        "name": "Wiang Pa Pao"
      },
      "geometry": {
        "coordinates": [
          99.50722,
          19.34778
        ],
        "type": "Point"
      }
    },
    {
      "type": "Feature",
      "properties": {
        "name": "Wiang Haeng"
      },
      "geometry": {
        "coordinates": [
          98.6425,
          19.557
        ],
        "type": "Point"
      }
    },
    {
      "type": "Feature",
      "properties": {
        "name": "Wiang Chai"
      },
      "geometry": {
        "coordinates": [
          99.93314,
          19.88361
        ],
        "type": "Point"
      }
    },
    {
      "type": "Feature",
      "properties": {
        "name": "Wat Phleng"
      },
      "geometry": {
        "coordinates": [
          99.88637,
          13.45407
        ],
        "type": "Point"
      }
    },
    {
      "type": "Feature",
      "properties": {
        "name": "Wang Wiset"
      },
      "geometry": {
        "coordinates": [
          99.3987,
          7.73631
        ],
        "type": "Point"
      }
    },
    {
      "type": "Feature",
      "properties": {
        "name": "Wang Nuea"
      },
      "geometry": {
        "coordinates": [
          99.61933,
          19.14678
        ],
        "type": "Point"
      }
    },
    {
      "type": "Feature",
      "properties": {
        "name": "U Thong"
      },
      "geometry": {
        "coordinates": [
          99.89225,
          14.37514
        ],
        "type": "Point"
      }
    },
    {
      "type": "Feature",
      "properties": {
        "name": "Umphang"
      },
      "geometry": {
        "coordinates": [
          98.8627,
          16.01622
        ],
        "type": "Point"
      }
    },
    {
      "type": "Feature",
      "properties": {
        "name": "Trang"
      },
      "geometry": {
        "coordinates": [
          99.61141,
          7.55633
        ],
        "type": "Point"
      }
    },
    {
      "type": "Feature",
      "properties": {
        "name": "Thung Yai"
      },
      "geometry": {
        "coordinates": [
          99.36611,
          8.30119
        ],
        "type": "Point"
      }
    },
    {
      "type": "Feature",
      "properties": {
        "name": "Thung Tako"
      },
      "geometry": {
        "coordinates": [
          99.08306,
          10.11022
        ],
        "type": "Point"
      }
    },
    {
      "type": "Feature",
      "properties": {
        "name": "Thung Song"
      },
      "geometry": {
        "coordinates": [
          99.68039,
          8.16453
        ],
        "type": "Point"
      }
    },
    {
      "type": "Feature",
      "properties": {
        "name": "Thung Saliam"
      },
      "geometry": {
        "coordinates": [
          99.56092,
          17.32106
        ],
        "type": "Point"
      }
    },
    {
      "type": "Feature",
      "properties": {
        "name": "Thong Pha Phum"
      },
      "geometry": {
        "coordinates": [
          98.63101,
          14.74345
        ],
        "type": "Point"
      }
    },
    {
      "type": "Feature",
      "properties": {
        "name": "Thoen"
      },
      "geometry": {
        "coordinates": [
          99.21612,
          17.61289
        ],
        "type": "Point"
      }
    },
    {
      "type": "Feature",
      "properties": {
        "name": "Tha Song Yang"
      },
      "geometry": {
        "coordinates": [
          98.22572,
          17.22708
        ],
        "type": "Point"
      }
    },
    {
      "type": "Feature",
      "properties": {
        "name": "Tha Sala"
      },
      "geometry": {
        "coordinates": [
          99.93078,
          8.66733
        ],
        "type": "Point"
      }
    },
    {
      "type": "Feature",
      "properties": {
        "name": "Tha Sae"
      },
      "geometry": {
        "coordinates": [
          99.17281,
          10.66461
        ],
        "type": "Point"
      }
    },
    {
      "type": "Feature",
      "properties": {
        "name": "Thap Than"
      },
      "geometry": {
        "coordinates": [
          99.89166,
          15.46063
        ],
        "type": "Point"
      }
    },
    {
      "type": "Feature",
      "properties": {
        "name": "Thap Sakae"
      },
      "geometry": {
        "coordinates": [
          99.6217,
          11.49964
        ],
        "type": "Point"
      }
    },
    {
      "type": "Feature",
      "properties": {
        "name": "Thap Put"
      },
      "geometry": {
        "coordinates": [
          98.63972,
          8.51625
        ],
        "type": "Point"
      }
    },
    {
      "type": "Feature",
      "properties": {
        "name": "Tha Phae"
      },
      "geometry": {
        "coordinates": [
          99.97005,
          6.79014
        ],
        "type": "Point"
      }
    },
    {
      "type": "Feature",
      "properties": {
        "name": "Tha Muang"
      },
      "geometry": {
        "coordinates": [
          99.64122,
          13.96118
        ],
        "type": "Point"
      }
    },
    {
      "type": "Feature",
      "properties": {
        "name": "Tha Maka"
      },
      "geometry": {
        "coordinates": [
          99.76667,
          13.9
        ],
        "type": "Point"
      }
    },
    {
      "type": "Feature",
      "properties": {
        "name": "Thalang"
      },
      "geometry": {
        "coordinates": [
          98.33408,
          8.03169
        ],
        "type": "Point"
      }
    },
    {
      "type": "Feature",
      "properties": {
        "name": "Thai Mueang"
      },
      "geometry": {
        "coordinates": [
          98.26061,
          8.39914
        ],
        "type": "Point"
      }
    },
    {
      "type": "Feature",
      "properties": {
        "name": "Tha Chang"
      },
      "geometry": {
        "coordinates": [
          99.19218,
          9.26418
        ],
        "type": "Point"
      }
    },
    {
      "type": "Feature",
      "properties": {
        "name": "Tha Chana"
      },
      "geometry": {
        "coordinates": [
          99.16586,
          9.57203
        ],
        "type": "Point"
      }
    },
    {
      "type": "Feature",
      "properties": {
        "name": "Takua Thung"
      },
      "geometry": {
        "coordinates": [
          98.45123,
          8.38373
        ],
        "type": "Point"
      }
    },
    {
      "type": "Feature",
      "properties": {
        "name": "Takua Pa"
      },
      "geometry": {
        "coordinates": [
          98.34383,
          8.8705
        ],
        "type": "Point"
      }
    },
    {
      "type": "Feature",
      "properties": {
        "name": "Tak"
      },
      "geometry": {
        "coordinates": [
          99.12898,
          16.86968
        ],
        "type": "Point"
      }
    },
    {
      "type": "Feature",
      "properties": {
        "name": "Surat Thani"
      },
      "geometry": {
        "coordinates": [
          99.33311,
          9.14011
        ],
        "type": "Point"
      }
    },
    {
      "type": "Feature",
      "properties": {
        "name": "Sukhothai"
      },
      "geometry": {
        "coordinates": [
          99.823,
          17.00778
        ],
        "type": "Point"
      }
    },
    {
      "type": "Feature",
      "properties": {
        "name": "Suan Phueng"
      },
      "geometry": {
        "coordinates": [
          99.33961,
          13.5429
        ],
        "type": "Point"
      }
    },
    {
      "type": "Feature",
      "properties": {
        "name": "Sop Prap"
      },
      "geometry": {
        "coordinates": [
          99.337,
          17.88053
        ],
        "type": "Point"
      }
    },
    {
      "type": "Feature",
      "properties": {
        "name": "Soem Ngam"
      },
      "geometry": {
        "coordinates": [
          99.24537,
          18.06506
        ],
        "type": "Point"
      }
    },
    {
      "type": "Feature",
      "properties": {
        "name": "Si Sawat"
      },
      "geometry": {
        "coordinates": [
          99.11406,
          14.59922
        ],
        "type": "Point"
      }
    },
    {
      "type": "Feature",
      "properties": {
        "name": "Si Satchanalai"
      },
      "geometry": {
        "coordinates": [
          99.75978,
          17.51692
        ],
        "type": "Point"
      }
    },
    {
      "type": "Feature",
      "properties": {
        "name": "Si Samrong"
      },
      "geometry": {
        "coordinates": [
          99.86222,
          17.164
        ],
        "type": "Point"
      }
    },
    {
      "type": "Feature",
      "properties": {
        "name": "Si Nakhon"
      },
      "geometry": {
        "coordinates": [
          99.98563,
          17.34907
        ],
        "type": "Point"
      }
    },
    {
      "type": "Feature",
      "properties": {
        "name": "Sikao"
      },
      "geometry": {
        "coordinates": [
          99.34494,
          7.57158
        ],
        "type": "Point"
      }
    },
    {
      "type": "Feature",
      "properties": {
        "name": "Si Banphot"
      },
      "geometry": {
        "coordinates": [
          99.8843,
          7.72136
        ],
        "type": "Point"
      }
    },
    {
      "type": "Feature",
      "properties": {
        "name": "Sawi"
      },
      "geometry": {
        "coordinates": [
          99.10938,
          10.23668
        ],
        "type": "Point"
      }
    },
    {
      "type": "Feature",
      "properties": {
        "name": "Sawankhalok"
      },
      "geometry": {
        "coordinates": [
          99.83186,
          17.31597
        ],
        "type": "Point"
      }
    },
    {
      "type": "Feature",
      "properties": {
        "name": "Sawang Arom"
      },
      "geometry": {
        "coordinates": [
          99.86089,
          15.58394
        ],
        "type": "Point"
      }
    },
    {
      "type": "Feature",
      "properties": {
        "name": "Saraphi"
      },
      "geometry": {
        "coordinates": [
          99.03528,
          18.71417
        ],
        "type": "Point"
      }
    },
    {
      "type": "Feature",
      "properties": {
        "name": "San Sai"
      },
      "geometry": {
        "coordinates": [
          99.04508,
          18.84792
        ],
        "type": "Point"
      }
    },
    {
      "type": "Feature",
      "properties": {
        "name": "San Pa Tong"
      },
      "geometry": {
        "coordinates": [
          98.89572,
          18.62828
        ],
        "type": "Point"
      }
    },
    {
      "type": "Feature",
      "properties": {
        "name": "San Kamphaeng"
      },
      "geometry": {
        "coordinates": [
          99.11953,
          18.74486
        ],
        "type": "Point"
      }
    },
    {
      "type": "Feature",
      "properties": {
        "name": "Sangkhla Buri"
      },
      "geometry": {
        "coordinates": [
          98.45361,
          15.15553
        ],
        "type": "Point"
      }
    },
    {
      "type": "Feature",
      "properties": {
        "name": "Samoeng"
      },
      "geometry": {
        "coordinates": [
          98.73242,
          18.84806
        ],
        "type": "Point"
      }
    },
    {
      "type": "Feature",
      "properties": {
        "name": "Sam Ngao"
      },
      "geometry": {
        "coordinates": [
          99.02256,
          17.24331
        ],
        "type": "Point"
      }
    },
    {
      "type": "Feature",
      "properties": {
        "name": "Sai Yok"
      },
      "geometry": {
        "coordinates": [
          99.142,
          14.11899
        ],
        "type": "Point"
      }
    },
    {
      "type": "Feature",
      "properties": {
        "name": "Sai Ngam"
      },
      "geometry": {
        "coordinates": [
          99.88843,
          16.46862
        ],
        "type": "Point"
      }
    },
    {
      "type": "Feature",
      "properties": {
        "name": "Ron Phibun"
      },
      "geometry": {
        "coordinates": [
          99.85425,
          8.17911
        ],
        "type": "Point"
      }
    },
    {
      "type": "Feature",
      "properties": {
        "name": "Ratchaburi"
      },
      "geometry": {
        "coordinates": [
          99.81712,
          13.53671
        ],
        "type": "Point"
      }
    },
    {
      "type": "Feature",
      "properties": {
        "name": "Ranong"
      },
      "geometry": {
        "coordinates": [
          98.63476,
          9.96583
        ],
        "type": "Point"
      }
    },
    {
      "type": "Feature",
      "properties": {
        "name": "Pran Buri"
      },
      "geometry": {
        "coordinates": [
          99.90157,
          12.38487
        ],
        "type": "Point"
      }
    },
    {
      "type": "Feature",
      "properties": {
        "name": "Prachuap Khiri Khan"
      },
      "geometry": {
        "coordinates": [
          99.7841,
          11.82098
        ],
        "type": "Point"
      }
    },
    {
      "type": "Feature",
      "properties": {
        "name": "Plai Phraya"
      },
      "geometry": {
        "coordinates": [
          98.8637,
          8.53278
        ],
        "type": "Point"
      }
    },
    {
      "type": "Feature",
      "properties": {
        "name": "Tha Kham"
      },
      "geometry": {
        "coordinates": [
          99.23208,
          9.11072
        ],
        "type": "Point"
      }
    },
    {
      "type": "Feature",
      "properties": {
        "name": "Phuket"
      },
      "geometry": {
        "coordinates": [
          98.3981,
          7.89059
        ],
        "type": "Point"
      }
    },
    {
      "type": "Feature",
      "properties": {
        "name": "Phrom Khiri"
      },
      "geometry": {
        "coordinates": [
          99.82275,
          8.52333
        ],
        "type": "Point"
      }
    },
    {
      "type": "Feature",
      "properties": {
        "name": "Phrasaeng"
      },
      "geometry": {
        "coordinates": [
          99.24756,
          8.56781
        ],
        "type": "Point"
      }
    },
    {
      "type": "Feature",
      "properties": {
        "name": "Phran Kratai"
      },
      "geometry": {
        "coordinates": [
          99.58894,
          16.66511
        ],
        "type": "Point"
      }
    },
    {
      "type": "Feature",
      "properties": {
        "name": "Photharam"
      },
      "geometry": {
        "coordinates": [
          99.84969,
          13.69234
        ],
        "type": "Point"
      }
    },
    {
      "type": "Feature",
      "properties": {
        "name": "Phop Phra"
      },
      "geometry": {
        "coordinates": [
          98.69028,
          16.38461
        ],
        "type": "Point"
      }
    },
    {
      "type": "Feature",
      "properties": {
        "name": "Phipun"
      },
      "geometry": {
        "coordinates": [
          99.60703,
          8.56036
        ],
        "type": "Point"
      }
    },
    {
      "type": "Feature",
      "properties": {
        "name": "Phayao"
      },
      "geometry": {
        "coordinates": [
          99.87883,
          19.19203
        ],
        "type": "Point"
      }
    },
    {
      "type": "Feature",
      "properties": {
        "name": "Phato"
      },
      "geometry": {
        "coordinates": [
          98.77658,
          9.79089
        ],
        "type": "Point"
      }
    },
    {
      "type": "Feature",
      "properties": {
        "name": "Phanom Thuan"
      },
      "geometry": {
        "coordinates": [
          99.69858,
          14.13031
        ],
        "type": "Point"
      }
    },
    {
      "type": "Feature",
      "properties": {
        "name": "Phanom"
      },
      "geometry": {
        "coordinates": [
          98.81267,
          8.85475
        ],
        "type": "Point"
      }
    },
    {
      "type": "Feature",
      "properties": {
        "name": "Phang Nga"
      },
      "geometry": {
        "coordinates": [
          98.52985,
          8.45091
        ],
        "type": "Point"
      }
    },
    {
      "type": "Feature",
      "properties": {
        "name": "Phan"
      },
      "geometry": {
        "coordinates": [
          99.74045,
          19.55395
        ],
        "type": "Point"
      }
    },
    {
      "type": "Feature",
      "properties": {
        "name": "Pathio"
      },
      "geometry": {
        "coordinates": [
          99.3182,
          10.70908
        ],
        "type": "Point"
      }
    },
    {
      "type": "Feature",
      "properties": {
        "name": "Pa Sang"
      },
      "geometry": {
        "coordinates": [
          98.93936,
          18.52617
        ],
        "type": "Point"
      }
    },
    {
      "type": "Feature",
      "properties": {
        "name": "Palian"
      },
      "geometry": {
        "coordinates": [
          99.68624,
          7.17237
        ],
        "type": "Point"
      }
    },
    {
      "type": "Feature",
      "properties": {
        "name": "Pak Tho"
      },
      "geometry": {
        "coordinates": [
          99.83938,
          13.37263
        ],
        "type": "Point"
      }
    },
    {
      "type": "Feature",
      "properties": {
        "name": "Pai"
      },
      "geometry": {
        "coordinates": [
          98.43973,
          19.36168
        ],
        "type": "Point"
      }
    },
    {
      "type": "Feature",
      "properties": {
        "name": "Om Koi"
      },
      "geometry": {
        "coordinates": [
          98.35933,
          17.80122
        ],
        "type": "Point"
      }
    },
    {
      "type": "Feature",
      "properties": {
        "name": "Nong Ya Plong"
      },
      "geometry": {
        "coordinates": [
          99.69723,
          13.16288
        ],
        "type": "Point"
      }
    },
    {
      "type": "Feature",
      "properties": {
        "name": "Nong Kha Yang"
      },
      "geometry": {
        "coordinates": [
          99.92939,
          15.364
        ],
        "type": "Point"
      }
    },
    {
      "type": "Feature",
      "properties": {
        "name": "Nong Chang"
      },
      "geometry": {
        "coordinates": [
          99.84147,
          15.39147
        ],
        "type": "Point"
      }
    },
    {
      "type": "Feature",
      "properties": {
        "name": "Ngao"
      },
      "geometry": {
        "coordinates": [
          99.97814,
          18.75678
        ],
        "type": "Point"
      }
    },
    {
      "type": "Feature",
      "properties": {
        "name": "Nakhon Si Thammarat"
      },
      "geometry": {
        "coordinates": [
          99.96667,
          8.43333
        ],
        "type": "Point"
      }
    },
    {
      "type": "Feature",
      "properties": {
        "name": "Na Bon"
      },
      "geometry": {
        "coordinates": [
          99.59472,
          8.26167
        ],
        "type": "Point"
      }
    },
    {
      "type": "Feature",
      "properties": {
        "name": "Mueang Pan"
      },
      "geometry": {
        "coordinates": [
          99.5025,
          18.76803
        ],
        "type": "Point"
      }
    },
    {
      "type": "Feature",
      "properties": {
        "name": "Mae Tha"
      },
      "geometry": {
        "coordinates": [
          99.14026,
          18.46456
        ],
        "type": "Point"
      }
    },
    {
      "type": "Feature",
      "properties": {
        "name": "Mae Tha"
      },
      "geometry": {
        "coordinates": [
          99.51389,
          18.13411
        ],
        "type": "Point"
      }
    },
    {
      "type": "Feature",
      "properties": {
        "name": "Mae Suai"
      },
      "geometry": {
        "coordinates": [
          99.54367,
          19.65633
        ],
        "type": "Point"
      }
    },
    {
      "type": "Feature",
      "properties": {
        "name": "Mae Sot"
      },
      "geometry": {
        "coordinates": [
          98.56667,
          16.71667
        ],
        "type": "Point"
      }
    },
    {
      "type": "Feature",
      "properties": {
        "name": "Mae Sai"
      },
      "geometry": {
        "coordinates": [
          99.87617,
          20.43353
        ],
        "type": "Point"
      }
    },
    {
      "type": "Feature",
      "properties": {
        "name": "Mae Ramat"
      },
      "geometry": {
        "coordinates": [
          98.51665,
          16.98403
        ],
        "type": "Point"
      }
    },
    {
      "type": "Feature",
      "properties": {
        "name": "Mae Phrik"
      },
      "geometry": {
        "coordinates": [
          99.1142,
          17.44688
        ],
        "type": "Point"
      }
    },
    {
      "type": "Feature",
      "properties": {
        "name": "Mae Mo"
      },
      "geometry": {
        "coordinates": [
          99.65045,
          18.27561
        ],
        "type": "Point"
      }
    },
    {
      "type": "Feature",
      "properties": {
        "name": "Mae La Noi"
      },
      "geometry": {
        "coordinates": [
          97.91272,
          18.39746
        ],
        "type": "Point"
      }
    },
    {
      "type": "Feature",
      "properties": {
        "name": "Mae Hong Son"
      },
      "geometry": {
        "coordinates": [
          97.96852,
          19.30029
        ],
        "type": "Point"
      }
    },
    {
      "type": "Feature",
      "properties": {
        "name": "Mae Chan"
      },
      "geometry": {
        "coordinates": [
          99.85256,
          20.14675
        ],
        "type": "Point"
      }
    },
    {
      "type": "Feature",
      "properties": {
        "name": "Mae Chaem"
      },
      "geometry": {
        "coordinates": [
          98.36494,
          18.49926
        ],
        "type": "Point"
      }
    },
    {
      "type": "Feature",
      "properties": {
        "name": "Long"
      },
      "geometry": {
        "coordinates": [
          99.83073,
          18.07422
        ],
        "type": "Point"
      }
    },
    {
      "type": "Feature",
      "properties": {
        "name": "Li"
      },
      "geometry": {
        "coordinates": [
          98.95097,
          17.80269
        ],
        "type": "Point"
      }
    },
    {
      "type": "Feature",
      "properties": {
        "name": "La-Un"
      },
      "geometry": {
        "coordinates": [
          98.75,
          10.11646
        ],
        "type": "Point"
      }
    },
    {
      "type": "Feature",
      "properties": {
        "name": "Lat Yao"
      },
      "geometry": {
        "coordinates": [
          99.78925,
          15.751
        ],
        "type": "Point"
      }
    },
    {
      "type": "Feature",
      "properties": {
        "name": "Lao Khwan"
      },
      "geometry": {
        "coordinates": [
          99.77431,
          14.59522
        ],
        "type": "Point"
      }
    },
    {
      "type": "Feature",
      "properties": {
        "name": "Lan Saka"
      },
      "geometry": {
        "coordinates": [
          99.80564,
          8.37097
        ],
        "type": "Point"
      }
    },
    {
      "type": "Feature",
      "properties": {
        "name": "Lan Sak"
      },
      "geometry": {
        "coordinates": [
          99.57606,
          15.45289
        ],
        "type": "Point"
      }
    },
    {
      "type": "Feature",
      "properties": {
        "name": "Lan Krabue"
      },
      "geometry": {
        "coordinates": [
          99.84889,
          16.60003
        ],
        "type": "Point"
      }
    },
    {
      "type": "Feature",
      "properties": {
        "name": "La-ngu"
      },
      "geometry": {
        "coordinates": [
          99.78836,
          6.88492
        ],
        "type": "Point"
      }
    },
    {
      "type": "Feature",
      "properties": {
        "name": "Lang Suan"
      },
      "geometry": {
        "coordinates": [
          99.07847,
          9.94561
        ],
        "type": "Point"
      }
    },
    {
      "type": "Feature",
      "properties": {
        "name": "Lamphun"
      },
      "geometry": {
        "coordinates": [
          99.00745,
          18.58054
        ],
        "type": "Point"
      }
    },
    {
      "type": "Feature",
      "properties": {
        "name": "Lampang"
      },
      "geometry": {
        "coordinates": [
          99.49277,
          18.29232
        ],
        "type": "Point"
      }
    },
    {
      "type": "Feature",
      "properties": {
        "name": "Lamae"
      },
      "geometry": {
        "coordinates": [
          99.09256,
          9.76789
        ],
        "type": "Point"
      }
    },
    {
      "type": "Feature",
      "properties": {
        "name": "Kui Buri"
      },
      "geometry": {
        "coordinates": [
          99.85431,
          12.08283
        ],
        "type": "Point"
      }
    },
    {
      "type": "Feature",
      "properties": {
        "name": "Kra Buri"
      },
      "geometry": {
        "coordinates": [
          98.77266,
          10.40429
        ],
        "type": "Point"
      }
    },
    {
      "type": "Feature",
      "properties": {
        "name": "Krabi"
      },
      "geometry": {
        "coordinates": [
          98.91052,
          8.07257
        ],
        "type": "Point"
      }
    },
    {
      "type": "Feature",
      "properties": {
        "name": "Ko Yao"
      },
      "geometry": {
        "coordinates": [
          98.59231,
          8.11013
        ],
        "type": "Point"
      }
    },
    {
      "type": "Feature",
      "properties": {
        "name": "Kong Ra"
      },
      "geometry": {
        "coordinates": [
          99.94972,
          7.40272
        ],
        "type": "Point"
      }
    },
    {
      "type": "Feature",
      "properties": {
        "name": "Kong Krailat"
      },
      "geometry": {
        "coordinates": [
          99.97769,
          16.95197
        ],
        "type": "Point"
      }
    },
    {
      "type": "Feature",
      "properties": {
        "name": "Ko Lanta"
      },
      "geometry": {
        "coordinates": [
          99.08647,
          7.53362
        ],
        "type": "Point"
      }
    },
    {
      "type": "Feature",
      "properties": {
        "name": "Ko Kha"
      },
      "geometry": {
        "coordinates": [
          99.39433,
          18.19225
        ],
        "type": "Point"
      }
    },
    {
      "type": "Feature",
      "properties": {
        "name": "Khura Buri"
      },
      "geometry": {
        "coordinates": [
          98.41514,
          9.19397
        ],
        "type": "Point"
      }
    },
    {
      "type": "Feature",
      "properties": {
        "name": "Khun Yuam"
      },
      "geometry": {
        "coordinates": [
          97.93347,
          18.82958
        ],
        "type": "Point"
      }
    },
    {
      "type": "Feature",
      "properties": {
        "name": "Khlong Thom"
      },
      "geometry": {
        "coordinates": [
          99.14457,
          7.9375
        ],
        "type": "Point"
      }
    },
    {
      "type": "Feature",
      "properties": {
        "name": "Khlong Lan"
      },
      "geometry": {
        "coordinates": [
          99.31997,
          16.20331
        ],
        "type": "Point"
      }
    },
    {
      "type": "Feature",
      "properties": {
        "name": "Khlong Khlung"
      },
      "geometry": {
        "coordinates": [
          99.71906,
          16.21633
        ],
        "type": "Point"
      }
    },
    {
      "type": "Feature",
      "properties": {
        "name": "Tha Khanon"
      },
      "geometry": {
        "coordinates": [
          98.95286,
          9.0302
        ],
        "type": "Point"
      }
    },
    {
      "type": "Feature",
      "properties": {
        "name": "Khiri Mat"
      },
      "geometry": {
        "coordinates": [
          99.8,
          16.83333
        ],
        "type": "Point"
      }
    },
    {
      "type": "Feature",
      "properties": {
        "name": "Khian Sa"
      },
      "geometry": {
        "coordinates": [
          99.19856,
          8.84295
        ],
        "type": "Point"
      }
    },
    {
      "type": "Feature",
      "properties": {
        "name": "Khao Yoi"
      },
      "geometry": {
        "coordinates": [
          99.82428,
          13.24025
        ],
        "type": "Point"
      }
    },
    {
      "type": "Feature",
      "properties": {
        "name": "Khao Phanom"
      },
      "geometry": {
        "coordinates": [
          99.05124,
          8.26549
        ],
        "type": "Point"
      }
    },
    {
      "type": "Feature",
      "properties": {
        "name": "Khanu Woralaksaburi"
      },
      "geometry": {
        "coordinates": [
          99.86058,
          16.0617
        ],
        "type": "Point"
      }
    },
    {
      "type": "Feature",
      "properties": {
        "name": "Kathu"
      },
      "geometry": {
        "coordinates": [
          98.33322,
          7.91779
        ],
        "type": "Point"
      }
    },
    {
      "type": "Feature",
      "properties": {
        "name": "Kapong"
      },
      "geometry": {
        "coordinates": [
          98.40914,
          8.69697
        ],
        "type": "Point"
      }
    },
    {
      "type": "Feature",
      "properties": {
        "name": "Kapoe"
      },
      "geometry": {
        "coordinates": [
          98.59611,
          9.58522
        ],
        "type": "Point"
      }
    },
    {
      "type": "Feature",
      "properties": {
        "name": "Kantang"
      },
      "geometry": {
        "coordinates": [
          99.51561,
          7.40542
        ],
        "type": "Point"
      }
    },
    {
      "type": "Feature",
      "properties": {
        "name": "Kanchanadit"
      },
      "geometry": {
        "coordinates": [
          99.47014,
          9.16611
        ],
        "type": "Point"
      }
    },
    {
      "type": "Feature",
      "properties": {
        "name": "Kanchanaburi"
      },
      "geometry": {
        "coordinates": [
          99.54832,
          14.00412
        ],
        "type": "Point"
      }
    },
    {
      "type": "Feature",
      "properties": {
        "name": "Kamphaeng Phet"
      },
      "geometry": {
        "coordinates": [
          99.52153,
          16.48344
        ],
        "type": "Point"
      }
    },
    {
      "type": "Feature",
      "properties": {
        "name": "Huai Yot"
      },
      "geometry": {
        "coordinates": [
          99.63469,
          7.78937
        ],
        "type": "Point"
      }
    },
    {
      "type": "Feature",
      "properties": {
        "name": "Huai Khot"
      },
      "geometry": {
        "coordinates": [
          99.61661,
          15.29095
        ],
        "type": "Point"
      }
    },
    {
      "type": "Feature",
      "properties": {
        "name": "Hua Hin"
      },
      "geometry": {
        "coordinates": [
          99.95876,
          12.57065
        ],
        "type": "Point"
      }
    },
    {
      "type": "Feature",
      "properties": {
        "name": "Hot"
      },
      "geometry": {
        "coordinates": [
          98.61039,
          18.19317
        ],
        "type": "Point"
      }
    },
    {
      "type": "Feature",
      "properties": {
        "name": "Hang Dong"
      },
      "geometry": {
        "coordinates": [
          98.91939,
          18.68703
        ],
        "type": "Point"
      }
    },
    {
      "type": "Feature",
      "properties": {
        "name": "Hang Chat"
      },
      "geometry": {
        "coordinates": [
          99.34621,
          18.32883
        ],
        "type": "Point"
      }
    },
    {
      "type": "Feature",
      "properties": {
        "name": "Fang"
      },
      "geometry": {
        "coordinates": [
          99.2145,
          19.91689
        ],
        "type": "Point"
      }
    },
    {
      "type": "Feature",
      "properties": {
        "name": "Dok Kham Tai"
      },
      "geometry": {
        "coordinates": [
          99.99342,
          19.16242
        ],
        "type": "Point"
      }
    },
    {
      "type": "Feature",
      "properties": {
        "name": "Doi Tao"
      },
      "geometry": {
        "coordinates": [
          98.68458,
          17.95286
        ],
        "type": "Point"
      }
    },
    {
      "type": "Feature",
      "properties": {
        "name": "Dan Chang"
      },
      "geometry": {
        "coordinates": [
          99.69756,
          14.84183
        ],
        "type": "Point"
      }
    },
    {
      "type": "Feature",
      "properties": {
        "name": "Damnoen Saduak"
      },
      "geometry": {
        "coordinates": [
          99.95469,
          13.51825
        ],
        "type": "Point"
      }
    },
    {
      "type": "Feature",
      "properties": {
        "name": "Chumphon"
      },
      "geometry": {
        "coordinates": [
          99.17971,
          10.4957
        ],
        "type": "Point"
      }
    },
    {
      "type": "Feature",
      "properties": {
        "name": "Chom Thong"
      },
      "geometry": {
        "coordinates": [
          98.67428,
          18.41742
        ],
        "type": "Point"
      }
    },
    {
      "type": "Feature",
      "properties": {
        "name": "Chom Bueng"
      },
      "geometry": {
        "coordinates": [
          99.59169,
          13.62
        ],
        "type": "Point"
      }
    },
    {
      "type": "Feature",
      "properties": {
        "name": "Chiang Rai"
      },
      "geometry": {
        "coordinates": [
          99.8325,
          19.90858
        ],
        "type": "Point"
      }
    },
    {
      "type": "Feature",
      "properties": {
        "name": "Chiang Mai"
      },
      "geometry": {
        "coordinates": [
          98.98468,
          18.79038
        ],
        "type": "Point"
      }
    },
    {
      "type": "Feature",
      "properties": {
        "name": "Chiang Dao"
      },
      "geometry": {
        "coordinates": [
          98.96453,
          19.36542
        ],
        "type": "Point"
      }
    },
    {
      "type": "Feature",
      "properties": {
        "name": "Chawang"
      },
      "geometry": {
        "coordinates": [
          99.50472,
          8.42614
        ],
        "type": "Point"
      }
    },
    {
      "type": "Feature",
      "properties": {
        "name": "Chaiya"
      },
      "geometry": {
        "coordinates": [
          99.19861,
          9.38625
        ],
        "type": "Point"
      }
    },
    {
      "type": "Feature",
      "properties": {
        "name": "Chai Buri"
      },
      "geometry": {
        "coordinates": [
          99.07631,
          8.46222
        ],
        "type": "Point"
      }
    },
    {
      "type": "Feature",
      "properties": {
        "name": "Chae Hom"
      },
      "geometry": {
        "coordinates": [
          99.55758,
          18.71267
        ],
        "type": "Point"
      }
    },
    {
      "type": "Feature",
      "properties": {
        "name": "Cha-am"
      },
      "geometry": {
        "coordinates": [
          99.96667,
          12.8
        ],
        "type": "Point"
      }
    },
    {
      "type": "Feature",
      "properties": {
        "name": "Bo Phloi"
      },
      "geometry": {
        "coordinates": [
          99.51467,
          14.32517
        ],
        "type": "Point"
      }
    },
    {
      "type": "Feature",
      "properties": {
        "name": "Wiang Nuea"
      },
      "geometry": {
        "coordinates": [
          98.44644,
          19.37972
        ],
        "type": "Point"
      }
    },
    {
      "type": "Feature",
      "properties": {
        "name": "Wang Chin"
      },
      "geometry": {
        "coordinates": [
          99.6105,
          17.8802
        ],
        "type": "Point"
      }
    },
    {
      "type": "Feature",
      "properties": {
        "name": "Wang Chao"
      },
      "geometry": {
        "coordinates": [
          99.26903,
          16.67441
        ],
        "type": "Point"
      }
    },
    {
      "type": "Feature",
      "properties": {
        "name": "Thung Wa"
      },
      "geometry": {
        "coordinates": [
          99.75586,
          7.10957
        ],
        "type": "Point"
      }
    },
    {
      "type": "Feature",
      "properties": {
        "name": "Thung Hua Chang"
      },
      "geometry": {
        "coordinates": [
          99.0278,
          18.00301
        ],
        "type": "Point"
      }
    },
    {
      "type": "Feature",
      "properties": {
        "name": "Tha Maka"
      },
      "geometry": {
        "coordinates": [
          99.76553,
          13.92081
        ],
        "type": "Point"
      }
    },
    {
      "type": "Feature",
      "properties": {
        "name": "Ban Tak"
      },
      "geometry": {
        "coordinates": [
          99.08128,
          17.04325
        ],
        "type": "Point"
      }
    },
    {
      "type": "Feature",
      "properties": {
        "name": "Ko Samui"
      },
      "geometry": {
        "coordinates": [
          99.93567,
          9.53567
        ],
        "type": "Point"
      }
    },
    {
      "type": "Feature",
      "properties": {
        "name": "Rawai"
      },
      "geometry": {
        "coordinates": [
          98.32532,
          7.77965
        ],
        "type": "Point"
      }
    },
    {
      "type": "Feature",
      "properties": {
        "name": "Ban Rai"
      },
      "geometry": {
        "coordinates": [
          99.52108,
          15.08417
        ],
        "type": "Point"
      }
    },
    {
      "type": "Feature",
      "properties": {
        "name": "Ban Pong"
      },
      "geometry": {
        "coordinates": [
          99.87739,
          13.81629
        ],
        "type": "Point"
      }
    },
    {
      "type": "Feature",
      "properties": {
        "name": "Banphot Phisai"
      },
      "geometry": {
        "coordinates": [
          99.98129,
          15.93558
        ],
        "type": "Point"
      }
    },
    {
      "type": "Feature",
      "properties": {
        "name": "Ban Phru Nai"
      },
      "geometry": {
        "coordinates": [
          98.58989,
          7.95458
        ],
        "type": "Point"
      }
    },
    {
      "type": "Feature",
      "properties": {
        "name": "Nuea Khlong"
      },
      "geometry": {
        "coordinates": [
          98.99933,
          8.07143
        ],
        "type": "Point"
      }
    },
    {
      "type": "Feature",
      "properties": {
        "name": "Nong Prue"
      },
      "geometry": {
        "coordinates": [
          99.45783,
          14.60784
        ],
        "type": "Point"
      }
    },
    {
      "type": "Feature",
      "properties": {
        "name": "Nong Mamong"
      },
      "geometry": {
        "coordinates": [
          99.8664,
          15.27613
        ],
        "type": "Point"
      }
    },
    {
      "type": "Feature",
      "properties": {
        "name": "Noen Kham"
      },
      "geometry": {
        "coordinates": [
          99.93899,
          14.9501
        ],
        "type": "Point"
      }
    },
    {
      "type": "Feature",
      "properties": {
        "name": "Ban Na San"
      },
      "geometry": {
        "coordinates": [
          99.36372,
          8.80036
        ],
        "type": "Point"
      }
    },
    {
      "type": "Feature",
      "properties": {
        "name": "Ban Na Doem"
      },
      "geometry": {
        "coordinates": [
          99.31014,
          8.88361
        ],
        "type": "Point"
      }
    },
    {
      "type": "Feature",
      "properties": {
        "name": "Ban Na"
      },
      "geometry": {
        "coordinates": [
          99.73283,
          17.01717
        ],
        "type": "Point"
      }
    },
    {
      "type": "Feature",
      "properties": {
        "name": "Ban Lat"
      },
      "geometry": {
        "coordinates": [
          99.91701,
          13.0515
        ],
        "type": "Point"
      }
    },
    {
      "type": "Feature",
      "properties": {
        "name": "Ban Laem"
      },
      "geometry": {
        "coordinates": [
          99.97959,
          13.20468
        ],
        "type": "Point"
      }
    },
    {
      "type": "Feature",
      "properties": {
        "name": "Ban Ko Kaeo"
      },
      "geometry": {
        "coordinates": [
          98.39664,
          7.93599
        ],
        "type": "Point"
      }
    },
    {
      "type": "Feature",
      "properties": {
        "name": "Ban Khao Lak"
      },
      "geometry": {
        "coordinates": [
          98.23994,
          8.61501
        ],
        "type": "Point"
      }
    },
    {
      "type": "Feature",
      "properties": {
        "name": "Ban Kha"
      },
      "geometry": {
        "coordinates": [
          99.40967,
          13.43047
        ],
        "type": "Point"
      }
    },
    {
      "type": "Feature",
      "properties": {
        "name": "Kathu"
      },
      "geometry": {
        "coordinates": [
          98.3332,
          7.90903
        ],
        "type": "Point"
      }
    },
    {
      "type": "Feature",
      "properties": {
        "name": "Ban Karon"
      },
      "geometry": {
        "coordinates": [
          98.2985,
          7.84769
        ],
        "type": "Point"
      }
    },
    {
      "type": "Feature",
      "properties": {
        "name": "Kaeng Krachan"
      },
      "geometry": {
        "coordinates": [
          99.64795,
          12.90742
        ],
        "type": "Point"
      }
    },
    {
      "type": "Feature",
      "properties": {
        "name": "Huai Krachao"
      },
      "geometry": {
        "coordinates": [
          99.66767,
          14.3275
        ],
        "type": "Point"
      }
    },
    {
      "type": "Feature",
      "properties": {
        "name": "Ban Hong"
      },
      "geometry": {
        "coordinates": [
          98.81925,
          18.33086
        ],
        "type": "Point"
      }
    },
    {
      "type": "Feature",
      "properties": {
        "name": "Bang Saphan Noi"
      },
      "geometry": {
        "coordinates": [
          99.44152,
          11.07535
        ],
        "type": "Point"
      }
    },
    {
      "type": "Feature",
      "properties": {
        "name": "Bang Saphan"
      },
      "geometry": {
        "coordinates": [
          99.51167,
          11.21259
        ],
        "type": "Point"
      }
    },
    {
      "type": "Feature",
      "properties": {
        "name": "Bang Phae"
      },
      "geometry": {
        "coordinates": [
          99.92982,
          13.69157
        ],
        "type": "Point"
      }
    },
    {
      "type": "Feature",
      "properties": {
        "name": "Bang Khon Thi"
      },
      "geometry": {
        "coordinates": [
          99.94021,
          13.46906
        ],
        "type": "Point"
      }
    },
    {
      "type": "Feature",
      "properties": {
        "name": "Bang Khan"
      },
      "geometry": {
        "coordinates": [
          99.47372,
          8.02689
        ],
        "type": "Point"
      }
    },
    {
      "type": "Feature",
      "properties": {
        "name": "Don Tum"
      },
      "geometry": {
        "coordinates": [
          100.07888,
          13.9609
        ],
        "type": "Point"
      }
    },
    {
      "type": "Feature",
      "properties": {
        "name": "Doi Lo"
      },
      "geometry": {
        "coordinates": [
          98.77767,
          18.46098
        ],
        "type": "Point"
      }
    },
    {
      "type": "Feature",
      "properties": {
        "name": "Dan Makham Tia"
      },
      "geometry": {
        "coordinates": [
          99.41042,
          13.85339
        ],
        "type": "Point"
      }
    },
    {
      "type": "Feature",
      "properties": {
        "name": "Ban Dan Lan Hoi"
      },
      "geometry": {
        "coordinates": [
          99.57497,
          17.00683
        ],
        "type": "Point"
      }
    },
    {
      "type": "Feature",
      "properties": {
        "name": "Ban Ao Nang"
      },
      "geometry": {
        "coordinates": [
          98.81035,
          8.0458
        ],
        "type": "Point"
      }
    },
    {
      "type": "Feature",
      "properties": {
        "name": "Ao Luek"
      },
      "geometry": {
        "coordinates": [
          98.72117,
          8.37803
        ],
        "type": "Point"
      }
    },
    {
      "type": "Feature",
      "properties": {
        "name": "Amphawa"
      },
      "geometry": {
        "coordinates": [
          99.95688,
          13.42436
        ],
        "type": "Point"
      }
    },
    {
      "type": "Feature",
      "properties": {
        "name": "Sa Bot"
      },
      "geometry": {
        "coordinates": [
          100.83076,
          15.21006
        ],
        "type": "Point"
      }
    },
    {
      "type": "Feature",
      "properties": {
        "name": "Phatthana Nikhom"
      },
      "geometry": {
        "coordinates": [
          100.98459,
          14.85647
        ],
        "type": "Point"
      }
    },
    {
      "type": "Feature",
      "properties": {
        "name": "Nong Kung Si"
      },
      "geometry": {
        "coordinates": [
          103.3,
          16.65
        ],
        "type": "Point"
      }
    },
    {
      "type": "Feature",
      "properties": {
        "name": "Na Dun"
      },
      "geometry": {
        "coordinates": [
          103.22781,
          15.71668
        ],
        "type": "Point"
      }
    },
    {
      "type": "Feature",
      "properties": {
        "name": "Ko Pha-Ngan"
      },
      "geometry": {
        "coordinates": [
          99.99511,
          9.71945
        ],
        "type": "Point"
      }
    },
    {
      "type": "Feature",
      "properties": {
        "name": "Yang Si Surat"
      },
      "geometry": {
        "coordinates": [
          103.10311,
          15.68361
        ],
        "type": "Point"
      }
    },
    {
      "type": "Feature",
      "properties": {
        "name": "Mueang Yang"
      },
      "geometry": {
        "coordinates": [
          102.89282,
          15.4206
        ],
        "type": "Point"
      }
    },
    {
      "type": "Feature",
      "properties": {
        "name": "Siao"
      },
      "geometry": {
        "coordinates": [
          104.67017,
          14.79583
        ],
        "type": "Point"
      }
    },
    {
      "type": "Feature",
      "properties": {
        "name": "Samran"
      },
      "geometry": {
        "coordinates": [
          103.54106,
          16.86322
        ],
        "type": "Point"
      }
    },
    {
      "type": "Feature",
      "properties": {
        "name": "Thepharak"
      },
      "geometry": {
        "coordinates": [
          101.55045,
          15.30868
        ],
        "type": "Point"
      }
    },
    {
      "type": "Feature",
      "properties": {
        "name": "Sak Lek"
      },
      "geometry": {
        "coordinates": [
          100.47103,
          16.50528
        ],
        "type": "Point"
      }
    },
    {
      "type": "Feature",
      "properties": {
        "name": "Phayu"
      },
      "geometry": {
        "coordinates": [
          104.39101,
          14.90851
        ],
        "type": "Point"
      }
    },
    {
      "type": "Feature",
      "properties": {
        "name": "Pha Khao"
      },
      "geometry": {
        "coordinates": [
          102.02965,
          17.06507
        ],
        "type": "Point"
      }
    },
    {
      "type": "Feature",
      "properties": {
        "name": "Non Suwan"
      },
      "geometry": {
        "coordinates": [
          102.59689,
          14.58044
        ],
        "type": "Point"
      }
    },
    {
      "type": "Feature",
      "properties": {
        "name": "Ban Nong Wua So"
      },
      "geometry": {
        "coordinates": [
          103.22472,
          17.2675
        ],
        "type": "Point"
      }
    },
    {
      "type": "Feature",
      "properties": {
        "name": "Nong Wua So"
      },
      "geometry": {
        "coordinates": [
          102.57272,
          17.16261
        ],
        "type": "Point"
      }
    },
    {
      "type": "Feature",
      "properties": {
        "name": "Nong Na Kham"
      },
      "geometry": {
        "coordinates": [
          102.33647,
          16.8043
        ],
        "type": "Point"
      }
    },
    {
      "type": "Feature",
      "properties": {
        "name": "Nong Muang"
      },
      "geometry": {
        "coordinates": [
          100.65556,
          15.24592
        ],
        "type": "Point"
      }
    },
    {
      "type": "Feature",
      "properties": {
        "name": "Nong Hin"
      },
      "geometry": {
        "coordinates": [
          101.85789,
          17.12356
        ],
        "type": "Point"
      }
    },
    {
      "type": "Feature",
      "properties": {
        "name": "Nong Hi"
      },
      "geometry": {
        "coordinates": [
          103.99484,
          15.61117
        ],
        "type": "Point"
      }
    },
    {
      "type": "Feature",
      "properties": {
        "name": "Na Yung"
      },
      "geometry": {
        "coordinates": [
          102.14981,
          17.89747
        ],
        "type": "Point"
      }
    },
    {
      "type": "Feature",
      "properties": {
        "name": "Na Tan"
      },
      "geometry": {
        "coordinates": [
          105.29318,
          15.89749
        ],
        "type": "Point"
      }
    },
    {
      "type": "Feature",
      "properties": {
        "name": "Ban Nam Yuen"
      },
      "geometry": {
        "coordinates": [
          98.86592,
          9.87686
        ],
        "type": "Point"
      }
    },
    {
      "type": "Feature",
      "properties": {
        "name": "Na Mom"
      },
      "geometry": {
        "coordinates": [
          100.55683,
          6.95856
        ],
        "type": "Point"
      }
    },
    {
      "type": "Feature",
      "properties": {
        "name": "Mueang Chan"
      },
      "geometry": {
        "coordinates": [
          104.03615,
          15.15951
        ],
        "type": "Point"
      }
    },
    {
      "type": "Feature",
      "properties": {
        "name": "Ban Mai"
      },
      "geometry": {
        "coordinates": [
          100.54508,
          7.20411
        ],
        "type": "Point"
      }
    },
    {
      "type": "Feature",
      "properties": {
        "name": "Lam Sonthi"
      },
      "geometry": {
        "coordinates": [
          101.36365,
          15.30154
        ],
        "type": "Point"
      }
    },
    {
      "type": "Feature",
      "properties": {
        "name": "Ban Huai Thalaeng"
      },
      "geometry": {
        "coordinates": [
          102.65,
          14.98333
        ],
        "type": "Point"
      }
    },
    {
      "type": "Feature",
      "properties": {
        "name": "Huai Rat"
      },
      "geometry": {
        "coordinates": [
          103.18911,
          14.96039
        ],
        "type": "Point"
      }
    },
    {
      "type": "Feature",
      "properties": {
        "name": "Ban Haet"
      },
      "geometry": {
        "coordinates": [
          102.75959,
          16.19648
        ],
        "type": "Point"
      }
    },
    {
      "type": "Feature",
      "properties": {
        "name": "Fao Rai"
      },
      "geometry": {
        "coordinates": [
          103.30388,
          18.01791
        ],
        "type": "Point"
      }
    },
    {
      "type": "Feature",
      "properties": {
        "name": "Ban Dan"
      },
      "geometry": {
        "coordinates": [
          103.17551,
          15.10839
        ],
        "type": "Point"
      }
    },
    {
      "type": "Feature",
      "properties": {
        "name": "Charoen Sin"
      },
      "geometry": {
        "coordinates": [
          103.54033,
          17.57925
        ],
        "type": "Point"
      }
    },
    {
      "type": "Feature",
      "properties": {
        "name": "Ban Khlong Bang Sao Thong"
      },
      "geometry": {
        "coordinates": [
          100.83272,
          13.64172
        ],
        "type": "Point"
      }
    },
    {
      "type": "Feature",
      "properties": {
        "name": "Waeng"
      },
      "geometry": {
        "coordinates": [
          101.88382,
          5.928
        ],
        "type": "Point"
      }
    },
    {
      "type": "Feature",
      "properties": {
        "name": "Thepha"
      },
      "geometry": {
        "coordinates": [
          100.96431,
          6.82936
        ],
        "type": "Point"
      }
    },
    {
      "type": "Feature",
      "properties": {
        "name": "Tak Fa"
      },
      "geometry": {
        "coordinates": [
          100.49522,
          15.34917
        ],
        "type": "Point"
      }
    },
    {
      "type": "Feature",
      "properties": {
        "name": "Prakhon Chai"
      },
      "geometry": {
        "coordinates": [
          103.07923,
          14.61073
        ],
        "type": "Point"
      }
    },
    {
      "type": "Feature",
      "properties": {
        "name": "Na Klang"
      },
      "geometry": {
        "coordinates": [
          102.18886,
          17.3072
        ],
        "type": "Point"
      }
    },
    {
      "type": "Feature",
      "properties": {
        "name": "Bacho"
      },
      "geometry": {
        "coordinates": [
          101.651,
          6.51678
        ],
        "type": "Point"
      }
    },
    {
      "type": "Feature",
      "properties": {
        "name": "Yi-ngo"
      },
      "geometry": {
        "coordinates": [
          101.70625,
          6.40297
        ],
        "type": "Point"
      }
    },
    {
      "type": "Feature",
      "properties": {
        "name": "Yasothon"
      },
      "geometry": {
        "coordinates": [
          104.1451,
          15.79408
        ],
        "type": "Point"
      }
    },
    {
      "type": "Feature",
      "properties": {
        "name": "Yaring"
      },
      "geometry": {
        "coordinates": [
          101.36894,
          6.86617
        ],
        "type": "Point"
      }
    },
    {
      "type": "Feature",
      "properties": {
        "name": "Yan Nawa"
      },
      "geometry": {
        "coordinates": [
          100.54212,
          13.69634
        ],
        "type": "Point"
      }
    },
    {
      "type": "Feature",
      "properties": {
        "name": "Yang Talat"
      },
      "geometry": {
        "coordinates": [
          103.36785,
          16.39982
        ],
        "type": "Point"
      }
    },
    {
      "type": "Feature",
      "properties": {
        "name": "Yang Chum Noi"
      },
      "geometry": {
        "coordinates": [
          104.39769,
          15.26453
        ],
        "type": "Point"
      }
    },
    {
      "type": "Feature",
      "properties": {
        "name": "Yarang"
      },
      "geometry": {
        "coordinates": [
          101.29339,
          6.75986
        ],
        "type": "Point"
      }
    },
    {
      "type": "Feature",
      "properties": {
        "name": "Yala"
      },
      "geometry": {
        "coordinates": [
          101.28128,
          6.53995
        ],
        "type": "Point"
      }
    },
    {
      "type": "Feature",
      "properties": {
        "name": "Yaha"
      },
      "geometry": {
        "coordinates": [
          101.132,
          6.4797
        ],
        "type": "Point"
      }
    },
    {
      "type": "Feature",
      "properties": {
        "name": "Wiset Chaichan"
      },
      "geometry": {
        "coordinates": [
          100.33825,
          14.5945
        ],
        "type": "Point"
      }
    },
    {
      "type": "Feature",
      "properties": {
        "name": "Wihan Daeng"
      },
      "geometry": {
        "coordinates": [
          100.98942,
          14.34586
        ],
        "type": "Point"
      }
    },
    {
      "type": "Feature",
      "properties": {
        "name": "Wichian Buri"
      },
      "geometry": {
        "coordinates": [
          101.10603,
          15.65778
        ],
        "type": "Point"
      }
    },
    {
      "type": "Feature",
      "properties": {
        "name": "Wiang Sa"
      },
      "geometry": {
        "coordinates": [
          100.74103,
          18.59856
        ],
        "type": "Point"
      }
    },
    {
      "type": "Feature",
      "properties": {
        "name": "Watthana Nakhon"
      },
      "geometry": {
        "coordinates": [
          102.31863,
          13.74462
        ],
        "type": "Point"
      }
    },
    {
      "type": "Feature",
      "properties": {
        "name": "Wat Sing"
      },
      "geometry": {
        "coordinates": [
          100.0404,
          15.25987
        ],
        "type": "Point"
      }
    },
    {
      "type": "Feature",
      "properties": {
        "name": "Wat Bot"
      },
      "geometry": {
        "coordinates": [
          100.33195,
          16.98114
        ],
        "type": "Point"
      }
    },
    {
      "type": "Feature",
      "properties": {
        "name": "Warin Chamrap"
      },
      "geometry": {
        "coordinates": [
          104.8628,
          15.19319
        ],
        "type": "Point"
      }
    },
    {
      "type": "Feature",
      "properties": {
        "name": "Warichaphum"
      },
      "geometry": {
        "coordinates": [
          103.63816,
          17.29409
        ],
        "type": "Point"
      }
    },
    {
      "type": "Feature",
      "properties": {
        "name": "Wapi Pathum"
      },
      "geometry": {
        "coordinates": [
          103.37678,
          15.84523
        ],
        "type": "Point"
      }
    },
    {
      "type": "Feature",
      "properties": {
        "name": "Wan Yai"
      },
      "geometry": {
        "coordinates": [
          104.74135,
          16.72229
        ],
        "type": "Point"
      }
    },
    {
      "type": "Feature",
      "properties": {
        "name": "Wanon Niwat"
      },
      "geometry": {
        "coordinates": [
          103.75241,
          17.63391
        ],
        "type": "Point"
      }
    },
    {
      "type": "Feature",
      "properties": {
        "name": "Wang Thong"
      },
      "geometry": {
        "coordinates": [
          100.42936,
          16.82458
        ],
        "type": "Point"
      }
    },
    {
      "type": "Feature",
      "properties": {
        "name": "Wang Saphung"
      },
      "geometry": {
        "coordinates": [
          101.7685,
          17.30097
        ],
        "type": "Point"
      }
    },
    {
      "type": "Feature",
      "properties": {
        "name": "Wang Sam Mo"
      },
      "geometry": {
        "coordinates": [
          103.4365,
          16.95294
        ],
        "type": "Point"
      }
    },
    {
      "type": "Feature",
      "properties": {
        "name": "Wang Noi"
      },
      "geometry": {
        "coordinates": [
          100.7155,
          14.22689
        ],
        "type": "Point"
      }
    },
    {
      "type": "Feature",
      "properties": {
        "name": "Wang Nam Yen"
      },
      "geometry": {
        "coordinates": [
          102.18115,
          13.50325
        ],
        "type": "Point"
      }
    },
    {
      "type": "Feature",
      "properties": {
        "name": "Wang Hin"
      },
      "geometry": {
        "coordinates": [
          104.23097,
          14.94783
        ],
        "type": "Point"
      }
    },
    {
      "type": "Feature",
      "properties": {
        "name": "Wang Chan"
      },
      "geometry": {
        "coordinates": [
          101.52303,
          12.93646
        ],
        "type": "Point"
      }
    },
    {
      "type": "Feature",
      "properties": {
        "name": "Wang Sai Phun"
      },
      "geometry": {
        "coordinates": [
          100.53801,
          16.3885
        ],
        "type": "Point"
      }
    },
    {
      "type": "Feature",
      "properties": {
        "name": "Waeng Yai"
      },
      "geometry": {
        "coordinates": [
          102.5469,
          15.95547
        ],
        "type": "Point"
      }
    },
    {
      "type": "Feature",
      "properties": {
        "name": "Waeng Noi"
      },
      "geometry": {
        "coordinates": [
          102.41614,
          15.8035
        ],
        "type": "Point"
      }
    },
    {
      "type": "Feature",
      "properties": {
        "name": "Uttaradit"
      },
      "geometry": {
        "coordinates": [
          100.09421,
          17.62557
        ],
        "type": "Point"
      }
    },
    {
      "type": "Feature",
      "properties": {
        "name": "Uthumphon Phisai"
      },
      "geometry": {
        "coordinates": [
          104.14011,
          15.11161
        ],
        "type": "Point"
      }
    },
    {
      "type": "Feature",
      "properties": {
        "name": "Uthai Thani"
      },
      "geometry": {
        "coordinates": [
          100.0245,
          15.37939
        ],
        "type": "Point"
      }
    },
    {
      "type": "Feature",
      "properties": {
        "name": "Uthai"
      },
      "geometry": {
        "coordinates": [
          100.67203,
          14.36278
        ],
        "type": "Point"
      }
    },
    {
      "type": "Feature",
      "properties": {
        "name": "Udon Thani"
      },
      "geometry": {
        "coordinates": [
          102.78589,
          17.41567
        ],
        "type": "Point"
      }
    },
    {
      "type": "Feature",
      "properties": {
        "name": "Ubon Ratchathani"
      },
      "geometry": {
        "coordinates": [
          104.84866,
          15.23844
        ],
        "type": "Point"
      }
    },
    {
      "type": "Feature",
      "properties": {
        "name": "Khuean Ubonrat"
      },
      "geometry": {
        "coordinates": [
          102.63245,
          16.75269
        ],
        "type": "Point"
      }
    },
    {
      "type": "Feature",
      "properties": {
        "name": "Tron"
      },
      "geometry": {
        "coordinates": [
          100.11281,
          17.48181
        ],
        "type": "Point"
      }
    },
    {
      "type": "Feature",
      "properties": {
        "name": "Trat"
      },
      "geometry": {
        "coordinates": [
          102.51514,
          12.24364
        ],
        "type": "Point"
      }
    },
    {
      "type": "Feature",
      "properties": {
        "name": "Trakan Phut Phon"
      },
      "geometry": {
        "coordinates": [
          105.02147,
          15.61183
        ],
        "type": "Point"
      }
    },
    {
      "type": "Feature",
      "properties": {
        "name": "Thung Fon"
      },
      "geometry": {
        "coordinates": [
          103.26033,
          17.47167
        ],
        "type": "Point"
      }
    },
    {
      "type": "Feature",
      "properties": {
        "name": "Thon Buri"
      },
      "geometry": {
        "coordinates": [
          100.48511,
          13.725
        ],
        "type": "Point"
      }
    },
    {
      "type": "Feature",
      "properties": {
        "name": "Thoeng"
      },
      "geometry": {
        "coordinates": [
          100.19456,
          19.68508
        ],
        "type": "Point"
      }
    },
    {
      "type": "Feature",
      "properties": {
        "name": "Thep Sathit"
      },
      "geometry": {
        "coordinates": [
          101.45061,
          15.39247
        ],
        "type": "Point"
      }
    },
    {
      "type": "Feature",
      "properties": {
        "name": "Tha Yang"
      },
      "geometry": {
        "coordinates": [
          99.90555,
          12.95772
        ],
        "type": "Point"
      }
    },
    {
      "type": "Feature",
      "properties": {
        "name": "Tha Wung"
      },
      "geometry": {
        "coordinates": [
          100.50333,
          14.811
        ],
        "type": "Point"
      }
    },
    {
      "type": "Feature",
      "properties": {
        "name": "Thawat Buri"
      },
      "geometry": {
        "coordinates": [
          103.74647,
          16.0385
        ],
        "type": "Point"
      }
    },
    {
      "type": "Feature",
      "properties": {
        "name": "Tha Wang Pha"
      },
      "geometry": {
        "coordinates": [
          100.81106,
          19.12189
        ],
        "type": "Point"
      }
    },
    {
      "type": "Feature",
      "properties": {
        "name": "Tha Uthen"
      },
      "geometry": {
        "coordinates": [
          104.59906,
          17.57605
        ],
        "type": "Point"
      }
    },
    {
      "type": "Feature",
      "properties": {
        "name": "Tha Tum"
      },
      "geometry": {
        "coordinates": [
          103.67542,
          15.3195
        ],
        "type": "Point"
      }
    },
    {
      "type": "Feature",
      "properties": {
        "name": "That Phanom"
      },
      "geometry": {
        "coordinates": [
          104.71039,
          16.93636
        ],
        "type": "Point"
      }
    },
    {
      "type": "Feature",
      "properties": {
        "name": "Tha Tako"
      },
      "geometry": {
        "coordinates": [
          100.47839,
          15.64218
        ],
        "type": "Point"
      }
    },
    {
      "type": "Feature",
      "properties": {
        "name": "Tha Ruea"
      },
      "geometry": {
        "coordinates": [
          100.72598,
          14.56739
        ],
        "type": "Point"
      }
    },
    {
      "type": "Feature",
      "properties": {
        "name": "Tha Pla"
      },
      "geometry": {
        "coordinates": [
          100.37611,
          17.79112
        ],
        "type": "Point"
      }
    },
    {
      "type": "Feature",
      "properties": {
        "name": "Thap Khlo"
      },
      "geometry": {
        "coordinates": [
          100.59656,
          16.16003
        ],
        "type": "Point"
      }
    },
    {
      "type": "Feature",
      "properties": {
        "name": "Thanyaburi"
      },
      "geometry": {
        "coordinates": [
          100.73433,
          14.02114
        ],
        "type": "Point"
      }
    },
    {
      "type": "Feature",
      "properties": {
        "name": "Than To"
      },
      "geometry": {
        "coordinates": [
          101.18008,
          6.16739
        ],
        "type": "Point"
      }
    },
    {
      "type": "Feature",
      "properties": {
        "name": "Tha Mai"
      },
      "geometry": {
        "coordinates": [
          102.00481,
          12.62137
        ],
        "type": "Point"
      }
    },
    {
      "type": "Feature",
      "properties": {
        "name": "Tha Luang"
      },
      "geometry": {
        "coordinates": [
          101.09801,
          15.07124
        ],
        "type": "Point"
      }
    },
    {
      "type": "Feature",
      "properties": {
        "name": "Tha Li"
      },
      "geometry": {
        "coordinates": [
          101.42099,
          17.62355
        ],
        "type": "Point"
      }
    },
    {
      "type": "Feature",
      "properties": {
        "name": "Tha Khantho"
      },
      "geometry": {
        "coordinates": [
          103.24586,
          16.93953
        ],
        "type": "Point"
      }
    },
    {
      "type": "Feature",
      "properties": {
        "name": "Tha Chang"
      },
      "geometry": {
        "coordinates": [
          100.38989,
          14.76142
        ],
        "type": "Point"
      }
    },
    {
      "type": "Feature",
      "properties": {
        "name": "Tha Bo"
      },
      "geometry": {
        "coordinates": [
          102.58139,
          17.85003
        ],
        "type": "Point"
      }
    },
    {
      "type": "Feature",
      "properties": {
        "name": "Ta Phraya"
      },
      "geometry": {
        "coordinates": [
          102.80541,
          14.00308
        ],
        "type": "Point"
      }
    },
    {
      "type": "Feature",
      "properties": {
        "name": "Taphan Hin"
      },
      "geometry": {
        "coordinates": [
          100.41978,
          16.22095
        ],
        "type": "Point"
      }
    },
    {
      "type": "Feature",
      "properties": {
        "name": "Tao Ngoi"
      },
      "geometry": {
        "coordinates": [
          104.16672,
          16.99689
        ],
        "type": "Point"
      }
    },
    {
      "type": "Feature",
      "properties": {
        "name": "Tan Sum"
      },
      "geometry": {
        "coordinates": [
          105.15464,
          15.31569
        ],
        "type": "Point"
      }
    },
    {
      "type": "Feature",
      "properties": {
        "name": "Tamot"
      },
      "geometry": {
        "coordinates": [
          100.11167,
          7.33922
        ],
        "type": "Point"
      }
    },
    {
      "type": "Feature",
      "properties": {
        "name": "Taling Chan"
      },
      "geometry": {
        "coordinates": [
          100.4567,
          13.77698
        ],
        "type": "Point"
      }
    },
    {
      "type": "Feature",
      "properties": {
        "name": "Takhli"
      },
      "geometry": {
        "coordinates": [
          100.34378,
          15.26336
        ],
        "type": "Point"
      }
    },
    {
      "type": "Feature",
      "properties": {
        "name": "Tak Bai"
      },
      "geometry": {
        "coordinates": [
          102.05461,
          6.25947
        ],
        "type": "Point"
      }
    },
    {
      "type": "Feature",
      "properties": {
        "name": "Suwannaphum"
      },
      "geometry": {
        "coordinates": [
          103.80207,
          15.60348
        ],
        "type": "Point"
      }
    },
    {
      "type": "Feature",
      "properties": {
        "name": "Suwannakhuha"
      },
      "geometry": {
        "coordinates": [
          102.27989,
          17.56292
        ],
        "type": "Point"
      }
    },
    {
      "type": "Feature",
      "properties": {
        "name": "Surin"
      },
      "geometry": {
        "coordinates": [
          103.49364,
          14.88181
        ],
        "type": "Point"
      }
    },
    {
      "type": "Feature",
      "properties": {
        "name": "Suphan Buri"
      },
      "geometry": {
        "coordinates": [
          100.12218,
          14.47418
        ],
        "type": "Point"
      }
    },
    {
      "type": "Feature",
      "properties": {
        "name": "Sung Noen"
      },
      "geometry": {
        "coordinates": [
          101.82075,
          14.8992
        ],
        "type": "Point"
      }
    },
    {
      "type": "Feature",
      "properties": {
        "name": "Sung Men"
      },
      "geometry": {
        "coordinates": [
          100.11457,
          18.0494
        ],
        "type": "Point"
      }
    },
    {
      "type": "Feature",
      "properties": {
        "name": "Ban Su-ngai Pa Di"
      },
      "geometry": {
        "coordinates": [
          101.87172,
          6.07239
        ],
        "type": "Point"
      }
    },
    {
      "type": "Feature",
      "properties": {
        "name": "Su-ngai Kolok"
      },
      "geometry": {
        "coordinates": [
          101.96586,
          6.02977
        ],
        "type": "Point"
      }
    },
    {
      "type": "Feature",
      "properties": {
        "name": "Sukhirin"
      },
      "geometry": {
        "coordinates": [
          101.77077,
          5.93889
        ],
        "type": "Point"
      }
    },
    {
      "type": "Feature",
      "properties": {
        "name": "So Phisai"
      },
      "geometry": {
        "coordinates": [
          103.4432,
          18.0772
        ],
        "type": "Point"
      }
    },
    {
      "type": "Feature",
      "properties": {
        "name": "Song Phi Nong"
      },
      "geometry": {
        "coordinates": [
          100.02094,
          14.22408
        ],
        "type": "Point"
      }
    },
    {
      "type": "Feature",
      "properties": {
        "name": "Songkhla"
      },
      "geometry": {
        "coordinates": [
          100.5951,
          7.19882
        ],
        "type": "Point"
      }
    },
    {
      "type": "Feature",
      "properties": {
        "name": "Song"
      },
      "geometry": {
        "coordinates": [
          100.18346,
          18.47204
        ],
        "type": "Point"
      }
    },
    {
      "type": "Feature",
      "properties": {
        "name": "Somdet"
      },
      "geometry": {
        "coordinates": [
          103.74935,
          16.70462
        ],
        "type": "Point"
      }
    },
    {
      "type": "Feature",
      "properties": {
        "name": "Soeng Sang"
      },
      "geometry": {
        "coordinates": [
          102.46058,
          14.42642
        ],
        "type": "Point"
      }
    },
    {
      "type": "Feature",
      "properties": {
        "name": "Si Thep"
      },
      "geometry": {
        "coordinates": [
          101.06667,
          15.45214
        ],
        "type": "Point"
      }
    },
    {
      "type": "Feature",
      "properties": {
        "name": "Si That"
      },
      "geometry": {
        "coordinates": [
          103.21644,
          16.97361
        ],
        "type": "Point"
      }
    },
    {
      "type": "Feature",
      "properties": {
        "name": "Si Songkhram"
      },
      "geometry": {
        "coordinates": [
          104.25069,
          17.62745
        ],
        "type": "Point"
      }
    },
    {
      "type": "Feature",
      "properties": {
        "name": "Si Sakhon"
      },
      "geometry": {
        "coordinates": [
          101.50048,
          6.23137
        ],
        "type": "Point"
      }
    },
    {
      "type": "Feature",
      "properties": {
        "name": "Si Sa Ket"
      },
      "geometry": {
        "coordinates": [
          104.32938,
          15.11481
        ],
        "type": "Point"
      }
    },
    {
      "type": "Feature",
      "properties": {
        "name": "Si Rattana"
      },
      "geometry": {
        "coordinates": [
          104.46922,
          14.79328
        ],
        "type": "Point"
      }
    },
    {
      "type": "Feature",
      "properties": {
        "name": "Si Racha"
      },
      "geometry": {
        "coordinates": [
          100.93111,
          13.17372
        ],
        "type": "Point"
      }
    },
    {
      "type": "Feature",
      "properties": {
        "name": "Si Prachan"
      },
      "geometry": {
        "coordinates": [
          100.14483,
          14.61992
        ],
        "type": "Point"
      }
    },
    {
      "type": "Feature",
      "properties": {
        "name": "Sing Buri"
      },
      "geometry": {
        "coordinates": [
          100.40464,
          14.88786
        ],
        "type": "Point"
      }
    },
    {
      "type": "Feature",
      "properties": {
        "name": "Si Mueang Mai"
      },
      "geometry": {
        "coordinates": [
          105.27624,
          15.49315
        ],
        "type": "Point"
      }
    },
    {
      "type": "Feature",
      "properties": {
        "name": "Si Maha Phot"
      },
      "geometry": {
        "coordinates": [
          101.51303,
          13.96597
        ],
        "type": "Point"
      }
    },
    {
      "type": "Feature",
      "properties": {
        "name": "Si Khoraphum"
      },
      "geometry": {
        "coordinates": [
          103.79704,
          14.94418
        ],
        "type": "Point"
      }
    },
    {
      "type": "Feature",
      "properties": {
        "name": "Sikhio"
      },
      "geometry": {
        "coordinates": [
          101.72314,
          14.89225
        ],
        "type": "Point"
      }
    },
    {
      "type": "Feature",
      "properties": {
        "name": "Si Chomphu"
      },
      "geometry": {
        "coordinates": [
          102.18466,
          16.79878
        ],
        "type": "Point"
      }
    },
    {
      "type": "Feature",
      "properties": {
        "name": "Si Chiang Mai"
      },
      "geometry": {
        "coordinates": [
          102.58667,
          17.95639
        ],
        "type": "Point"
      }
    },
    {
      "type": "Feature",
      "properties": {
        "name": "Si Bun Rueang"
      },
      "geometry": {
        "coordinates": [
          102.27607,
          16.96705
        ],
        "type": "Point"
      }
    },
    {
      "type": "Feature",
      "properties": {
        "name": "Senangkhanikhom"
      },
      "geometry": {
        "coordinates": [
          104.66939,
          16.03972
        ],
        "type": "Point"
      }
    },
    {
      "type": "Feature",
      "properties": {
        "name": "Sena"
      },
      "geometry": {
        "coordinates": [
          100.40433,
          14.327
        ],
        "type": "Point"
      }
    },
    {
      "type": "Feature",
      "properties": {
        "name": "Selaphum"
      },
      "geometry": {
        "coordinates": [
          103.93826,
          16.02992
        ],
        "type": "Point"
      }
    },
    {
      "type": "Feature",
      "properties": {
        "name": "Seka"
      },
      "geometry": {
        "coordinates": [
          103.95519,
          17.92851
        ],
        "type": "Point"
      }
    },
    {
      "type": "Feature",
      "properties": {
        "name": "Sawang Daen Din"
      },
      "geometry": {
        "coordinates": [
          103.45753,
          17.47531
        ],
        "type": "Point"
      }
    },
    {
      "type": "Feature",
      "properties": {
        "name": "Sawaeng Ha"
      },
      "geometry": {
        "coordinates": [
          100.32942,
          14.74642
        ],
        "type": "Point"
      }
    },
    {
      "type": "Feature",
      "properties": {
        "name": "Satun"
      },
      "geometry": {
        "coordinates": [
          100.06676,
          6.62314
        ],
        "type": "Point"
      }
    },
    {
      "type": "Feature",
      "properties": {
        "name": "Satuek"
      },
      "geometry": {
        "coordinates": [
          103.29192,
          15.29703
        ],
        "type": "Point"
      }
    },
    {
      "type": "Feature",
      "properties": {
        "name": "Sattahip"
      },
      "geometry": {
        "coordinates": [
          100.90073,
          12.66644
        ],
        "type": "Point"
      }
    },
    {
      "type": "Feature",
      "properties": {
        "name": "Sathing Phra"
      },
      "geometry": {
        "coordinates": [
          100.43908,
          7.47303
        ],
        "type": "Point"
      }
    },
    {
      "type": "Feature",
      "properties": {
        "name": "Saraburi"
      },
      "geometry": {
        "coordinates": [
          100.91667,
          14.53333
        ],
        "type": "Point"
      }
    },
    {
      "type": "Feature",
      "properties": {
        "name": "Sao Hai"
      },
      "geometry": {
        "coordinates": [
          100.84436,
          14.55083
        ],
        "type": "Point"
      }
    },
    {
      "type": "Feature",
      "properties": {
        "name": "Sapphaya"
      },
      "geometry": {
        "coordinates": [
          100.24215,
          15.14616
        ],
        "type": "Point"
      }
    },
    {
      "type": "Feature",
      "properties": {
        "name": "Sanom"
      },
      "geometry": {
        "coordinates": [
          103.76054,
          15.2036
        ],
        "type": "Point"
      }
    },
    {
      "type": "Feature",
      "properties": {
        "name": "Sankhaburi"
      },
      "geometry": {
        "coordinates": [
          100.16178,
          15.04733
        ],
        "type": "Point"
      }
    },
    {
      "type": "Feature",
      "properties": {
        "name": "Sangkhom"
      },
      "geometry": {
        "coordinates": [
          102.27364,
          18.06389
        ],
        "type": "Point"
      }
    },
    {
      "type": "Feature",
      "properties": {
        "name": "Sang Khom"
      },
      "geometry": {
        "coordinates": [
          103.09262,
          17.82649
        ],
        "type": "Point"
      }
    },
    {
      "type": "Feature",
      "properties": {
        "name": "Sangkha"
      },
      "geometry": {
        "coordinates": [
          103.85278,
          14.6362
        ],
        "type": "Point"
      }
    },
    {
      "type": "Feature",
      "properties": {
        "name": "Sanam Chai Khet"
      },
      "geometry": {
        "coordinates": [
          101.43906,
          13.65864
        ],
        "type": "Point"
      }
    },
    {
      "type": "Feature",
      "properties": {
        "name": "Samut Songkhram"
      },
      "geometry": {
        "coordinates": [
          100.00264,
          13.41456
        ],
        "type": "Point"
      }
    },
    {
      "type": "Feature",
      "properties": {
        "name": "Samut Sakhon"
      },
      "geometry": {
        "coordinates": [
          100.27362,
          13.54753
        ],
        "type": "Point"
      }
    },
    {
      "type": "Feature",
      "properties": {
        "name": "Samut Prakan"
      },
      "geometry": {
        "coordinates": [
          100.59675,
          13.59934
        ],
        "type": "Point"
      }
    },
    {
      "type": "Feature",
      "properties": {
        "name": "Samrong Thap"
      },
      "geometry": {
        "coordinates": [
          103.93631,
          15.02258
        ],
        "type": "Point"
      }
    },
    {
      "type": "Feature",
      "properties": {
        "name": "Sam Phran"
      },
      "geometry": {
        "coordinates": [
          100.21526,
          13.72698
        ],
        "type": "Point"
      }
    },
    {
      "type": "Feature",
      "properties": {
        "name": "Samphanthawong"
      },
      "geometry": {
        "coordinates": [
          100.51414,
          13.73147
        ],
        "type": "Point"
      }
    },
    {
      "type": "Feature",
      "properties": {
        "name": "Sam Ngam"
      },
      "geometry": {
        "coordinates": [
          100.20497,
          16.50653
        ],
        "type": "Point"
      }
    },
    {
      "type": "Feature",
      "properties": {
        "name": "Sam Ko"
      },
      "geometry": {
        "coordinates": [
          100.2186,
          14.60735
        ],
        "type": "Point"
      }
    },
    {
      "type": "Feature",
      "properties": {
        "name": "Sam Khok"
      },
      "geometry": {
        "coordinates": [
          100.52264,
          14.0655
        ],
        "type": "Point"
      }
    },
    {
      "type": "Feature",
      "properties": {
        "name": "Sam Chuk"
      },
      "geometry": {
        "coordinates": [
          100.08992,
          14.75763
        ],
        "type": "Point"
      }
    },
    {
      "type": "Feature",
      "properties": {
        "name": "Sakon Nakhon"
      },
      "geometry": {
        "coordinates": [
          104.14725,
          17.16116
        ],
        "type": "Point"
      }
    },
    {
      "type": "Feature",
      "properties": {
        "name": "Sa Kaeo"
      },
      "geometry": {
        "coordinates": [
          102.07222,
          13.81411
        ],
        "type": "Point"
      }
    },
    {
      "type": "Feature",
      "properties": {
        "name": "Sai Noi"
      },
      "geometry": {
        "coordinates": [
          100.31209,
          13.97915
        ],
        "type": "Point"
      }
    },
    {
      "type": "Feature",
      "properties": {
        "name": "Sai Mun"
      },
      "geometry": {
        "coordinates": [
          104.20812,
          15.94495
        ],
        "type": "Point"
      }
    },
    {
      "type": "Feature",
      "properties": {
        "name": "Sai Buri"
      },
      "geometry": {
        "coordinates": [
          101.61675,
          6.70131
        ],
        "type": "Point"
      }
    },
    {
      "type": "Feature",
      "properties": {
        "name": "Sahatsakhan"
      },
      "geometry": {
        "coordinates": [
          103.5202,
          16.71236
        ],
        "type": "Point"
      }
    },
    {
      "type": "Feature",
      "properties": {
        "name": "Sadao"
      },
      "geometry": {
        "coordinates": [
          100.42342,
          6.63883
        ],
        "type": "Point"
      }
    },
    {
      "type": "Feature",
      "properties": {
        "name": "Saba Yoi"
      },
      "geometry": {
        "coordinates": [
          100.95189,
          6.6175
        ],
        "type": "Point"
      }
    },
    {
      "type": "Feature",
      "properties": {
        "name": "Rueso"
      },
      "geometry": {
        "coordinates": [
          101.51847,
          6.39364
        ],
        "type": "Point"
      }
    },
    {
      "type": "Feature",
      "properties": {
        "name": "Rong Kwang"
      },
      "geometry": {
        "coordinates": [
          100.31736,
          18.33903
        ],
        "type": "Point"
      }
    },
    {
      "type": "Feature",
      "properties": {
        "name": "Rong Kham"
      },
      "geometry": {
        "coordinates": [
          103.74689,
          16.26943
        ],
        "type": "Point"
      }
    },
    {
      "type": "Feature",
      "properties": {
        "name": "Roi Et"
      },
      "geometry": {
        "coordinates": [
          103.65309,
          16.0567
        ],
        "type": "Point"
      }
    },
    {
      "type": "Feature",
      "properties": {
        "name": "Renu Nakhon"
      },
      "geometry": {
        "coordinates": [
          104.67709,
          17.05157
        ],
        "type": "Point"
      }
    },
    {
      "type": "Feature",
      "properties": {
        "name": "Rayong"
      },
      "geometry": {
        "coordinates": [
          101.25798,
          12.68095
        ],
        "type": "Point"
      }
    },
    {
      "type": "Feature",
      "properties": {
        "name": "Rattaphum"
      },
      "geometry": {
        "coordinates": [
          100.25647,
          7.13478
        ],
        "type": "Point"
      }
    },
    {
      "type": "Feature",
      "properties": {
        "name": "Rattanaburi"
      },
      "geometry": {
        "coordinates": [
          103.84859,
          15.31788
        ],
        "type": "Point"
      }
    },
    {
      "type": "Feature",
      "properties": {
        "name": "Rat Burana"
      },
      "geometry": {
        "coordinates": [
          100.50603,
          13.68219
        ],
        "type": "Point"
      }
    },
    {
      "type": "Feature",
      "properties": {
        "name": "Rasi Salai"
      },
      "geometry": {
        "coordinates": [
          104.15476,
          15.34466
        ],
        "type": "Point"
      }
    },
    {
      "type": "Feature",
      "properties": {
        "name": "Ranot"
      },
      "geometry": {
        "coordinates": [
          100.32134,
          7.77768
        ],
        "type": "Point"
      }
    },
    {
      "type": "Feature",
      "properties": {
        "name": "Ra-ngae"
      },
      "geometry": {
        "coordinates": [
          101.72844,
          6.29678
        ],
        "type": "Point"
      }
    },
    {
      "type": "Feature",
      "properties": {
        "name": "Raman"
      },
      "geometry": {
        "coordinates": [
          101.42414,
          6.47862
        ],
        "type": "Point"
      }
    },
    {
      "type": "Feature",
      "properties": {
        "name": "Pueai Noi"
      },
      "geometry": {
        "coordinates": [
          102.90767,
          15.86978
        ],
        "type": "Point"
      }
    },
    {
      "type": "Feature",
      "properties": {
        "name": "Pua"
      },
      "geometry": {
        "coordinates": [
          100.91622,
          19.17503
        ],
        "type": "Point"
      }
    },
    {
      "type": "Feature",
      "properties": {
        "name": "Prathai"
      },
      "geometry": {
        "coordinates": [
          102.72283,
          15.53319
        ],
        "type": "Point"
      }
    },
    {
      "type": "Feature",
      "properties": {
        "name": "Prasat"
      },
      "geometry": {
        "coordinates": [
          103.40447,
          14.64039
        ],
        "type": "Point"
      }
    },
    {
      "type": "Feature",
      "properties": {
        "name": "Prang Ku"
      },
      "geometry": {
        "coordinates": [
          104.03981,
          14.85672
        ],
        "type": "Point"
      }
    },
    {
      "type": "Feature",
      "properties": {
        "name": "Prakhon Chai"
      },
      "geometry": {
        "coordinates": [
          103.12081,
          14.60592
        ],
        "type": "Point"
      }
    },
    {
      "type": "Feature",
      "properties": {
        "name": "Pakham"
      },
      "geometry": {
        "coordinates": [
          102.72558,
          14.43817
        ],
        "type": "Point"
      }
    },
    {
      "type": "Feature",
      "properties": {
        "name": "Prachin Buri"
      },
      "geometry": {
        "coordinates": [
          101.36864,
          14.04992
        ],
        "type": "Point"
      }
    },
    {
      "type": "Feature",
      "properties": {
        "name": "Prachantakham"
      },
      "geometry": {
        "coordinates": [
          101.51503,
          14.06442
        ],
        "type": "Point"
      }
    },
    {
      "type": "Feature",
      "properties": {
        "name": "Pong Nam Ron"
      },
      "geometry": {
        "coordinates": [
          102.26225,
          12.90575
        ],
        "type": "Point"
      }
    },
    {
      "type": "Feature",
      "properties": {
        "name": "Pong"
      },
      "geometry": {
        "coordinates": [
          100.27522,
          19.14931
        ],
        "type": "Point"
      }
    },
    {
      "type": "Feature",
      "properties": {
        "name": "Pom Prap Sattru Phai"
      },
      "geometry": {
        "coordinates": [
          100.51325,
          13.75822
        ],
        "type": "Point"
      }
    },
    {
      "type": "Feature",
      "properties": {
        "name": "Pluak Daeng"
      },
      "geometry": {
        "coordinates": [
          101.21463,
          12.97122
        ],
        "type": "Point"
      }
    },
    {
      "type": "Feature",
      "properties": {
        "name": "Pla Pak"
      },
      "geometry": {
        "coordinates": [
          104.52606,
          17.18064
        ],
        "type": "Point"
      }
    },
    {
      "type": "Feature",
      "properties": {
        "name": "Plaeng Yao"
      },
      "geometry": {
        "coordinates": [
          101.28403,
          13.58467
        ],
        "type": "Point"
      }
    },
    {
      "type": "Feature",
      "properties": {
        "name": "Phu Wiang"
      },
      "geometry": {
        "coordinates": [
          102.37555,
          16.65259
        ],
        "type": "Point"
      }
    },
    {
      "type": "Feature",
      "properties": {
        "name": "Phutthaisong"
      },
      "geometry": {
        "coordinates": [
          103.02467,
          15.54783
        ],
        "type": "Point"
      }
    },
    {
      "type": "Feature",
      "properties": {
        "name": "Phu Ruea"
      },
      "geometry": {
        "coordinates": [
          101.36231,
          17.4538
        ],
        "type": "Point"
      }
    },
    {
      "type": "Feature",
      "properties": {
        "name": "Phu Pha Man"
      },
      "geometry": {
        "coordinates": [
          101.90097,
          16.64888
        ],
        "type": "Point"
      }
    },
    {
      "type": "Feature",
      "properties": {
        "name": "Phu Luang"
      },
      "geometry": {
        "coordinates": [
          101.66392,
          17.1392
        ],
        "type": "Point"
      }
    },
    {
      "type": "Feature",
      "properties": {
        "name": "Phu Kradueng"
      },
      "geometry": {
        "coordinates": [
          101.88467,
          16.88425
        ],
        "type": "Point"
      }
    },
    {
      "type": "Feature",
      "properties": {
        "name": "Phu Khiao"
      },
      "geometry": {
        "coordinates": [
          102.12853,
          16.3765
        ],
        "type": "Point"
      }
    },
    {
      "type": "Feature",
      "properties": {
        "name": "Phrom Phiram"
      },
      "geometry": {
        "coordinates": [
          100.2019,
          17.03352
        ],
        "type": "Point"
      }
    },
    {
      "type": "Feature",
      "properties": {
        "name": "Phrom Buri"
      },
      "geometry": {
        "coordinates": [
          100.45325,
          14.79086
        ],
        "type": "Point"
      }
    },
    {
      "type": "Feature",
      "properties": {
        "name": "Phra Yuen"
      },
      "geometry": {
        "coordinates": [
          102.65182,
          16.3293
        ],
        "type": "Point"
      }
    },
    {
      "type": "Feature",
      "properties": {
        "name": "Phra Pradaeng"
      },
      "geometry": {
        "coordinates": [
          100.53362,
          13.65855
        ],
        "type": "Point"
      }
    },
    {
      "type": "Feature",
      "properties": {
        "name": "Phra Phutthabat"
      },
      "geometry": {
        "coordinates": [
          100.79536,
          14.72526
        ],
        "type": "Point"
      }
    },
    {
      "type": "Feature",
      "properties": {
        "name": "Phra Nakhon Si Ayutthaya"
      },
      "geometry": {
        "coordinates": [
          100.57739,
          14.35167
        ],
        "type": "Point"
      }
    },
    {
      "type": "Feature",
      "properties": {
        "name": "Phra Khanong"
      },
      "geometry": {
        "coordinates": [
          100.60157,
          13.70185
        ],
        "type": "Point"
      }
    },
    {
      "type": "Feature",
      "properties": {
        "name": "Phrai Bueng"
      },
      "geometry": {
        "coordinates": [
          104.36261,
          14.74833
        ],
        "type": "Point"
      }
    },
    {
      "type": "Feature",
      "properties": {
        "name": "Phrae"
      },
      "geometry": {
        "coordinates": [
          100.14103,
          18.14589
        ],
        "type": "Point"
      }
    },
    {
      "type": "Feature",
      "properties": {
        "name": "Pho Thong"
      },
      "geometry": {
        "coordinates": [
          100.40878,
          14.66731
        ],
        "type": "Point"
      }
    },
    {
      "type": "Feature",
      "properties": {
        "name": "Pho Thale"
      },
      "geometry": {
        "coordinates": [
          100.26089,
          16.09269
        ],
        "type": "Point"
      }
    },
    {
      "type": "Feature",
      "properties": {
        "name": "Pho Sai"
      },