{
  "type": "FeatureCollection",
  "features": [
    {
      "type": "Feature",
      "properties": {
        "name": "Zarrit'ap'"
      },
      "geometry": {
        "coordinates": [
          45.51111,
          39.63892
        ],
        "type": "Point"
      }
    },
    {
      "type": "Feature",
      "properties": {
        "name": "Zangakatun"
      },
      "geometry": {
        "coordinates": [
          45.04169,
          39.82233
        ],
        "type": "Point"
      }
    },
    {
      "type": "Feature",
      "properties": {
        "name": "Goravan"
      },
      "geometry": {
        "coordinates": [
          44.73328,
          39.90832
        ],
        "type": "Point"
      }
    },
    {
      "type": "Feature",
      "properties": {
        "name": "Yeghegnavan"
      },
      "geometry": {
        "coordinates": [
          44.61951,
          39.83893
        ],
        "type": "Point"
      }
    },
    {
      "type": "Feature",
      "properties": {
        "name": "Yeghegnadzor"
      },
      "geometry": {
        "coordinates": [
          45.33239,
          39.76389
        ],
        "type": "Point"
      }
    },
    {
      "type": "Feature",
      "properties": {
        "name": "Vostan"
      },
      "geometry": {
        "coordinates": [
          44.55937,
          39.96515
        ],
        "type": "Point"
      }
    },
    {
      "type": "Feature",
      "properties": {
        "name": "Vosketap'"
      },
      "geometry": {
        "coordinates": [
          44.64917,
          39.88114
        ],
        "type": "Point"
      }
    },
    {
      "type": "Feature",
      "properties": {
        "name": "Vernashen"
      },
      "geometry": {
        "coordinates": [
          45.36389,
          39.79236
        ],
        "type": "Point"
      }
    },
    {
      "type": "Feature",
      "properties": {
        "name": "Verishen"
      },
      "geometry": {
        "coordinates": [
          46.32063,
          39.53543
        ],
        "type": "Point"
      }
    },
    {
      "type": "Feature",
      "properties": {
        "name": "Vedi"
      },
      "geometry": {
        "coordinates": [
          44.7251,
          39.91388
        ],
        "type": "Point"
      }
    },
    {
      "type": "Feature",
      "properties": {
        "name": "Vayk'"
      },
      "geometry": {
        "coordinates": [
          45.46668,
          39.6889
        ],
        "type": "Point"
      }
    },
    {
      "type": "Feature",
      "properties": {
        "name": "Tegh"
      },
      "geometry": {
        "coordinates": [
          46.48054,
          39.55826
        ],
        "type": "Point"
      }
    },
    {
      "type": "Feature",
      "properties": {
        "name": "Surenavan"
      },
      "geometry": {
        "coordinates": [
          44.77508,
          39.79449
        ],
        "type": "Point"
      }
    },
    {
      "type": "Feature",
      "properties": {
        "name": "Sisavan"
      },
      "geometry": {
        "coordinates": [
          44.66721,
          39.90802
        ],
        "type": "Point"
      }
    },
    {
      "type": "Feature",
      "properties": {
        "name": "Shinuhayr"
      },
      "geometry": {
        "coordinates": [
          46.31787,
          39.4367
        ],
        "type": "Point"
      }
    },
    {
      "type": "Feature",
      "properties": {
        "name": "Shahumyan"
      },
      "geometry": {
        "coordinates": [
          44.57233,
          39.94171
        ],
        "type": "Point"
      }
    },
    {
      "type": "Feature",
      "properties": {
        "name": "Shatin"
      },
      "geometry": {
        "coordinates": [
          45.30292,
          39.83612
        ],
        "type": "Point"
      }
    },
    {
      "type": "Feature",
      "properties": {
        "name": "Shaghat"
      },
      "geometry": {
        "coordinates": [
          45.91669,
          39.55829
        ],
        "type": "Point"
      }
    },
    {
      "type": "Feature",
      "properties": {
        "name": "Rrind"
      },
      "geometry": {
        "coordinates": [
          45.17792,
          39.76111
        ],
        "type": "Point"
      }
    },
    {
      "type": "Feature",
      "properties": {
        "name": "Noyakert"
      },
      "geometry": {
        "coordinates": [
          44.66949,
          39.83069
        ],
        "type": "Point"
      }
    },
    {
      "type": "Feature",
      "properties": {
        "name": "Mrgavan"
      },
      "geometry": {
        "coordinates": [
          44.53565,
          39.97251
        ],
        "type": "Point"
      }
    },
    {
      "type": "Feature",
      "properties": {
        "name": "Meghri"
      },
      "geometry": {
        "coordinates": [
          46.24458,
          38.90292
        ],
        "type": "Point"
      }
    },
    {
      "type": "Feature",
      "properties": {
        "name": "Malishka"
      },
      "geometry": {
        "coordinates": [
          45.4057,
          39.74731
        ],
        "type": "Point"
      }
    },
    {
      "type": "Feature",
      "properties": {
        "name": "Khndzoresk"
      },
      "geometry": {
        "coordinates": [
          46.4361,
          39.50568
        ],
        "type": "Point"
      }
    },
    {
      "type": "Feature",
      "properties": {
        "name": "Kapan"
      },
      "geometry": {
        "coordinates": [
          46.40576,
          39.20755
        ],
        "type": "Point"
      }
    },
    {
      "type": "Feature",
      "properties": {
        "name": "Jermuk"
      },
      "geometry": {
        "coordinates": [
          45.66949,
          39.84168
        ],
        "type": "Point"
      }
    },
    {
      "type": "Feature",
      "properties": {
        "name": "Goris"
      },
      "geometry": {
        "coordinates": [
          46.34168,
          39.51111
        ],
        "type": "Point"
      }
    },
    {
      "type": "Feature",
      "properties": {
        "name": "Gladzor"
      },
      "geometry": {
        "coordinates": [
          45.34729,
          39.7807
        ],
        "type": "Point"
      }
    },
    {
      "type": "Feature",
      "properties": {
        "name": "Getap'"
      },
      "geometry": {
        "coordinates": [
          45.30829,
          39.76392
        ],
        "type": "Point"
      }
    },
    {
      "type": "Feature",
      "properties": {
        "name": "Dzorastan"
      },
      "geometry": {
        "coordinates": [
          46.3572,
          39.27059
        ],
        "type": "Point"
      }
    },
    {
      "type": "Feature",
      "properties": {
        "name": "Dalar"
      },
      "geometry": {
        "coordinates": [
          44.52649,
          39.97653
        ],
        "type": "Point"
      }
    },
    {
      "type": "Feature",
      "properties": {
        "name": "Burastan"
      },
      "geometry": {
        "coordinates": [
          44.49681,
          39.99157
        ],
        "type": "Point"
      }
    },
    {
      "type": "Feature",
      "properties": {
        "name": "Akner"
      },
      "geometry": {
        "coordinates": [
          46.30732,
          39.53491
        ],
        "type": "Point"
      }
    },
    {
      "type": "Feature",
      "properties": {
        "name": "Brrnakot'"
      },
      "geometry": {
        "coordinates": [
          45.97241,
          39.49742
        ],
        "type": "Point"
      }
    },
    {
      "type": "Feature",
      "properties": {
        "name": "Berk'anush"
      },
      "geometry": {
        "coordinates": [
          44.51672,
          39.9779
        ],
        "type": "Point"
      }
    },
    {
      "type": "Feature",
      "properties": {
        "name": "Aygezard"
      },
      "geometry": {
        "coordinates": [
          44.60229,
          39.95436
        ],
        "type": "Point"
      }
    },
    {
      "type": "Feature",
      "properties": {
        "name": "Aygepat"
      },
      "geometry": {
        "coordinates": [
          44.59981,
          39.95845
        ],
        "type": "Point"
      }
    },
    {
      "type": "Feature",
      "properties": {
        "name": "Aygavan"
      },
      "geometry": {
        "coordinates": [
          44.66984,
          39.87327
        ],
        "type": "Point"
      }
    },
    {
      "type": "Feature",
      "properties": {
        "name": "Avshar"
      },
      "geometry": {
        "coordinates": [
          44.65832,
          39.85553
        ],
        "type": "Point"
      }
    },
    {
      "type": "Feature",
      "properties": {
        "name": "Hats'avan"
      },
      "geometry": {
        "coordinates": [
          45.97047,
          39.46405
        ],
        "type": "Point"
      }
    },
    {
      "type": "Feature",
      "properties": {
        "name": "Artashat"
      },
      "geometry": {
        "coordinates": [
          44.54447,
          39.96144
        ],
        "type": "Point"
      }
    },
    {
      "type": "Feature",
      "properties": {
        "name": "Yeghegis"
      },
      "geometry": {
        "coordinates": [
          45.3501,
          39.87231
        ],
        "type": "Point"
      }
    },
    {
      "type": "Feature",
      "properties": {
        "name": "Armash"
      },
      "geometry": {
        "coordinates": [
          44.8111,
          39.76672
        ],
        "type": "Point"
      }
    },
    {
      "type": "Feature",
      "properties": {
        "name": "Areni"
      },
      "geometry": {
        "coordinates": [
          45.18329,
          39.71668
        ],
        "type": "Point"
      }
    },
    {
      "type": "Feature",
      "properties": {
        "name": "Ararat"
      },
      "geometry": {
        "coordinates": [
          44.70569,
          39.83069
        ],
        "type": "Point"
      }
    },
    {
      "type": "Feature",
      "properties": {
        "name": "Angeghakot'"
      },
      "geometry": {
        "coordinates": [
          45.94452,
          39.56952
        ],
        "type": "Point"
      }
    },
    {
      "type": "Feature",
      "properties": {
        "name": "Aghavnadzor"
      },
      "geometry": {
        "coordinates": [
          45.2279,
          39.78607
        ],
        "type": "Point"
      }
    },
    {
      "type": "Feature",
      "properties": {
        "name": "Agarakadzor"
      },
      "geometry": {
        "coordinates": [
          45.35553,
          39.73608
        ],
        "type": "Point"
      }
    },
    {
      "type": "Feature",
      "properties": {
        "name": "Agarak"
      },
      "geometry": {
        "coordinates": [
          46.5446,
          39.20684
        ],
        "type": "Point"
      }
    },
    {
      "type": "Feature",
      "properties": {
        "name": "Aralez"
      },
      "geometry": {
        "coordinates": [
          44.6557,
          39.90008
        ],
        "type": "Point"
      }
    },
    {
      "type": "Feature",
      "properties": {
        "name": "Horrom"
      },
      "geometry": {
        "coordinates": [
          43.89032,
          40.65973
        ],
        "type": "Point"
      }
    },
    {
      "type": "Feature",
      "properties": {
        "name": "Margara"
      },
      "geometry": {
        "coordinates": [
          44.18048,
          40.03332
        ],
        "type": "Point"
      }
    },
    {
      "type": "Feature",
      "properties": {
        "name": "Zovuni"
      },
      "geometry": {
        "coordinates": [
          44.4389,
          40.51111
        ],
        "type": "Point"
      }
    },
    {
      "type": "Feature",
      "properties": {
        "name": "Zovaber"
      },
      "geometry": {
        "coordinates": [
          44.79028,
          40.56671
        ],
        "type": "Point"
      }
    },
    {
      "type": "Feature",
      "properties": {
        "name": "Zorak"
      },
      "geometry": {
        "coordinates": [
          44.39447,
          40.09168
        ],
        "type": "Point"
      }
    },
    {
      "type": "Feature",
      "properties": {
        "name": "Zarr"
      },
      "geometry": {
        "coordinates": [
          44.73328,
          40.25848
        ],
        "type": "Point"
      }
    },
    {
      "type": "Feature",
      "properties": {
        "name": "Yerevan"
      },
      "geometry": {
        "coordinates": [
          44.51361,
          40.18111
        ],
        "type": "Point"
      }
    },
    {
      "type": "Feature",
      "properties": {
        "name": "Yerazgavors"
      },
      "geometry": {
        "coordinates": [
          43.74722,
          40.69505
        ],
        "type": "Point"
      }
    },
    {
      "type": "Feature",
      "properties": {
        "name": "Yeraskhahun"
      },
      "geometry": {
        "coordinates": [
          44.21948,
          40.07233
        ],
        "type": "Point"
      }
    },
    {
      "type": "Feature",
      "properties": {
        "name": "Yeranos"
      },
      "geometry": {
        "coordinates": [
          45.19209,
          40.20428
        ],
        "type": "Point"
      }
    },
    {
      "type": "Feature",
      "properties": {
        "name": "Yeghegnut"
      },
      "geometry": {
        "coordinates": [
          44.63155,
          40.90302
        ],
        "type": "Point"
      }
    },
    {
      "type": "Feature",
      "properties": {
        "name": "Yeghegnut"
      },
      "geometry": {
        "coordinates": [
          44.16669,
          40.08893
        ],
        "type": "Point"
      }
    },
    {
      "type": "Feature",
      "properties": {
        "name": "Ejmiatsin"
      },
      "geometry": {
        "coordinates": [
          44.29462,
          40.16557
        ],
        "type": "Point"
      }
    },
    {
      "type": "Feature",
      "properties": {
        "name": "Yeghvard"
      },
      "geometry": {
        "coordinates": [
          44.48608,
          40.32507
        ],
        "type": "Point"
      }
    },
    {
      "type": "Feature",
      "properties": {
        "name": "Voskevaz"
      },
      "geometry": {
        "coordinates": [
          44.30011,
          40.27508
        ],
        "type": "Point"
      }
    },
    {
      "type": "Feature",
      "properties": {
        "name": "Voskevan"
      },
      "geometry": {
        "coordinates": [
          45.06381,
          41.12081
        ],
        "type": "Point"
      }
    },
    {
      "type": "Feature",
      "properties": {
        "name": "Voskehask"
      },
      "geometry": {
        "coordinates": [
          43.77474,
          40.76426
        ],
        "type": "Point"
      }
    },
    {
      "type": "Feature",
      "properties": {
        "name": "Verin Getashen"
      },
      "geometry": {
        "coordinates": [
          45.25293,
          40.13068
        ],
        "type": "Point"
      }
    },
    {
      "type": "Feature",
      "properties": {
        "name": "Verin Dvin"
      },
      "geometry": {
        "coordinates": [
          44.59038,
          40.02434
        ],
        "type": "Point"
      }
    },
    {
      "type": "Feature",
      "properties": {
        "name": "Verin Artashat"
      },
      "geometry": {
        "coordinates": [
          44.58893,
          39.99731
        ],
        "type": "Point"
      }
    },
    {
      "type": "Feature",
      "properties": {
        "name": "Akht'ala"
      },
      "geometry": {
        "coordinates": [
          44.75811,
          41.16838
        ],
        "type": "Point"
      }
    },
    {
      "type": "Feature",
      "properties": {
        "name": "Varser"
      },
      "geometry": {
        "coordinates": [
          44.90832,
          40.55548
        ],
        "type": "Point"
      }
    },
    {
      "type": "Feature",
      "properties": {
        "name": "Vardenis"
      },
      "geometry": {
        "coordinates": [
          45.73053,
          40.18329
        ],
        "type": "Point"
      }
    },
    {
      "type": "Feature",
      "properties": {
        "name": "Vardenik"
      },
      "geometry": {
        "coordinates": [
          45.44311,
          40.13348
        ],
        "type": "Point"
      }
    },
    {
      "type": "Feature",
      "properties": {
        "name": "Vahan"
      },
      "geometry": {
        "coordinates": [
          45.39769,
          40.57549
        ],
        "type": "Point"
      }
    },
    {
      "type": "Feature",
      "properties": {
        "name": "Vaghashen"
      },
      "geometry": {
        "coordinates": [
          45.33069,
          40.13611
        ],
        "type": "Point"
      }
    },
    {
      "type": "Feature",
      "properties": {
        "name": "Vahagni"
      },
      "geometry": {
        "coordinates": [
          44.60873,
          40.90698
        ],
        "type": "Point"
      }
    },
    {
      "type": "Feature",
      "properties": {
        "name": "Ushi"
      },
      "geometry": {
        "coordinates": [
          44.37512,
          40.34729
        ],
        "type": "Point"
      }
    },
    {
      "type": "Feature",
      "properties": {
        "name": "Urrut"
      },
      "geometry": {
        "coordinates": [
          44.39628,
          41.06778
        ],
        "type": "Point"
      }
    },
    {
      "type": "Feature",
      "properties": {
        "name": "Tsovinar"
      },
      "geometry": {
        "coordinates": [
          45.46786,
          40.15959
        ],
        "type": "Point"
      }
    },
    {
      "type": "Feature",
      "properties": {
        "name": "Tsovazard"
      },
      "geometry": {
        "coordinates": [
          45.05011,
          40.4751
        ],
        "type": "Point"
      }
    },
    {
      "type": "Feature",
      "properties": {
        "name": "Tsovak"
      },
      "geometry": {
        "coordinates": [
          45.63286,
          40.18254
        ],
        "type": "Point"
      }
    },
    {
      "type": "Feature",
      "properties": {
        "name": "Tsovagyugh"
      },
      "geometry": {
        "coordinates": [
          44.96112,
          40.63348
        ],
        "type": "Point"
      }
    },
    {
      "type": "Feature",
      "properties": {
        "name": "Tsaghkunk'"
      },
      "geometry": {
        "coordinates": [
          44.27228,
          40.18048
        ],
        "type": "Point"
      }
    },
    {
      "type": "Feature",
      "properties": {
        "name": "Tsaghkahovit"
      },
      "geometry": {
        "coordinates": [
          44.22241,
          40.63428
        ],
        "type": "Point"
      }
    },
    {
      "type": "Feature",
      "properties": {
        "name": "Tsaghkaber"
      },
      "geometry": {
        "coordinates": [
          44.10144,
          40.79849
        ],
        "type": "Point"
      }
    },
    {
      "type": "Feature",
      "properties": {
        "name": "Tsaghkadzor"
      },
      "geometry": {
        "coordinates": [
          44.72025,
          40.53259
        ],
        "type": "Point"
      }
    },
    {
      "type": "Feature",
      "properties": {
        "name": "Tsovasar"
      },
      "geometry": {
        "coordinates": [
          45.19096,
          40.1382
        ],
        "type": "Point"
      }
    },
    {
      "type": "Feature",
      "properties": {
        "name": "Tashir"
      },
      "geometry": {
        "coordinates": [
          44.28462,
          41.12072
        ],
        "type": "Point"
      }
    },
    {
      "type": "Feature",
      "properties": {
        "name": "Tandzut"
      },
      "geometry": {
        "coordinates": [
          44.07788,
          40.06952
        ],
        "type": "Point"
      }
    },
    {
      "type": "Feature",
      "properties": {
        "name": "T'alin"
      },
      "geometry": {
        "coordinates": [
          43.87793,
          40.39172
        ],
        "type": "Point"
      }
    },
    {
      "type": "Feature",
      "properties": {
        "name": "Step'anavan"
      },
      "geometry": {
        "coordinates": [
          44.38531,
          41.00995
        ],
        "type": "Point"
      }
    },
    {
      "type": "Feature",
      "properties": {
        "name": "Spitak"
      },
      "geometry": {
        "coordinates": [
          44.26731,
          40.83221
        ],
        "type": "Point"
      }
    },
    {
      "type": "Feature",
      "properties": {
        "name": "Spandaryan"
      },
      "geometry": {
        "coordinates": [
          44.01551,
          40.66105
        ],
        "type": "Point"
      }
    },
    {
      "type": "Feature",
      "properties": {
        "name": "Alashkert"
      },
      "geometry": {
        "coordinates": [
          44.05108,
          40.10712
        ],
        "type": "Point"
      }
    },
    {
      "type": "Feature",
      "properties": {
        "name": "Solak"
      },
      "geometry": {
        "coordinates": [
          44.70709,
          40.46252
        ],
        "type": "Point"
      }
    },
    {
      "type": "Feature",
      "properties": {
        "name": "Sis"
      },
      "geometry": {
        "coordinates": [
          44.38892,
          40.05829
        ],
        "type": "Point"
      }
    },
    {
      "type": "Feature",
      "properties": {
        "name": "Shnogh"
      },
      "geometry": {
        "coordinates": [
          44.84043,
          41.14693
        ],
        "type": "Point"
      }
    },
    {
      "type": "Feature",
      "properties": {
        "name": "Shirak"
      },
      "geometry": {
        "coordinates": [
          43.91582,
          40.84042
        ],
        "type": "Point"
      }
    },
    {
      "type": "Feature",
      "properties": {
        "name": "Shenavan"
      },
      "geometry": {
        "coordinates": [
          44.38348,
          40.48328
        ],
        "type": "Point"
      }
    },
    {
      "type": "Feature",
      "properties": {
        "name": "Shenavan"
      },
      "geometry": {
        "coordinates": [
          43.93048,
          40.05548
        ],
        "type": "Point"
      }
    },
    {
      "type": "Feature",
      "properties": {
        "name": "Sevan"
      },
      "geometry": {
        "coordinates": [
          44.94171,
          40.5473
        ],
        "type": "Point"
      }
    },
    {
      "type": "Feature",
      "properties": {
        "name": "Sarukhan"
      },
      "geometry": {
        "coordinates": [
          45.13068,
          40.29169
        ],
        "type": "Point"
      }
    },
    {
      "type": "Feature",
      "properties": {
        "name": "Sarigyugh"
      },
      "geometry": {
        "coordinates": [
          45.14486,
          41.03531
        ],
        "type": "Point"
      }
    },
    {
      "type": "Feature",
      "properties": {
        "name": "Saratak"
      },
      "geometry": {
        "coordinates": [
          43.87231,
          40.6709
        ],
        "type": "Point"
      }
    },
    {
      "type": "Feature",
      "properties": {
        "name": "Saramej"
      },
      "geometry": {
        "coordinates": [
          44.2222,
          40.77487
        ],
        "type": "Point"
      }
    },
    {
      "type": "Feature",
      "properties": {
        "name": "Sarahart'"
      },
      "geometry": {
        "coordinates": [
          44.21407,
          40.87043
        ],
        "type": "Point"
      }
    },
    {
      "type": "Feature",
      "properties": {
        "name": "Geghakert"
      },
      "geometry": {
        "coordinates": [
          44.24331,
          40.18516
        ],
        "type": "Point"
      }
    },
    {
      "type": "Feature",
      "properties": {
        "name": "Ptghni"
      },
      "geometry": {
        "coordinates": [
          44.58612,
          40.25568
        ],
        "type": "Point"
      }
    },
    {
      "type": "Feature",
      "properties": {
        "name": "Ptghunk'"
      },
      "geometry": {
        "coordinates": [
          44.36389,
          40.16388
        ],
        "type": "Point"
      }
    },
    {
      "type": "Feature",
      "properties": {
        "name": "P'shatavan"
      },
      "geometry": {
        "coordinates": [
          44.06671,
          40.03888
        ],
        "type": "Point"
      }
    },
    {
      "type": "Feature",
      "properties": {
        "name": "Prroshyan"
      },
      "geometry": {
        "coordinates": [
          44.41949,
          40.24731
        ],
        "type": "Point"
      }
    },
    {
      "type": "Feature",
      "properties": {
        "name": "P'ok'r Mant'ash"
      },
      "geometry": {
        "coordinates": [
          44.04666,
          40.64026
        ],
        "type": "Point"
      }
    },
    {
      "type": "Feature",
      "properties": {
        "name": "Zoravan"
      },
      "geometry": {
        "coordinates": [
          44.52228,
          40.35553
        ],
        "type": "Point"
      }
    },
    {
      "type": "Feature",
      "properties": {
        "name": "Pemzashen"
      },
      "geometry": {
        "coordinates": [
          43.94311,
          40.58612
        ],
        "type": "Point"
      }
    },
    {
      "type": "Feature",
      "properties": {
        "name": "Parravak'ar"
      },
      "geometry": {
        "coordinates": [
          45.36696,
          40.98248
        ],
        "type": "Point"
      }
    },
    {
      "type": "Feature",
      "properties": {
        "name": "Oshakan"
      },
      "geometry": {
        "coordinates": [
          44.31671,
          40.26392
        ],
        "type": "Point"
      }
    },
    {
      "type": "Feature",
      "properties": {
        "name": "Sardarapat"
      },
      "geometry": {
        "coordinates": [
          44.00969,
          40.13206
        ],
        "type": "Point"
      }
    },
    {
      "type": "Feature",
      "properties": {
        "name": "Odzun"
      },
      "geometry": {
        "coordinates": [
          44.61341,
          41.05321
        ],
        "type": "Point"
      }
    },
    {
      "type": "Feature",
      "properties": {
        "name": "Noyemberyan"
      },
      "geometry": {
        "coordinates": [
          44.99917,
          41.17244
        ],
        "type": "Point"
      }
    },
    {
      "type": "Feature",
      "properties": {
        "name": "Nor Gyugh"
      },
      "geometry": {
        "coordinates": [
          44.65832,
          40.26672
        ],
        "type": "Point"
      }
    },
    {
      "type": "Feature",
      "properties": {
        "name": "Nor Geghi"
      },
      "geometry": {
        "coordinates": [
          44.58331,
          40.32233
        ],
        "type": "Point"
      }
    },
    {
      "type": "Feature",
      "properties": {
        "name": "Norashen"
      },
      "geometry": {
        "coordinates": [
          44.33336,
          41.18886
        ],
        "type": "Point"
      }
    },
    {
      "type": "Feature",
      "properties": {
        "name": "Norashen"
      },
      "geometry": {
        "coordinates": [
          44.59296,
          40.0013
        ],
        "type": "Point"
      }
    },
    {
      "type": "Feature",
      "properties": {
        "name": "Nor Armavir"
      },
      "geometry": {
        "coordinates": [
          43.99451,
          40.08612
        ],
        "type": "Point"
      }
    },
    {
      "type": "Feature",
      "properties": {
        "name": "Noramarg"
      },
      "geometry": {
        "coordinates": [
          44.42511,
          40.02228
        ],
        "type": "Point"
      }
    },
    {
      "type": "Feature",
      "properties": {
        "name": "Norakert"
      },
      "geometry": {
        "coordinates": [
          44.3501,
          40.19733
        ],
        "type": "Point"
      }
    },
    {
      "type": "Feature",
      "properties": {
        "name": "Noratus"
      },
      "geometry": {
        "coordinates": [
          45.18048,
          40.37793
        ],
        "type": "Point"
      }
    },
    {
      "type": "Feature",
      "properties": {
        "name": "Nerk'in Getashen"
      },
      "geometry": {
        "coordinates": [
          45.27087,
          40.14172
        ],
        "type": "Point"
      }
    },
    {
      "type": "Feature",
      "properties": {
        "name": "Navur"
      },
      "geometry": {
        "coordinates": [
          45.34179,
          40.86695
        ],
        "type": "Point"
      }
    },
    {
      "type": "Feature",
      "properties": {
        "name": "Nalbandyan"
      },
      "geometry": {
        "coordinates": [
          43.98889,
          40.0639
        ],
        "type": "Point"
      }
    },
    {
      "type": "Feature",
      "properties": {
        "name": "Basen"
      },
      "geometry": {
        "coordinates": [
          43.99274,
          40.75767
        ],
        "type": "Point"
      }
    },
    {
      "type": "Feature",
      "properties": {
        "name": "Hovtamej"
      },
      "geometry": {
        "coordinates": [
          44.25848,
          40.18329
        ],
        "type": "Point"
      }
    },
    {
      "type": "Feature",
      "properties": {
        "name": "Mrgashen"
      },
      "geometry": {
        "coordinates": [
          44.54449,
          40.28607
        ],
        "type": "Point"
      }
    },
    {
      "type": "Feature",
      "properties": {
        "name": "Mrgashat"
      },
      "geometry": {
        "coordinates": [
          44.08069,
          40.13068
        ],
        "type": "Point"
      }
    },
    {
      "type": "Feature",
      "properties": {
        "name": "Mrganush"
      },
      "geometry": {
        "coordinates": [
          44.55831,
          40.02857
        ],
        "type": "Point"
      }
    },
    {
      "type": "Feature",
      "properties": {
        "name": "Mosesgegh"
      },
      "geometry": {
        "coordinates": [
          45.48838,
          40.90534
        ],
        "type": "Point"
      }
    },
    {
      "type": "Feature",
      "properties": {
        "name": "Mets Parni"
      },
      "geometry": {
        "coordinates": [
          44.11108,
          40.83472
        ],
        "type": "Point"
      }
    },
    {
      "type": "Feature",
      "properties": {
        "name": "Mets Masrik"
      },
      "geometry": {
        "coordinates": [
          45.76391,
          40.21948
        ],
        "type": "Point"
      }
    },
    {
      "type": "Feature",
      "properties": {
        "name": "Mets Mant'ash"
      },
      "geometry": {
        "coordinates": [
          44.05653,
          40.64376
        ],
        "type": "Point"
      }
    },
    {
      "type": "Feature",
      "properties": {
        "name": "Metsavan"
      },
      "geometry": {
        "coordinates": [
          44.22877,
          41.20156
        ],
        "type": "Point"
      }
    },
    {
      "type": "Feature",
      "properties": {
        "name": "Metsamor"
      },
      "geometry": {
        "coordinates": [
          44.29169,
          40.07233
        ],
        "type": "Point"
      }
    },
    {
      "type": "Feature",
      "properties": {
        "name": "Merdzavan"
      },
      "geometry": {
        "coordinates": [
          44.40033,
          40.1814
        ],
        "type": "Point"
      }
    },
    {
      "type": "Feature",
      "properties": {
        "name": "Meghrashen"
      },
      "geometry": {
        "coordinates": [
          43.95831,
          40.6723
        ],
        "type": "Point"
      }
    },
    {
      "type": "Feature",
      "properties": {
        "name": "Meghradzor"
      },
      "geometry": {
        "coordinates": [
          44.65147,
          40.60611
        ],
        "type": "Point"
      }
    },
    {
      "type": "Feature",
      "properties": {
        "name": "Mayakovski"
      },
      "geometry": {
        "coordinates": [
          44.63892,
          40.25293
        ],
        "type": "Point"
      }
    },
    {
      "type": "Feature",
      "properties": {
        "name": "Masis"
      },
      "geometry": {
        "coordinates": [
          44.41618,
          40.06542
        ],
        "type": "Point"
      }
    },
    {
      "type": "Feature",
      "properties": {
        "name": "Martuni"
      },
      "geometry": {
        "coordinates": [
          45.30548,
          40.13892
        ],
        "type": "Point"
      }
    },
    {
      "type": "Feature",
      "properties": {
        "name": "Marmarashen"
      },
      "geometry": {
        "coordinates": [
          44.47229,
          40.05829
        ],
        "type": "Point"
      }
    },
    {
      "type": "Feature",
      "properties": {
        "name": "Marmashen"
      },
      "geometry": {
        "coordinates": [
          43.7779,
          40.83486
        ],
        "type": "Point"
      }
    },
    {
      "type": "Feature",
      "properties": {
        "name": "Margahovit"
      },
      "geometry": {
        "coordinates": [
          44.68474,
          40.73381
        ],
        "type": "Point"
      }
    },
    {
      "type": "Feature",
      "properties": {
        "name": "Maralik"
      },
      "geometry": {
        "coordinates": [
          43.87231,
          40.57507
        ],
        "type": "Point"
      }
    },
    {
      "type": "Feature",
      "properties": {
        "name": "Mayisyan"
      },
      "geometry": {
        "coordinates": [
          43.83938,
          40.84715
        ],
        "type": "Point"
      }
    },
    {
      "type": "Feature",
      "properties": {
        "name": "Madina"
      },
      "geometry": {
        "coordinates": [
          45.25507,
          40.07637
        ],
        "type": "Point"
      }
    },
    {
      "type": "Feature",
      "properties": {
        "name": "Lukashin"
      },
      "geometry": {
        "coordinates": [
          44.0039,
          40.18726
        ],
        "type": "Point"
      }
    },
    {
      "type": "Feature",
      "properties": {
        "name": "Lorut"
      },
      "geometry": {
        "coordinates": [
          44.77142,
          40.93717
        ],
        "type": "Point"
      }
    },
    {
      "type": "Feature",
      "properties": {
        "name": "Lichk'"
      },
      "geometry": {
        "coordinates": [
          45.23467,
          40.15933
        ],
        "type": "Point"
      }
    },
    {
      "type": "Feature",
      "properties": {
        "name": "Lerrnavan"
      },
      "geometry": {
        "coordinates": [
          44.16024,
          40.7882
        ],
        "type": "Point"
      }
    },
    {
      "type": "Feature",
      "properties": {
        "name": "Lerrnapat"
      },
      "geometry": {
        "coordinates": [
          44.39344,
          40.81538
        ],
        "type": "Point"
      }
    },
    {
      "type": "Feature",
      "properties": {
        "name": "Lerrnants'k'"
      },
      "geometry": {
        "coordinates": [
          44.27435,
          40.79532
        ],
        "type": "Point"
      }
    },
    {
      "type": "Feature",
      "properties": {
        "name": "Lerrnanist"
      },
      "geometry": {
        "coordinates": [
          44.79249,
          40.46676
        ],
        "type": "Point"
      }
    },
    {
      "type": "Feature",
      "properties": {
        "name": "Lerrnakert"
      },
      "geometry": {
        "coordinates": [
          43.9389,
          40.5625
        ],
        "type": "Point"
      }
    },
    {
      "type": "Feature",
      "properties": {
        "name": "Khoronk'"
      },
      "geometry": {
        "coordinates": [
          44.24731,
          40.13611
        ],
        "type": "Point"
      }
    },
    {
      "type": "Feature",
      "properties": {
        "name": "Lchashen"
      },
      "geometry": {
        "coordinates": [
          44.93048,
          40.51947
        ],
        "type": "Point"
      }
    },
    {
      "type": "Feature",
      "properties": {
        "name": "Lchap'"
      },
      "geometry": {
        "coordinates": [
          45.07507,
          40.45569
        ],
        "type": "Point"
      }
    },
    {
      "type": "Feature",
      "properties": {
        "name": "Lanjaghbyur"
      },
      "geometry": {
        "coordinates": [
          45.14447,
          40.26947
        ],
        "type": "Point"
      }
    },
    {
      "type": "Feature",
      "properties": {
        "name": "Kotayk'"
      },
      "geometry": {
        "coordinates": [
          44.66388,
          40.27789
        ],
        "type": "Point"
      }
    },
    {
      "type": "Feature",
      "properties": {
        "name": "Kosh"
      },
      "geometry": {
        "coordinates": [
          44.16107,
          40.30011
        ],
        "type": "Point"
      }
    },
    {
      "type": "Feature",
      "properties": {
        "name": "Vanadzor"
      },
      "geometry": {
        "coordinates": [
          44.4939,
          40.80456
        ],
        "type": "Point"
      }
    },
    {
      "type": "Feature",
      "properties": {
        "name": "Hnaberd"
      },
      "geometry": {
        "coordinates": [
          44.14058,
          40.63721
        ],
        "type": "Point"
      }
    },
    {
      "type": "Feature",
      "properties": {
        "name": "Khasht'arrak"
      },
      "geometry": {
        "coordinates": [
          45.1821,
          40.93668
        ],
        "type": "Point"
      }
    },
    {
      "type": "Feature",
      "properties": {
        "name": "Kasakh"
      },
      "geometry": {
        "coordinates": [
          44.41046,
          40.53697
        ],
        "type": "Point"
      }
    },
    {
      "type": "Feature",
      "properties": {
        "name": "Karchaghbyur"
      },
      "geometry": {
        "coordinates": [
          45.57785,
          40.17048
        ],
        "type": "Point"
      }
    },
    {
      "type": "Feature",
      "properties": {
        "name": "Karbi"
      },
      "geometry": {
        "coordinates": [
          44.37793,
          40.33069
        ],
        "type": "Point"
      }
    },
    {
      "type": "Feature",
      "properties": {
        "name": "Karanlukh"
      },
      "geometry": {
        "coordinates": [
          45.28972,
          40.10444
        ],
        "type": "Point"
      }
    },
    {
      "type": "Feature",
      "properties": {
        "name": "Kaputan"
      },
      "geometry": {
        "coordinates": [
          44.70007,
          40.32507
        ],
        "type": "Point"
      }
    },
    {
      "type": "Feature",
      "properties": {
        "name": "K'anak'erravan"
      },
      "geometry": {
        "coordinates": [
          44.53511,
          40.24739
        ],
        "type": "Point"
      }
    },
    {
      "type": "Feature",
      "properties": {
        "name": "Kamo"
      },
      "geometry": {
        "coordinates": [
          43.95071,
          40.82572
        ],
        "type": "Point"
      }
    },
    {
      "type": "Feature",
      "properties": {
        "name": "Gavarr"
      },
      "geometry": {
        "coordinates": [
          45.12386,
          40.35398
        ],
        "type": "Point"
      }
    },
    {
      "type": "Feature",
      "properties": {
        "name": "Mayisyan"
      },
      "geometry": {
        "coordinates": [
          44.09192,
          40.15701
        ],
        "type": "Point"
      }
    },
    {
      "type": "Feature",
      "properties": {
        "name": "Shahumyan"
      },
      "geometry": {
        "coordinates": [
          44.54596,
          40.77482
        ],
        "type": "Point"
      }
    },
    {
      "type": "Feature",
      "properties": {
        "name": "Ijevan"
      },
      "geometry": {
        "coordinates": [
          45.14851,
          40.87877
        ],
        "type": "Point"
      }
    },
    {
      "type": "Feature",
      "properties": {
        "name": "Hrazdan"
      },
      "geometry": {
        "coordinates": [
          44.7662,
          40.49748
        ],
        "type": "Point"
      }
    },
    {
      "type": "Feature",
      "properties": {
        "name": "Armavir"
      },
      "geometry": {
        "coordinates": [
          44.03815,
          40.15446
        ],
        "type": "Point"
      }
    },
    {
      "type": "Feature",
      "properties": {
        "name": "Hayanist"
      },
      "geometry": {
        "coordinates": [
          44.37793,
          40.12231
        ],
        "type": "Point"
      }
    },
    {
      "type": "Feature",
      "properties": {
        "name": "Haghartsin"
      },
      "geometry": {
        "coordinates": [
          44.96847,
          40.77614
        ],
        "type": "Point"
      }
    },
    {
      "type": "Feature",
      "properties": {
        "name": "Gyumri"
      },
      "geometry": {
        "coordinates": [
          43.84528,
          40.7942
        ],
        "type": "Point"
      }
    },
    {
      "type": "Feature",
      "properties": {
        "name": "Gyulagarak"
      },
      "geometry": {
        "coordinates": [
          44.47144,
          40.96715
        ],
        "type": "Point"
      }
    },
    {
      "type": "Feature",
      "properties": {
        "name": "Ghukasavan"
      },
      "geometry": {
        "coordinates": [
          44.41669,
          40.12793
        ],
        "type": "Point"
      }
    },
    {
      "type": "Feature",
      "properties": {
        "name": "Geghamasar"
      },
      "geometry": {
        "coordinates": [
          45.67924,
          40.31091
        ],
        "type": "Point"
      }
    },
    {
      "type": "Feature",
      "properties": {
        "name": "Gugark'"
      },
      "geometry": {
        "coordinates": [
          44.54025,
          40.8046
        ],
        "type": "Point"
      }
    },
    {
      "type": "Feature",
      "properties": {
        "name": "Tsiatsan"
      },
      "geometry": {
        "coordinates": [
          44.26947,
          40.1861
        ],
        "type": "Point"
      }
    },
    {
      "type": "Feature",
      "properties": {
        "name": "Goght'"
      },
      "geometry": {
        "coordinates": [
          44.78332,
          40.1347
        ],
        "type": "Point"
      }
    },
    {
      "type": "Feature",
      "properties": {
        "name": "Gogaran"
      },
      "geometry": {
        "coordinates": [
          44.19915,
          40.89255
        ],
        "type": "Point"
      }
    },
    {
      "type": "Feature",
      "properties": {
        "name": "Getazat"
      },
      "geometry": {
        "coordinates": [
          44.56369,
          40.03844
        ],
        "type": "Point"
      }
    },
    {
      "type": "Feature",
      "properties": {
        "name": "Getashen"
      },
      "geometry": {
        "coordinates": [
          43.94171,
          40.04449
        ],
        "type": "Point"
      }
    },
    {
      "type": "Feature",
      "properties": {
        "name": "Geghanist"
      },
      "geometry": {
        "coordinates": [
          44.43048,
          40.14587
        ],
        "type": "Point"
      }
    },
    {
      "type": "Feature",
      "properties": {
        "name": "Geghamavan"
      },
      "geometry": {
        "coordinates": [
          44.88892,
          40.5625
        ],
        "type": "Point"
      }
    },
    {
      "type": "Feature",
      "properties": {
        "name": "Garrni"
      },
      "geometry": {
        "coordinates": [
          44.73442,
          40.11931
        ],
        "type": "Point"
      }
    },
    {
      "type": "Feature",
      "properties": {
        "name": "Gagarin"
      },
      "geometry": {
        "coordinates": [
          44.86962,
          40.54026
        ],
        "type": "Point"
      }
    },
    {
      "type": "Feature",
      "properties": {
        "name": "Fantan"
      },
      "geometry": {
        "coordinates": [
          44.6861,
          40.39447
        ],
        "type": "Point"
      }
    },
    {
      "type": "Feature",
      "properties": {
        "name": "Fioletovo"
      },
      "geometry": {
        "coordinates": [
          44.71769,
          40.72241
        ],
        "type": "Point"
      }
    },
    {
      "type": "Feature",
      "properties": {
        "name": "Dzoraghbyur"
      },
      "geometry": {
        "coordinates": [
          44.6415,
          40.20412
        ],
        "type": "Point"
      }
    },
    {
      "type": "Feature",
      "properties": {
        "name": "Dzoragyugh"
      },
      "geometry": {
        "coordinates": [
          45.18337,
          40.16957
        ],
        "type": "Point"
      }
    },
    {
      "type": "Feature",
      "properties": {
        "name": "Dzit'hank'ov"
      },
      "geometry": {
        "coordinates": [
          43.82092,
          40.50848
        ],
        "type": "Point"
      }
    },
    {
      "type": "Feature",
      "properties": {
        "name": "Jrashen"
      },
      "geometry": {
        "coordinates": [
          44.18664,
          40.79028
        ],
        "type": "Point"
      }
    },
    {
      "type": "Feature",
      "properties": {
        "name": "Jrashen"
      },
      "geometry": {
        "coordinates": [
          44.51259,
          40.05275
        ],
        "type": "Point"
      }
    },
    {
      "type": "Feature",
      "properties": {
        "name": "Jrahovit"
      },
      "geometry": {
        "coordinates": [
          44.4751,
          40.0473
        ],
        "type": "Point"
      }
    },
    {
      "type": "Feature",
      "properties": {
        "name": "Janfida"
      },
      "geometry": {
        "coordinates": [
          44.02789,
          40.04449
        ],
        "type": "Point"
      }
    },
    {
      "type": "Feature",
      "properties": {
        "name": "Dvin"
      },
      "geometry": {
        "coordinates": [
          44.58376,
          40.01984
        ],
        "type": "Point"
      }
    },
    {
      "type": "Feature",
      "properties": {
        "name": "Dsegh"
      },
      "geometry": {
        "coordinates": [
          44.65003,
          40.9617
        ],
        "type": "Point"
      }
    },
    {
      "type": "Feature",
      "properties": {
        "name": "Drakhtik"
      },
      "geometry": {
        "coordinates": [
          45.2367,
          40.56497
        ],
        "type": "Point"
      }
    },
    {
      "type": "Feature",
      "properties": {
        "name": "Doghs"
      },
      "geometry": {
        "coordinates": [
          44.27228,
          40.22229
        ],
        "type": "Point"
      }
    },
    {
      "type": "Feature",
      "properties": {
        "name": "Dilijan"
      },
      "geometry": {
        "coordinates": [
          44.8501,
          40.7417
        ],
        "type": "Point"
      }
    },
    {
      "type": "Feature",
      "properties": {
        "name": "Ddmashen"
      },
      "geometry": {
        "coordinates": [
          44.82295,
          40.57028
        ],
        "type": "Point"
      }
    },
    {
      "type": "Feature",
      "properties": {
        "name": "Darpas"
      },
      "geometry": {
        "coordinates": [
          44.42494,
          40.83674
        ],
        "type": "Point"
      }
    },
    {
      "type": "Feature",
      "properties": {
        "name": "Dalarik"
      },
      "geometry": {
        "coordinates": [
          43.87793,
          40.2279
        ],
        "type": "Point"
      }
    },
    {
      "type": "Feature",
      "properties": {
        "name": "Chochkan"
      },
      "geometry": {
        "coordinates": [
          44.83217,
          41.18118
        ],
        "type": "Point"
      }
    },
    {
      "type": "Feature",
      "properties": {
        "name": "Chambarak"
      },
      "geometry": {
        "coordinates": [
          45.35498,
          40.59655
        ],
        "type": "Point"
      }
    },
    {
      "type": "Feature",
      "properties": {
        "name": "Bjni"
      },
      "geometry": {
        "coordinates": [
          44.65008,
          40.45831
        ],
        "type": "Point"
      }
    },
    {
      "type": "Feature",
      "properties": {
        "name": "Byureghavan"
      },
      "geometry": {
        "coordinates": [
          44.59333,
          40.31417
        ],
        "type": "Point"
      }
    },
    {
      "type": "Feature",
      "properties": {
        "name": "Byurakan"
      },
      "geometry": {
        "coordinates": [
          44.27275,
          40.33894
        ],
        "type": "Point"
      }
    },
    {
      "type": "Feature",
      "properties": {
        "name": "Buzhakan"
      },
      "geometry": {
        "coordinates": [
          44.51947,
          40.45569
        ],
        "type": "Point"
      }
    },
    {
      "type": "Feature",
      "properties": {
        "name": "Berd"
      },
      "geometry": {
        "coordinates": [
          45.38901,
          40.88135
        ],
        "type": "Point"
      }
    },
    {
      "type": "Feature",
      "properties": {
        "name": "Bazum"
      },
      "geometry": {
        "coordinates": [
          44.43978,
          40.86763
        ],
        "type": "Point"
      }
    },
    {
      "type": "Feature",
      "properties": {
        "name": "Byuravan"
      },
      "geometry": {
        "coordinates": [
          44.51889,
          40.01604
        ],
        "type": "Point"
      }
    },
    {
      "type": "Feature",
      "properties": {
        "name": "Bambakashat"
      },
      "geometry": {
        "coordinates": [
          44.01947,
          40.10828
        ],
        "type": "Point"
      }
    },
    {
      "type": "Feature",
      "properties": {
        "name": "Balahovit"
      },
      "geometry": {
        "coordinates": [
          44.60828,
          40.25153
        ],
        "type": "Point"
      }
    },
    {
      "type": "Feature",
      "properties": {
        "name": "Bagratashen"
      },
      "geometry": {
        "coordinates": [
          44.81737,
          41.24358
        ],
        "type": "Point"
      }
    },
    {
      "type": "Feature",
      "properties": {
        "name": "Azatan"
      },
      "geometry": {
        "coordinates": [
          43.82727,
          40.71959
        ],
        "type": "Point"
      }
    },
    {
      "type": "Feature",
      "properties": {
        "name": "Haykavan"
      },
      "geometry": {
        "coordinates": [
          43.75173,
          40.80312
        ],
        "type": "Point"
      }
    },
    {
      "type": "Feature",
      "properties": {
        "name": "Aygestan"
      },
      "geometry": {
        "coordinates": [
          44.55829,
          40.00293
        ],
        "type": "Point"
      }
    },
    {
      "type": "Feature",
      "properties": {
        "name": "Aygeshat"
      },
      "geometry": {
        "coordinates": [
          44.28888,
          40.23608
        ],
        "type": "Point"
      }
    },
    {
      "type": "Feature",
      "properties": {
        "name": "Aygeshat"
      },
      "geometry": {
        "coordinates": [
          44.0611,
          40.07507
        ],
        "type": "Point"
      }
    },
    {
      "type": "Feature",
      "properties": {
        "name": "Aknalich"
      },
      "geometry": {
        "coordinates": [
          44.16669,
          40.14728
        ],
        "type": "Point"
      }
    },
    {
      "type": "Feature",
      "properties": {
        "name": "Aygehovit"
      },
      "geometry": {
        "coordinates": [
          45.25033,
          40.97951
        ],
        "type": "Point"
      }
    },
    {
      "type": "Feature",
      "properties": {
        "name": "Artimet"
      },
      "geometry": {
        "coordinates": [
          44.26672,
          40.15008
        ],
        "type": "Point"
      }
    },
    {
      "type": "Feature",
      "properties": {
        "name": "Astghadzor"
      },
      "geometry": {
        "coordinates": [
          45.35553,
          40.12231
        ],
        "type": "Point"
      }
    },
    {
      "type": "Feature",
      "properties": {
        "name": "Ashtarak"
      },
      "geometry": {
        "coordinates": [
          44.36204,
          40.2991
        ],
        "type": "Point"
      }
    },
    {
      "type": "Feature",
      "properties": {
        "name": "Ashnak"
      },
      "geometry": {
        "coordinates": [
          43.91669,
          40.33069
        ],
        "type": "Point"
      }
    },
    {
      "type": "Feature",
      "properties": {
        "name": "Arzni"
      },
      "geometry": {
        "coordinates": [
          44.59869,
          40.2973
        ],
        "type": "Point"
      }
    },
    {
      "type": "Feature",
      "properties": {
        "name": "Arzakan"
      },
      "geometry": {
        "coordinates": [
          44.60828,
          40.45007
        ],
        "type": "Point"
      }
    },
    {
      "type": "Feature",
      "properties": {
        "name": "Arteni"
      },
      "geometry": {
        "coordinates": [
          43.76672,
          40.2973
        ],
        "type": "Point"
      }
    },
    {
      "type": "Feature",
      "properties": {
        "name": "Arshaluys"
      },
      "geometry": {
        "coordinates": [
          44.21393,
          40.16949
        ],
        "type": "Point"
      }
    },
    {
      "type": "Feature",
      "properties": {
        "name": "Argel"
      },
      "geometry": {
        "coordinates": [
          44.6001,
          40.37793
        ],
        "type": "Point"
      }
    },
    {
      "type": "Feature",
      "properties": {
        "name": "Argavand"
      },
      "geometry": {
        "coordinates": [
          44.4389,
          40.15289
        ],
        "type": "Point"
      }
    },
    {
      "type": "Feature",
      "properties": {
        "name": "Argavand"
      },
      "geometry": {
        "coordinates": [
          44.09448,
          40.0611
        ],
        "type": "Point"
      }
    },
    {
      "type": "Feature",
      "properties": {
        "name": "Arevshat"
      },
      "geometry": {
        "coordinates": [
          44.04419,
          40.65345
        ],
        "type": "Point"
      }
    },
    {
      "type": "Feature",
      "properties": {
        "name": "Arevshat"
      },
      "geometry": {
        "coordinates": [
          44.54179,
          40.03963
        ],
        "type": "Point"
      }
    },
    {
      "type": "Feature",
      "properties": {
        "name": "Arevik"
      },
      "geometry": {
        "coordinates": [
          43.9043,
          40.7417
        ],
        "type": "Point"
      }
    },
    {
      "type": "Feature",
      "properties": {
        "name": "Arevik"
      },
      "geometry": {
        "coordinates": [
          44.09448,
          40.1001
        ],
        "type": "Point"
      }
    },
    {
      "type": "Feature",
      "properties": {
        "name": "Arevashogh"
      },
      "geometry": {
        "coordinates": [
          44.27438,
          40.86039
        ],
        "type": "Point"
      }
    },
    {
      "type": "Feature",
      "properties": {
        "name": "Arevashat"
      },
      "geometry": {
        "coordinates": [
          44.37512,
          40.14447
        ],
        "type": "Point"
      }
    },
    {
      "type": "Feature",
      "properties": {
        "name": "Archis"
      },
      "geometry": {
        "coordinates": [
          44.87631,
          41.16351
        ],
        "type": "Point"
      }
    },
    {
      "type": "Feature",
      "properties": {
        "name": "Arbat'"
      },
      "geometry": {
        "coordinates": [
          44.40289,
          40.13892
        ],
        "type": "Point"
      }
    },
    {
      "type": "Feature",
      "properties": {
        "name": "Arazap'"
      },
      "geometry": {
        "coordinates": [
          44.14728,
          40.04169
        ],
        "type": "Point"
      }
    },
    {
      "type": "Feature",
      "properties": {
        "name": "Arrap'i"
      },
      "geometry": {
        "coordinates": [
          43.80583,
          40.78276
        ],
        "type": "Point"
      }
    },
    {
      "type": "Feature",
      "properties": {
        "name": "Aramus"
      },
      "geometry": {
        "coordinates": [
          44.66351,
          40.25095
        ],
        "type": "Point"
      }
    },
    {
      "type": "Feature",
      "properties": {
        "name": "Arak's"
      },
      "geometry": {
        "coordinates": [
          44.30292,
          40.05548
        ],
        "type": "Point"
      }
    },
    {
      "type": "Feature",
      "properties": {
        "name": "Aragats"
      },
      "geometry": {
        "coordinates": [
          44.3529,
          40.48889
        ],
        "type": "Point"
      }
    },
    {
      "type": "Feature",
      "properties": {
        "name": "Aparan"
      },
      "geometry": {
        "coordinates": [
          44.3589,
          40.59323
        ],
        "type": "Point"
      }
    },
    {
      "type": "Feature",
      "properties": {
        "name": "Apaga"
      },
      "geometry": {
        "coordinates": [
          44.25293,
          40.09729
        ],
        "type": "Point"
      }
    },
    {
      "type": "Feature",
      "properties": {
        "name": "Anushavan"
      },
      "geometry": {
        "coordinates": [
          43.98053,
          40.65008
        ],
        "type": "Point"
      }
    },
    {
      "type": "Feature",
      "properties": {
        "name": "Amasia"
      },
      "geometry": {
        "coordinates": [
          43.7872,
          40.95442
        ],
        "type": "Point"
      }
    },
    {
      "type": "Feature",
      "properties": {
        "name": "Alaverdi"
      },
      "geometry": {
        "coordinates": [
          44.67316,
          41.09766
        ],
        "type": "Point"
      }
    },
    {
      "type": "Feature",
      "properties": {
        "name": "Akunk'"
      },
      "geometry": {
        "coordinates": [
          44.6861,
          40.26672
        ],
        "type": "Point"
      }
    },
    {
      "type": "Feature",
      "properties": {
        "name": "Akunk'"
      },
      "geometry": {
        "coordinates": [
          45.72568,
          40.15886
        ],
        "type": "Point"
      }
    },
    {
      "type": "Feature",
      "properties": {
        "name": "Akhuryan"
      },
      "geometry": {
        "coordinates": [
          43.90027,
          40.78003
        ],
        "type": "Point"
      }
    },
    {
      "type": "Feature",
      "properties": {
        "name": "Aghavnatun"
      },
      "geometry": {
        "coordinates": [
          44.25295,
          40.2333
        ],
        "type": "Point"
      }
    },
    {
      "type": "Feature",
      "properties": {
        "name": "Aghavnadzor"
      },
      "geometry": {
        "coordinates": [
          44.69581,
          40.58195
        ],
        "type": "Point"
      }
    },
    {
      "type": "Feature",
      "properties": {
        "name": "Agarak"
      },
      "geometry": {
        "coordinates": [
          44.46845,
          41.01072
        ],
        "type": "Point"
      }
    },
    {
      "type": "Feature",
      "properties": {
        "name": "Agarakavan"
      },
      "geometry": {
        "coordinates": [
          44.07233,
          40.33069
        ],
        "type": "Point"
      }
    },
    {
      "type": "Feature",
      "properties": {
        "name": "Abovyan"
      },
      "geometry": {
        "coordinates": [
          44.63348,
          40.27368
        ],
        "type": "Point"
      }
    },
    {
      "type": "Feature",
      "properties": {
        "name": "Abovyan"
      },
      "geometry": {
        "coordinates": [
          44.54742,
          40.04851
        ],
        "type": "Point"
      }
    },
    {
      "type": "Feature",
      "properties": {
        "name": "Vardablur"
      },
      "geometry": {
        "coordinates": [
          44.50889,
          40.97083
        ],
        "type": "Point"
      }
    },
    {
      "type": "Feature",
      "properties": {
        "name": "Bardzrashen"
      },
      "geometry": {
        "coordinates": [
          44.57957,
          40.08533
        ],
        "type": "Point"
      }
    },
    {
      "type": "Feature",
      "properties": {
        "name": "Nshavan"
      },
      "geometry": {
        "coordinates": [
          44.52565,
          40.02787
        ],
        "type": "Point"
      }
    },
    {
      "type": "Feature",
      "properties": {
        "name": "Norabats'"
      },
      "geometry": {
        "coordinates": [
          44.43329,
          40.10553
        ],
        "type": "Point"
      }
    },
    {
      "type": "Feature",
      "properties": {
        "name": "Berdavan"
      },
      "geometry": {
        "coordinates": [
          44.99967,
          41.20503
        ],
        "type": "Point"
      }
    },
    {
      "type": "Feature",
      "properties": {
        "name": "Shirakamut"
      },
      "geometry": {
        "coordinates": [
          44.15278,
          40.86056
        ],
        "type": "Point"
      }
    },
    {
      "type": "Feature",
      "properties": {
        "name": "Azatamut"
      },
      "geometry": {
        "coordinates": [
          45.18551,
          40.98204
        ],
        "type": "Point"
      }
    },
    {
      "type": "Feature",
      "properties": {
        "name": "Getahovit"
      },
      "geometry": {
        "coordinates": [
          45.13971,
          40.89784
        ],
        "type": "Point"
      }
    },
    {
      "type": "Feature",
      "properties": {
        "name": "Artsvaberd"
      },
      "geometry": {
        "coordinates": [
          45.47033,
          40.83947
        ],
        "type": "Point"
      }
    },
    {
      "type": "Feature",
      "properties": {
        "name": "Nor Yerznka"
      },
      "geometry": {
        "coordinates": [
          44.38892,
          40.30011
        ],
        "type": "Point"
      }
    },
    {
      "type": "Feature",
      "properties": {
        "name": "Sasunik"
      },
      "geometry": {
        "coordinates": [
          44.34448,
          40.25012
        ],
        "type": "Point"
      }
    },
    {
      "type": "Feature",
      "properties": {
        "name": "Kamaris"
      },
      "geometry": {
        "coordinates": [
          44.69459,
          40.23539
        ],
        "type": "Point"
      }
    },
    {
      "type": "Feature",
      "properties": {
        "name": "Gandzak"
      },
      "geometry": {
        "coordinates": [
          45.11139,
          40.31472
        ],
        "type": "Point"
      }
    },
    {
      "type": "Feature",
      "properties": {
        "name": "Myasnikyan"
      },
      "geometry": {
        "coordinates": [
          43.91949,
          40.18048
        ],
        "type": "Point"
      }
    },
    {
      "type": "Feature",
      "properties": {
        "name": "Lenughi"
      },
      "geometry": {
        "coordinates": [
          43.96393,
          40.12512
        ],
        "type": "Point"
      }
    },
    {
      "type": "Feature",
      "properties": {
        "name": "Metsamor"
      },
      "geometry": {
        "coordinates": [
          44.1167,
          40.14447
        ],
        "type": "Point"
      }
    },
    {
      "type": "Feature",
      "properties": {
        "name": "Gay"
      },
      "geometry": {
        "coordinates": [
          44.30528,
          40.08444
        ],
        "type": "Point"
      }
    },
    {
      "type": "Feature",
      "properties": {
        "name": "Baghramyan"
      },
      "geometry": {
        "coordinates": [
          44.36951,
          40.19452
        ],
        "type": "Point"
      }
    },
    {
      "type": "Feature",
      "properties": {
        "name": "Musalerr"
      },
      "geometry": {
        "coordinates": [
          44.37793,
          40.1557
        ],
        "type": "Point"
      }
    },
    {
      "type": "Feature",
      "properties": {
        "name": "Darakert"
      },
      "geometry": {
        "coordinates": [
          44.41388,
          40.10553
        ],
        "type": "Point"
      }
    },
    {
      "type": "Feature",
      "properties": {
        "name": "Dashtavan"
      },
      "geometry": {
        "coordinates": [
          44.39172,
          40.1001
        ],
        "type": "Point"
      }
    },
    {
      "type": "Feature",
      "properties": {
        "name": "Nizami"
      },
      "geometry": {
        "coordinates": [
          44.4057,
          40.09168
        ],
        "type": "Point"
      }
    },
    {
      "type": "Feature",
      "properties": {
        "name": "Artsvanist"
      },
      "geometry": {
        "coordinates": [
          45.51711,
          40.14617
        ],
        "type": "Point"
      }
    },
    {
      "type": "Feature",
      "properties": {
        "name": "Vardadzor"
      },
      "geometry": {
        "coordinates": [
          45.19212,
          40.18701
        ],
        "type": "Point"
      }
    },
    {
      "type": "Feature",
      "properties": {
        "name": "Taronik"
      },
      "geometry": {
        "coordinates": [
          44.19957,
          40.13367
        ],
        "type": "Point"
      }
    },
    {
      "type": "Feature",
      "properties": {
        "name": "Aknashen"
      },
      "geometry": {
        "coordinates": [
          44.28604,
          40.09551
        ],
        "type": "Point"
      }
    },
    {
      "type": "Feature",
      "properties": {
        "name": "Haykashen"
      },
      "geometry": {
        "coordinates": [
          44.30829,
          40.07233
        ],
        "type": "Point"
      }
    },
    {
      "type": "Feature",
      "properties": {
        "name": "Hovtashat"
      },
      "geometry": {
        "coordinates": [
          44.34448,
          40.09729
        ],
        "type": "Point"
      }
    },
    {
      "type": "Feature",
      "properties": {
        "name": "Sayat'-Nova"
      },
      "geometry": {
        "coordinates": [
          44.40008,
          40.07507
        ],
        "type": "Point"
      }
    },
    {
      "type": "Feature",
      "properties": {
        "name": "Voskehat"
      },
      "geometry": {
        "coordinates": [
          44.33069,
          40.14172
        ],
        "type": "Point"
      }
    },
    {
      "type": "Feature",
      "properties": {
        "name": "Griboyedov"
      },
      "geometry": {
        "coordinates": [
          44.27169,
          40.11307
        ],
        "type": "Point"
      }
    },
    {
      "type": "Feature",
      "properties": {
        "name": "Gmbet'"
      },
      "geometry": {
        "coordinates": [
          44.25409,
          40.22369
        ],
        "type": "Point"
      }
    },
    {
      "type": "Feature",
      "properties": {
        "name": "Aygek"
      },
      "geometry": {
        "coordinates": [
          44.38611,
          40.1889
        ],
        "type": "Point"
      }
    },
    {
      "type": "Feature",
      "properties": {
        "name": "Hovtashen"
      },
      "geometry": {
        "coordinates": [
          44.45007,
          40.02508
        ],
        "type": "Point"
      }
    },
    {
      "type": "Feature",
      "properties": {
        "name": "Dimitrov"
      },
      "geometry": {
        "coordinates": [
          44.4917,
          40.00848
        ],
        "type": "Point"
      }
    },
    {
      "type": "Feature",
      "properties": {
        "name": "Mrgavet"
      },
      "geometry": {
        "coordinates": [
          44.48328,
          40.02789
        ],
        "type": "Point"
      }
    },
    {
      "type": "Feature",
      "properties": {
        "name": "Arevabuyr"
      },
      "geometry": {
        "coordinates": [
          44.46948,
          40.03607
        ],
        "type": "Point"
      }
    }
  ]
}