{
  "type": "FeatureCollection",
  "features": [
    {
      "type": "Feature",
      "properties": {
        "name": "Yanbu"
      },
      "geometry": {
        "coordinates": [
          38.0618,
          24.08954
        ],
        "type": "Point"
      }
    },
    {
      "type": "Feature",
      "properties": {
        "name": "Umm Lajj"
      },
      "geometry": {
        "coordinates": [
          37.2685,
          25.02126
        ],
        "type": "Point"
      }
    },
    {
      "type": "Feature",
      "properties": {
        "name": "Umm as Sahik"
      },
      "geometry": {
        "coordinates": [
          49.91639,
          26.65361
        ],
        "type": "Point"
      }
    },
    {
      "type": "Feature",
      "properties": {
        "name": "Turaif"
      },
      "geometry": {
        "coordinates": [
          38.66374,
          31.67252
        ],
        "type": "Point"
      }
    },
    {
      "type": "Feature",
      "properties": {
        "name": "Turabah"
      },
      "geometry": {
        "coordinates": [
          41.6331,
          21.21406
        ],
        "type": "Point"
      }
    },
    {
      "type": "Feature",
      "properties": {
        "name": "At Tubi"
      },
      "geometry": {
        "coordinates": [
          49.99167,
          26.55778
        ],
        "type": "Point"
      }
    },
    {
      "type": "Feature",
      "properties": {
        "name": "Tarut"
      },
      "geometry": {
        "coordinates": [
          50.03694,
          26.57332
        ],
        "type": "Point"
      }
    },
    {
      "type": "Feature",
      "properties": {
        "name": "Tanumah"
      },
      "geometry": {
        "coordinates": [
          44.13333,
          27.1
        ],
        "type": "Point"
      }
    },
    {
      "type": "Feature",
      "properties": {
        "name": "Tabuk"
      },
      "geometry": {
        "coordinates": [
          36.57151,
          28.3998
        ],
        "type": "Point"
      }
    },
    {
      "type": "Feature",
      "properties": {
        "name": "Tubarjal"
      },
      "geometry": {
        "coordinates": [
          38.21603,
          30.49987
        ],
        "type": "Point"
      }
    },
    {
      "type": "Feature",
      "properties": {
        "name": "Tabalah"
      },
      "geometry": {
        "coordinates": [
          42.4,
          19.95
        ],
        "type": "Point"
      }
    },
    {
      "type": "Feature",
      "properties": {
        "name": "Sultanah"
      },
      "geometry": {
        "coordinates": [
          39.58572,
          24.49258
        ],
        "type": "Point"
      }
    },
    {
      "type": "Feature",
      "properties": {
        "name": "Sayhat"
      },
      "geometry": {
        "coordinates": [
          50.04046,
          26.48522
        ],
        "type": "Point"
      }
    },
    {
      "type": "Feature",
      "properties": {
        "name": "Samitah"
      },
      "geometry": {
        "coordinates": [
          42.94435,
          16.59601
        ],
        "type": "Point"
      }
    },
    {
      "type": "Feature",
      "properties": {
        "name": "Sakakah"
      },
      "geometry": {
        "coordinates": [
          40.20641,
          29.96974
        ],
        "type": "Point"
      }
    },
    {
      "type": "Feature",
      "properties": {
        "name": "Safwa"
      },
      "geometry": {
        "coordinates": [
          49.95223,
          26.64986
        ],
        "type": "Point"
      }
    },
    {
      "type": "Feature",
      "properties": {
        "name": "Sabya"
      },
      "geometry": {
        "coordinates": [
          42.62537,
          17.1495
        ],
        "type": "Point"
      }
    },
    {
      "type": "Feature",
      "properties": {
        "name": "Rahimah"
      },
      "geometry": {
        "coordinates": [
          50.06194,
          26.70791
        ],
        "type": "Point"
      }
    },
    {
      "type": "Feature",
      "properties": {
        "name": "Rabigh"
      },
      "geometry": {
        "coordinates": [
          39.03493,
          22.79856
        ],
        "type": "Point"
      }
    },
    {
      "type": "Feature",
      "properties": {
        "name": "Qal`at Bishah"
      },
      "geometry": {
        "coordinates": [
          42.6052,
          20.00054
        ],
        "type": "Point"
      }
    },
    {
      "type": "Feature",
      "properties": {
        "name": "Najran"
      },
      "geometry": {
        "coordinates": [
          44.12766,
          17.49326
        ],
        "type": "Point"
      }
    },
    {
      "type": "Feature",
      "properties": {
        "name": "Mulayjah"
      },
      "geometry": {
        "coordinates": [
          48.42419,
          27.27103
        ],
        "type": "Point"
      }
    },
    {
      "type": "Feature",
      "properties": {
        "name": "Misliyah"
      },
      "geometry": {
        "coordinates": [
          42.5572,
          17.45988
        ],
        "type": "Point"
      }
    },
    {
      "type": "Feature",
      "properties": {
        "name": "Marat"
      },
      "geometry": {
        "coordinates": [
          45.46147,
          25.07007
        ],
        "type": "Point"
      }
    },
    {
      "type": "Feature",
      "properties": {
        "name": "Mecca"
      },
      "geometry": {
        "coordinates": [
          39.82563,
          21.42664
        ],
        "type": "Point"
      }
    },
    {
      "type": "Feature",
      "properties": {
        "name": "Khamis Mushait"
      },
      "geometry": {
        "coordinates": [
          42.73333,
          18.3
        ],
        "type": "Point"
      }
    },
    {
      "type": "Feature",
      "properties": {
        "name": "Julayjilah"
      },
      "geometry": {
        "coordinates": [
          49.6,
          25.5
        ],
        "type": "Point"
      }
    },
    {
      "type": "Feature",
      "properties": {
        "name": "Jizan"
      },
      "geometry": {
        "coordinates": [
          42.55111,
          16.88917
        ],
        "type": "Point"
      }
    },
    {
      "type": "Feature",
      "properties": {
        "name": "Jeddah"
      },
      "geometry": {
        "coordinates": [
          39.19797,
          21.54238
        ],
        "type": "Point"
      }
    },
    {
      "type": "Feature",
      "properties": {
        "name": "Ha'il"
      },
      "geometry": {
        "coordinates": [
          41.69073,
          27.52188
        ],
        "type": "Point"
      }
    },
    {
      "type": "Feature",
      "properties": {
        "name": "Farasan"
      },
      "geometry": {
        "coordinates": [
          42.11833,
          16.70222
        ],
        "type": "Point"
      }
    },
    {
      "type": "Feature",
      "properties": {
        "name": "Duba"
      },
      "geometry": {
        "coordinates": [
          35.69014,
          27.35134
        ],
        "type": "Point"
      }
    },
    {
      "type": "Feature",
      "properties": {
        "name": "Buraydah"
      },
      "geometry": {
        "coordinates": [
          43.97497,
          26.32599
        ],
        "type": "Point"
      }
    },
    {
      "type": "Feature",
      "properties": {
        "name": "Abqaiq"
      },
      "geometry": {
        "coordinates": [
          49.67761,
          25.9371
        ],
        "type": "Point"
      }
    },
    {
      "type": "Feature",
      "properties": {
        "name": "Badr Hunayn"
      },
      "geometry": {
        "coordinates": [
          38.79047,
          23.78292
        ],
        "type": "Point"
      }
    },
    {
      "type": "Feature",
      "properties": {
        "name": "Az Zulfi"
      },
      "geometry": {
        "coordinates": [
          44.81542,
          26.29945
        ],
        "type": "Point"
      }
    },
    {
      "type": "Feature",
      "properties": {
        "name": "Dhahran"
      },
      "geometry": {
        "coordinates": [
          50.11396,
          26.28864
        ],
        "type": "Point"
      }
    },
    {
      "type": "Feature",
      "properties": {
        "name": "At Taraf"
      },
      "geometry": {
        "coordinates": [
          49.72504,
          25.36276
        ],
        "type": "Point"
      }
    },
    {
      "type": "Feature",
      "properties": {
        "name": "Ta'if"
      },
      "geometry": {
        "coordinates": [
          40.41583,
          21.27028
        ],
        "type": "Point"
      }
    },
    {
      "type": "Feature",
      "properties": {
        "name": "As Sulayyil"
      },
      "geometry": {
        "coordinates": [
          45.57792,
          20.46067
        ],
        "type": "Point"
      }
    },
    {
      "type": "Feature",
      "properties": {
        "name": "Sajir"
      },
      "geometry": {
        "coordinates": [
          44.59964,
          25.18251
        ],
        "type": "Point"
      }
    },
    {
      "type": "Feature",
      "properties": {
        "name": "As Saffaniyah"
      },
      "geometry": {
        "coordinates": [
          48.73,
          27.97083
        ],
        "type": "Point"
      }
    },
    {
      "type": "Feature",
      "properties": {
        "name": "Riyadh"
      },
      "geometry": {
        "coordinates": [
          46.72185,
          24.68773
        ],
        "type": "Point"
      }
    },
    {
      "type": "Feature",
      "properties": {
        "name": "Ar Rass"
      },
      "geometry": {
        "coordinates": [
          43.4973,
          25.86944
        ],
        "type": "Point"
      }
    },
    {
      "type": "Feature",
      "properties": {
        "name": "Arar"
      },
      "geometry": {
        "coordinates": [
          41.03808,
          30.97531
        ],
        "type": "Point"
      }
    },
    {
      "type": "Feature",
      "properties": {
        "name": "An Nimas"
      },
      "geometry": {
        "coordinates": [
          42.12009,
          19.14547
        ],
        "type": "Point"
      }
    },
    {
      "type": "Feature",
      "properties": {
        "name": "Qurayyat"
      },
      "geometry": {
        "coordinates": [
          37.34282,
          31.33176
        ],
        "type": "Point"
      }
    },
    {
      "type": "Feature",
      "properties": {
        "name": "Al Wajh"
      },
      "geometry": {
        "coordinates": [
          36.45249,
          26.24551
        ],
        "type": "Point"
      }
    },
    {
      "type": "Feature",
      "properties": {
        "name": "Al-`Ula"
      },
      "geometry": {
        "coordinates": [
          37.92316,
          26.60853
        ],
        "type": "Point"
      }
    },
    {
      "type": "Feature",
      "properties": {
        "name": "Al Qurayn"
      },
      "geometry": {
        "coordinates": [
          49.6,
          25.48333
        ],
        "type": "Point"
      }
    },
    {
      "type": "Feature",
      "properties": {
        "name": "Qaisumah"
      },
      "geometry": {
        "coordinates": [
          46.12729,
          28.31117
        ],
        "type": "Point"
      }
    },
    {
      "type": "Feature",
      "properties": {
        "name": "Al Qatif"
      },
      "geometry": {
        "coordinates": [
          50.02452,
          26.5208
        ],
        "type": "Point"
      }
    },
    {
      "type": "Feature",
      "properties": {
        "name": "Al Qarah"
      },
      "geometry": {
        "coordinates": [
          49.66667,
          25.41667
        ],
        "type": "Point"
      }
    },
    {
      "type": "Feature",
      "properties": {
        "name": "Al Mutayrifi"
      },
      "geometry": {
        "coordinates": [
          49.55763,
          25.47879
        ],
        "type": "Point"
      }
    },
    {
      "type": "Feature",
      "properties": {
        "name": "Al Munayzilah"
      },
      "geometry": {
        "coordinates": [
          49.66667,
          25.38333
        ],
        "type": "Point"
      }
    },
    {
      "type": "Feature",
      "properties": {
        "name": "Al Mubarraz"
      },
      "geometry": {
        "coordinates": [
          49.58083,
          25.41
        ],
        "type": "Point"
      }
    },
    {
      "type": "Feature",
      "properties": {
        "name": "Al Mindak"
      },
      "geometry": {
        "coordinates": [
          41.28337,
          20.1588
        ],
        "type": "Point"
      }
    },
    {
      "type": "Feature",
      "properties": {
        "name": "Al Mithnab"
      },
      "geometry": {
        "coordinates": [
          44.22228,
          25.86012
        ],
        "type": "Point"
      }
    },
    {
      "type": "Feature",
      "properties": {
        "name": "Al Markaz"
      },
      "geometry": {
        "coordinates": [
          49.73333,
          25.4
        ],
        "type": "Point"
      }
    },
    {
      "type": "Feature",
      "properties": {
        "name": "Medina"
      },
      "geometry": {
        "coordinates": [
          39.61417,
          24.46861
        ],
        "type": "Point"
      }
    },
    {
      "type": "Feature",
      "properties": {
        "name": "Khobar"
      },
      "geometry": {
        "coordinates": [
          50.20833,
          26.27944
        ],
        "type": "Point"
      }
    },
    {
      "type": "Feature",
      "properties": {
        "name": "Al Khafji"
      },
      "geometry": {
        "coordinates": [
          48.49132,
          28.43905
        ],
        "type": "Point"
      }
    },
    {
      "type": "Feature",
      "properties": {
        "name": "Al Jumum"
      },
      "geometry": {
        "coordinates": [
          39.69806,
          21.61694
        ],
        "type": "Point"
      }
    },
    {
      "type": "Feature",
      "properties": {
        "name": "Al Jubayl"
      },
      "geometry": {
        "coordinates": [
          49.65825,
          27.01122
        ],
        "type": "Point"
      }
    },
    {
      "type": "Feature",
      "properties": {
        "name": "Al Jubayl"
      },
      "geometry": {
        "coordinates": [
          49.65,
          25.4
        ],
        "type": "Point"
      }
    },
    {
      "type": "Feature",
      "properties": {
        "name": "Al Jaradiyah"
      },
      "geometry": {
        "coordinates": [
          42.9124,
          16.57946
        ],
        "type": "Point"
      }
    },
    {
      "type": "Feature",
      "properties": {
        "name": "Al Jafr"
      },
      "geometry": {
        "coordinates": [
          49.72361,
          25.37694
        ],
        "type": "Point"
      }
    },
    {
      "type": "Feature",
      "properties": {
        "name": "Al Hufuf"
      },
      "geometry": {
        "coordinates": [
          49.56532,
          25.36457
        ],
        "type": "Point"
      }
    },
    {
      "type": "Feature",
      "properties": {
        "name": "Al Bukayriyah"
      },
      "geometry": {
        "coordinates": [
          43.65933,
          26.14422
        ],
        "type": "Point"
      }
    },
    {
      "type": "Feature",
      "properties": {
        "name": "Al Battaliyah"
      },
      "geometry": {
        "coordinates": [
          49.63333,
          25.43333
        ],
        "type": "Point"
      }
    },
    {
      "type": "Feature",
      "properties": {
        "name": "Al Bahah"
      },
      "geometry": {
        "coordinates": [
          41.46767,
          20.01288
        ],
        "type": "Point"
      }
    },
    {
      "type": "Feature",
      "properties": {
        "name": "Al Artawiyah"
      },
      "geometry": {
        "coordinates": [
          45.34437,
          26.50526
        ],
        "type": "Point"
      }
    },
    {
      "type": "Feature",
      "properties": {
        "name": "Al Awjam"
      },
      "geometry": {
        "coordinates": [
          49.94331,
          26.56324
        ],
        "type": "Point"
      }
    },
    {
      "type": "Feature",
      "properties": {
        "name": "`Afif"
      },
      "geometry": {
        "coordinates": [
          42.91724,
          23.9065
        ],
        "type": "Point"
      }
    },
    {
      "type": "Feature",
      "properties": {
        "name": "Ad Dilam"
      },
      "geometry": {
        "coordinates": [
          47.16181,
          23.99104
        ],
        "type": "Point"
      }
    },
    {
      "type": "Feature",
      "properties": {
        "name": "Ad Dawadimi"
      },
      "geometry": {
        "coordinates": [
          44.39237,
          24.50772
        ],
        "type": "Point"
      }
    },
    {
      "type": "Feature",
      "properties": {
        "name": "Ad Darb"
      },
      "geometry": {
        "coordinates": [
          42.25261,
          17.72285
        ],
        "type": "Point"
      }
    },
    {
      "type": "Feature",
      "properties": {
        "name": "Dammam"
      },
      "geometry": {
        "coordinates": [
          50.10326,
          26.43442
        ],
        "type": "Point"
      }
    },
    {
      "type": "Feature",
      "properties": {
        "name": "Abu `Arish"
      },
      "geometry": {
        "coordinates": [
          42.83251,
          16.96887
        ],
        "type": "Point"
      }
    },
    {
      "type": "Feature",
      "properties": {
        "name": "Abha"
      },
      "geometry": {
        "coordinates": [
          42.50528,
          18.21639
        ],
        "type": "Point"
      }
    },
    {
      "type": "Feature",
      "properties": {
        "name": "Hajrat al Khinbish"
      },
      "geometry": {
        "coordinates": [
          45.03675,
          27.78248
        ],
        "type": "Point"
      }
    },
    {
      "type": "Feature",
      "properties": {
        "name": "Suwayr"
      },
      "geometry": {
        "coordinates": [
          40.38925,
          30.11713
        ],
        "type": "Point"
      }
    },
    {
      "type": "Feature",
      "properties": {
        "name": "Tumayr"
      },
      "geometry": {
        "coordinates": [
          45.86796,
          25.70393
        ],
        "type": "Point"
      }
    },
    {
      "type": "Feature",
      "properties": {
        "name": "Al Fuwayliq"
      },
      "geometry": {
        "coordinates": [
          43.2534,
          26.44322
        ],
        "type": "Point"
      }
    },
    {
      "type": "Feature",
      "properties": {
        "name": "Al Majaridah"
      },
      "geometry": {
        "coordinates": [
          41.91111,
          19.12361
        ],
        "type": "Point"
      }
    },
    {
      "type": "Feature",
      "properties": {
        "name": "Al Muwayh"
      },
      "geometry": {
        "coordinates": [
          41.75829,
          22.43333
        ],
        "type": "Point"
      }
    },
    {
      "type": "Feature",
      "properties": {
        "name": "Al Hada"
      },
      "geometry": {
        "coordinates": [
          40.28694,
          21.36753
        ],
        "type": "Point"
      }
    },
    {
      "type": "Feature",
      "properties": {
        "name": "Ash Shafa"
      },
      "geometry": {
        "coordinates": [
          40.31185,
          21.0721
        ],
        "type": "Point"
      }
    },
    {
      "type": "Feature",
      "properties": {
        "name": "Mizhirah"
      },
      "geometry": {
        "coordinates": [
          42.73333,
          16.82611
        ],
        "type": "Point"
      }
    },
    {
      "type": "Feature",
      "properties": {
        "name": "shokhaib"
      },
      "geometry": {
        "coordinates": [
          46.26871,
          24.49023
        ],
        "type": "Point"
      }
    },
    {
      "type": "Feature",
      "properties": {
        "name": "Unaizah"
      },
      "geometry": {
        "coordinates": [
          43.99355,
          26.08427
        ],
        "type": "Point"
      }
    },
    {
      "type": "Feature",
      "properties": {
        "name": "Al-Medy Village, qryt almdy"
      },
      "geometry": {
        "coordinates": [
          43.79178,
          14.40152
        ],
        "type": "Point"
      }
    }
  ]
}