{
  "type": "FeatureCollection",
  "features": [
    {
      "type": "Feature",
      "properties": {
        "name": "Ravon"
      },
      "geometry": {
        "coordinates": [
          71.13467,
          39.97724
        ],
        "type": "Point"
      }
    },
    {
      "type": "Feature",
      "properties": {
        "name": "Zafar"
      },
      "geometry": {
        "coordinates": [
          68.9,
          40.98333
        ],
        "type": "Point"
      }
    },
    {
      "type": "Feature",
      "properties": {
        "name": "Yozyovon"
      },
      "geometry": {
        "coordinates": [
          71.74361,
          40.66139
        ],
        "type": "Point"
      }
    },
    {
      "type": "Feature",
      "properties": {
        "name": "Yaypan"
      },
      "geometry": {
        "coordinates": [
          70.81556,
          40.37583
        ],
        "type": "Point"
      }
    },
    {
      "type": "Feature",
      "properties": {
        "name": "Yangiyul"
      },
      "geometry": {
        "coordinates": [
          69.0471,
          41.11202
        ],
        "type": "Point"
      }
    },
    {
      "type": "Feature",
      "properties": {
        "name": "Yangiyer"
      },
      "geometry": {
        "coordinates": [
          68.8225,
          40.275
        ],
        "type": "Point"
      }
    },
    {
      "type": "Feature",
      "properties": {
        "name": "Yangiqo`rg`on"
      },
      "geometry": {
        "coordinates": [
          71.73333,
          41.18722
        ],
        "type": "Point"
      }
    },
    {
      "type": "Feature",
      "properties": {
        "name": "Yangiqo`rg`on"
      },
      "geometry": {
        "coordinates": [
          71.14667,
          40.55389
        ],
        "type": "Point"
      }
    },
    {
      "type": "Feature",
      "properties": {
        "name": "Yangiobod"
      },
      "geometry": {
        "coordinates": [
          70.09406,
          41.11919
        ],
        "type": "Point"
      }
    },
    {
      "type": "Feature",
      "properties": {
        "name": "Vodil"
      },
      "geometry": {
        "coordinates": [
          71.73013,
          40.17424
        ],
        "type": "Point"
      }
    },
    {
      "type": "Feature",
      "properties": {
        "name": "Uychi"
      },
      "geometry": {
        "coordinates": [
          71.92331,
          41.08073
        ],
        "type": "Point"
      }
    },
    {
      "type": "Feature",
      "properties": {
        "name": "Urtaowul"
      },
      "geometry": {
        "coordinates": [
          69.14528,
          41.18667
        ],
        "type": "Point"
      }
    },
    {
      "type": "Feature",
      "properties": {
        "name": "Dashtobod"
      },
      "geometry": {
        "coordinates": [
          68.49444,
          40.12694
        ],
        "type": "Point"
      }
    },
    {
      "type": "Feature",
      "properties": {
        "name": "Uchqurghon Shahri"
      },
      "geometry": {
        "coordinates": [
          72.07915,
          41.11371
        ],
        "type": "Point"
      }
    },
    {
      "type": "Feature",
      "properties": {
        "name": "Uchko`prik"
      },
      "geometry": {
        "coordinates": [
          71.06083,
          40.54222
        ],
        "type": "Point"
      }
    },
    {
      "type": "Feature",
      "properties": {
        "name": "Tuytepa"
      },
      "geometry": {
        "coordinates": [
          69.36253,
          41.0321
        ],
        "type": "Point"
      }
    },
    {
      "type": "Feature",
      "properties": {
        "name": "To`rqao`rg`on"
      },
      "geometry": {
        "coordinates": [
          71.51162,
          40.99984
        ],
        "type": "Point"
      }
    },
    {
      "type": "Feature",
      "properties": {
        "name": "Toshloq"
      },
      "geometry": {
        "coordinates": [
          71.76778,
          40.47722
        ],
        "type": "Point"
      }
    },
    {
      "type": "Feature",
      "properties": {
        "name": "Tashkent"
      },
      "geometry": {
        "coordinates": [
          69.21627,
          41.26465
        ],
        "type": "Point"
      }
    },
    {
      "type": "Feature",
      "properties": {
        "name": "Toshbuloq"
      },
      "geometry": {
        "coordinates": [
          71.57819,
          40.91617
        ],
        "type": "Point"
      }
    },
    {
      "type": "Feature",
      "properties": {
        "name": "Sirdaryo"
      },
      "geometry": {
        "coordinates": [
          68.66167,
          40.84361
        ],
        "type": "Point"
      }
    },
    {
      "type": "Feature",
      "properties": {
        "name": "Shahrixon"
      },
      "geometry": {
        "coordinates": [
          72.05706,
          40.71331
        ],
        "type": "Point"
      }
    },
    {
      "type": "Feature",
      "properties": {
        "name": "Salor"
      },
      "geometry": {
        "coordinates": [
          69.38167,
          41.37222
        ],
        "type": "Point"
      }
    },
    {
      "type": "Feature",
      "properties": {
        "name": "Rishton"
      },
      "geometry": {
        "coordinates": [
          71.28472,
          40.35667
        ],
        "type": "Point"
      }
    },
    {
      "type": "Feature",
      "properties": {
        "name": "Qo`qon"
      },
      "geometry": {
        "coordinates": [
          70.9425,
          40.52861
        ],
        "type": "Point"
      }
    },
    {
      "type": "Feature",
      "properties": {
        "name": "Piskent"
      },
      "geometry": {
        "coordinates": [
          69.35056,
          40.89722
        ],
        "type": "Point"
      }
    },
    {
      "type": "Feature",
      "properties": {
        "name": "Poytug`"
      },
      "geometry": {
        "coordinates": [
          72.2449,
          40.8977
        ],
        "type": "Point"
      }
    },
    {
      "type": "Feature",
      "properties": {
        "name": "Parkent"
      },
      "geometry": {
        "coordinates": [
          69.67639,
          41.29444
        ],
        "type": "Point"
      }
    },
    {
      "type": "Feature",
      "properties": {
        "name": "Pop"
      },
      "geometry": {
        "coordinates": [
          71.10889,
          40.87361
        ],
        "type": "Point"
      }
    },
    {
      "type": "Feature",
      "properties": {
        "name": "Paxtaobod"
      },
      "geometry": {
        "coordinates": [
          72.49687,
          40.92936
        ],
        "type": "Point"
      }
    },
    {
      "type": "Feature",
      "properties": {
        "name": "Olmaliq"
      },
      "geometry": {
        "coordinates": [
          69.59833,
          40.84472
        ],
        "type": "Point"
      }
    },
    {
      "type": "Feature",
      "properties": {
        "name": "Ohangaron"
      },
      "geometry": {
        "coordinates": [
          69.63833,
          40.90639
        ],
        "type": "Point"
      }
    },
    {
      "type": "Feature",
      "properties": {
        "name": "Navbahor"
      },
      "geometry": {
        "coordinates": [
          70.77093,
          40.48104
        ],
        "type": "Point"
      }
    },
    {
      "type": "Feature",
      "properties": {
        "name": "Namangan"
      },
      "geometry": {
        "coordinates": [
          71.67257,
          40.9983
        ],
        "type": "Point"
      }
    },
    {
      "type": "Feature",
      "properties": {
        "name": "Marhamat"
      },
      "geometry": {
        "coordinates": [
          72.32646,
          40.50236
        ],
        "type": "Point"
      }
    },
    {
      "type": "Feature",
      "properties": {
        "name": "Marhamat"
      },
      "geometry": {
        "coordinates": [
          72.31388,
          40.48048
        ],
        "type": "Point"
      }
    },
    {
      "type": "Feature",
      "properties": {
        "name": "Marg`ilon"
      },
      "geometry": {
        "coordinates": [
          71.72463,
          40.47237
        ],
        "type": "Point"
      }
    },
    {
      "type": "Feature",
      "properties": {
        "name": "Asaka"
      },
      "geometry": {
        "coordinates": [
          72.23868,
          40.64153
        ],
        "type": "Point"
      }
    },
    {
      "type": "Feature",
      "properties": {
        "name": "Kuyganyor"
      },
      "geometry": {
        "coordinates": [
          72.30734,
          40.85444
        ],
        "type": "Point"
      }
    },
    {
      "type": "Feature",
      "properties": {
        "name": "Qo`rg`ontepa"
      },
      "geometry": {
        "coordinates": [
          72.76177,
          40.73192
        ],
        "type": "Point"
      }
    },
    {
      "type": "Feature",
      "properties": {
        "name": "Yangi Marg`ilon"
      },
      "geometry": {
        "coordinates": [
          71.71889,
          40.42722
        ],
        "type": "Point"
      }
    },
    {
      "type": "Feature",
      "properties": {
        "name": "Kirguli"
      },
      "geometry": {
        "coordinates": [
          71.76721,
          40.43553
        ],
        "type": "Point"
      }
    },
    {
      "type": "Feature",
      "properties": {
        "name": "Qibray"
      },
      "geometry": {
        "coordinates": [
          69.465,
          41.38972
        ],
        "type": "Point"
      }
    },
    {
      "type": "Feature",
      "properties": {
        "name": "Xo`jaobod"
      },
      "geometry": {
        "coordinates": [
          72.56002,
          40.66886
        ],
        "type": "Point"
      }
    },
    {
      "type": "Feature",
      "properties": {
        "name": "Hamza"
      },
      "geometry": {
        "coordinates": [
          71.50534,
          40.42762
        ],
        "type": "Point"
      }
    },
    {
      "type": "Feature",
      "properties": {
        "name": "Haqqulobod"
      },
      "geometry": {
        "coordinates": [
          72.11667,
          40.91667
        ],
        "type": "Point"
      }
    },
    {
      "type": "Feature",
      "properties": {
        "name": "Kosonsoy"
      },
      "geometry": {
        "coordinates": [
          71.54738,
          41.24944
        ],
        "type": "Point"
      }
    },
    {
      "type": "Feature",
      "properties": {
        "name": "Iskandar"
      },
      "geometry": {
        "coordinates": [
          69.70083,
          41.55389
        ],
        "type": "Point"
      }
    },
    {
      "type": "Feature",
      "properties": {
        "name": "Guliston"
      },
      "geometry": {
        "coordinates": [
          68.78417,
          40.48972
        ],
        "type": "Point"
      }
    },
    {
      "type": "Feature",
      "properties": {
        "name": "G'azalkent"
      },
      "geometry": {
        "coordinates": [
          69.77083,
          41.55806
        ],
        "type": "Point"
      }
    },
    {
      "type": "Feature",
      "properties": {
        "name": "Gagarin"
      },
      "geometry": {
        "coordinates": [
          68.17222,
          40.66194
        ],
        "type": "Point"
      }
    },
    {
      "type": "Feature",
      "properties": {
        "name": "Fergana"
      },
      "geometry": {
        "coordinates": [
          71.78432,
          40.38421
        ],
        "type": "Point"
      }
    },
    {
      "type": "Feature",
      "properties": {
        "name": "Amir Timur"
      },
      "geometry": {
        "coordinates": [
          68.94083,
          41.01944
        ],
        "type": "Point"
      }
    },
    {
      "type": "Feature",
      "properties": {
        "name": "Dustlik"
      },
      "geometry": {
        "coordinates": [
          68.03583,
          40.52472
        ],
        "type": "Point"
      }
    },
    {
      "type": "Feature",
      "properties": {
        "name": "Dang`ara"
      },
      "geometry": {
        "coordinates": [
          70.91444,
          40.58389
        ],
        "type": "Point"
      }
    },
    {
      "type": "Feature",
      "properties": {
        "name": "Chust Shahri"
      },
      "geometry": {
        "coordinates": [
          71.2287,
          41.00936
        ],
        "type": "Point"
      }
    },
    {
      "type": "Feature",
      "properties": {
        "name": "Chirchiq"
      },
      "geometry": {
        "coordinates": [
          69.58222,
          41.46889
        ],
        "type": "Point"
      }
    },
    {
      "type": "Feature",
      "properties": {
        "name": "Chinoz"
      },
      "geometry": {
        "coordinates": [
          68.76128,
          40.93633
        ],
        "type": "Point"
      }
    },
    {
      "type": "Feature",
      "properties": {
        "name": "Kyzyldzhar"
      },
      "geometry": {
        "coordinates": [
          70.01667,
          41.56667
        ],
        "type": "Point"
      }
    },
    {
      "type": "Feature",
      "properties": {
        "name": "Chortoq"
      },
      "geometry": {
        "coordinates": [
          71.82372,
          41.06924
        ],
        "type": "Point"
      }
    },
    {
      "type": "Feature",
      "properties": {
        "name": "Buloqboshi"
      },
      "geometry": {
        "coordinates": [
          72.50212,
          40.62907
        ],
        "type": "Point"
      }
    },
    {
      "type": "Feature",
      "properties": {
        "name": "Bo`ka"
      },
      "geometry": {
        "coordinates": [
          69.19417,
          40.81108
        ],
        "type": "Point"
      }
    },
    {
      "type": "Feature",
      "properties": {
        "name": "Beshariq"
      },
      "geometry": {
        "coordinates": [
          70.61028,
          40.43583
        ],
        "type": "Point"
      }
    },
    {
      "type": "Feature",
      "properties": {
        "name": "Bektemir"
      },
      "geometry": {
        "coordinates": [
          69.33417,
          41.20972
        ],
        "type": "Point"
      }
    },
    {
      "type": "Feature",
      "properties": {
        "name": "Bekobod"
      },
      "geometry": {
        "coordinates": [
          69.26972,
          40.22083
        ],
        "type": "Point"
      }
    },
    {
      "type": "Feature",
      "properties": {
        "name": "Baliqchi"
      },
      "geometry": {
        "coordinates": [
          71.84737,
          40.90499
        ],
        "type": "Point"
      }
    },
    {
      "type": "Feature",
      "properties": {
        "name": "Bag`dod"
      },
      "geometry": {
        "coordinates": [
          71.21222,
          40.46306
        ],
        "type": "Point"
      }
    },
    {
      "type": "Feature",
      "properties": {
        "name": "Angren"
      },
      "geometry": {
        "coordinates": [
          70.14361,
          41.01667
        ],
        "type": "Point"
      }
    },
    {
      "type": "Feature",
      "properties": {
        "name": "Andijon"
      },
      "geometry": {
        "coordinates": [
          72.34424,
          40.78206
        ],
        "type": "Point"
      }
    },
    {
      "type": "Feature",
      "properties": {
        "name": "Oltinko`l"
      },
      "geometry": {
        "coordinates": [
          72.17306,
          40.80104
        ],
        "type": "Point"
      }
    },
    {
      "type": "Feature",
      "properties": {
        "name": "Oltiariq"
      },
      "geometry": {
        "coordinates": [
          71.47417,
          40.39194
        ],
        "type": "Point"
      }
    },
    {
      "type": "Feature",
      "properties": {
        "name": "Oxunboboyev"
      },
      "geometry": {
        "coordinates": [
          72.64282,
          40.71984
        ],
        "type": "Point"
      }
    },
    {
      "type": "Feature",
      "properties": {
        "name": "Oqoltin"
      },
      "geometry": {
        "coordinates": [
          71.70031,
          40.74649
        ],
        "type": "Point"
      }
    },
    {
      "type": "Feature",
      "properties": {
        "name": "Quva"
      },
      "geometry": {
        "coordinates": [
          72.07292,
          40.52204
        ],
        "type": "Point"
      }
    },
    {
      "type": "Feature",
      "properties": {
        "name": "Kosonsoy Shahri"
      },
      "geometry": {
        "coordinates": [
          71.54239,
          41.26327
        ],
        "type": "Point"
      }
    },
    {
      "type": "Feature",
      "properties": {
        "name": "Chortoq Shahri"
      },
      "geometry": {
        "coordinates": [
          71.81772,
          41.07703
        ],
        "type": "Point"
      }
    },
    {
      "type": "Feature",
      "properties": {
        "name": "Haqqulobod"
      },
      "geometry": {
        "coordinates": [
          72.12058,
          40.91634
        ],
        "type": "Point"
      }
    },
    {
      "type": "Feature",
      "properties": {
        "name": "Pop Shahri"
      },
      "geometry": {
        "coordinates": [
          71.1022,
          40.87642
        ],
        "type": "Point"
      }
    },
    {
      "type": "Feature",
      "properties": {
        "name": "Turagurghon Shahri"
      },
      "geometry": {
        "coordinates": [
          71.51056,
          41.00334
        ],
        "type": "Point"
      }
    },
    {
      "type": "Feature",
      "properties": {
        "name": "Langar"
      },
      "geometry": {
        "coordinates": [
          71.66015,
          40.5205
        ],
        "type": "Point"
      }
    }
  ]
}