{
  "type": "FeatureCollection",
  "features": [
    {
      "type": "Feature",
      "properties": {
        "name": "Ziezmariai"
      },
      "geometry": {
        "coordinates": [
          24.44073,
          54.80725
        ],
        "type": "Point"
      }
    },
    {
      "type": "Feature",
      "properties": {
        "name": "Zemaiciu Naumiestis"
      },
      "geometry": {
        "coordinates": [
          21.70364,
          55.35941
        ],
        "type": "Point"
      }
    },
    {
      "type": "Feature",
      "properties": {
        "name": "Zarasai"
      },
      "geometry": {
        "coordinates": [
          26.25115,
          55.73225
        ],
        "type": "Point"
      }
    },
    {
      "type": "Feature",
      "properties": {
        "name": "Zagare"
      },
      "geometry": {
        "coordinates": [
          23.25094,
          56.36149
        ],
        "type": "Point"
      }
    },
    {
      "type": "Feature",
      "properties": {
        "name": "Visaginas"
      },
      "geometry": {
        "coordinates": [
          26.43984,
          55.59678
        ],
        "type": "Point"
      }
    },
    {
      "type": "Feature",
      "properties": {
        "name": "Virbalis"
      },
      "geometry": {
        "coordinates": [
          22.82272,
          54.62858
        ],
        "type": "Point"
      }
    },
    {
      "type": "Feature",
      "properties": {
        "name": "Vilnius"
      },
      "geometry": {
        "coordinates": [
          25.2798,
          54.68916
        ],
        "type": "Point"
      }
    },
    {
      "type": "Feature",
      "properties": {
        "name": "Vilkija"
      },
      "geometry": {
        "coordinates": [
          23.58552,
          55.04609
        ],
        "type": "Point"
      }
    },
    {
      "type": "Feature",
      "properties": {
        "name": "Vilkaviskis"
      },
      "geometry": {
        "coordinates": [
          23.03222,
          54.65167
        ],
        "type": "Point"
      }
    },
    {
      "type": "Feature",
      "properties": {
        "name": "Vievis"
      },
      "geometry": {
        "coordinates": [
          24.8,
          54.76667
        ],
        "type": "Point"
      }
    },
    {
      "type": "Feature",
      "properties": {
        "name": "Vieksniai"
      },
      "geometry": {
        "coordinates": [
          22.51667,
          56.23598
        ],
        "type": "Point"
      }
    },
    {
      "type": "Feature",
      "properties": {
        "name": "Venta"
      },
      "geometry": {
        "coordinates": [
          22.69528,
          56.19162
        ],
        "type": "Point"
      }
    },
    {
      "type": "Feature",
      "properties": {
        "name": "Veisiejai"
      },
      "geometry": {
        "coordinates": [
          23.69614,
          54.1011
        ],
        "type": "Point"
      }
    },
    {
      "type": "Feature",
      "properties": {
        "name": "Varniai"
      },
      "geometry": {
        "coordinates": [
          22.37251,
          55.74435
        ],
        "type": "Point"
      }
    },
    {
      "type": "Feature",
      "properties": {
        "name": "Varena"
      },
      "geometry": {
        "coordinates": [
          24.57538,
          54.21546
        ],
        "type": "Point"
      }
    },
    {
      "type": "Feature",
      "properties": {
        "name": "Vabalninkas"
      },
      "geometry": {
        "coordinates": [
          24.74828,
          55.98151
        ],
        "type": "Point"
      }
    },
    {
      "type": "Feature",
      "properties": {
        "name": "Utena"
      },
      "geometry": {
        "coordinates": [
          25.59918,
          55.49764
        ],
        "type": "Point"
      }
    },
    {
      "type": "Feature",
      "properties": {
        "name": "Ukmerge"
      },
      "geometry": {
        "coordinates": [
          24.75,
          55.25
        ],
        "type": "Point"
      }
    },
    {
      "type": "Feature",
      "properties": {
        "name": "Tytuveneliai"
      },
      "geometry": {
        "coordinates": [
          23.17162,
          55.62345
        ],
        "type": "Point"
      }
    },
    {
      "type": "Feature",
      "properties": {
        "name": "Trakai"
      },
      "geometry": {
        "coordinates": [
          24.93433,
          54.63783
        ],
        "type": "Point"
      }
    },
    {
      "type": "Feature",
      "properties": {
        "name": "Telsiai"
      },
      "geometry": {
        "coordinates": [
          22.24722,
          55.98139
        ],
        "type": "Point"
      }
    },
    {
      "type": "Feature",
      "properties": {
        "name": "Taurage"
      },
      "geometry": {
        "coordinates": [
          22.28972,
          55.25222
        ],
        "type": "Point"
      }
    },
    {
      "type": "Feature",
      "properties": {
        "name": "Sventoji"
      },
      "geometry": {
        "coordinates": [
          21.08411,
          56.0261
        ],
        "type": "Point"
      }
    },
    {
      "type": "Feature",
      "properties": {
        "name": "Svencionys"
      },
      "geometry": {
        "coordinates": [
          26.159,
          55.135
        ],
        "type": "Point"
      }
    },
    {
      "type": "Feature",
      "properties": {
        "name": "Svencioneliai"
      },
      "geometry": {
        "coordinates": [
          26.00177,
          55.16163
        ],
        "type": "Point"
      }
    },
    {
      "type": "Feature",
      "properties": {
        "name": "Skuodas"
      },
      "geometry": {
        "coordinates": [
          21.53208,
          56.27057
        ],
        "type": "Point"
      }
    },
    {
      "type": "Feature",
      "properties": {
        "name": "Bugai"
      },
      "geometry": {
        "coordinates": [
          22.60894,
          55.41387
        ],
        "type": "Point"
      }
    },
    {
      "type": "Feature",
      "properties": {
        "name": "Skaidiskes"
      },
      "geometry": {
        "coordinates": [
          25.39573,
          54.61398
        ],
        "type": "Point"
      }
    },
    {
      "type": "Feature",
      "properties": {
        "name": "Sirvintos"
      },
      "geometry": {
        "coordinates": [
          24.95446,
          55.044
        ],
        "type": "Point"
      }
    },
    {
      "type": "Feature",
      "properties": {
        "name": "Simnas"
      },
      "geometry": {
        "coordinates": [
          23.646,
          54.382
        ],
        "type": "Point"
      }
    },
    {
      "type": "Feature",
      "properties": {
        "name": "Silute"
      },
      "geometry": {
        "coordinates": [
          21.48306,
          55.34889
        ],
        "type": "Point"
      }
    },
    {
      "type": "Feature",
      "properties": {
        "name": "Silale"
      },
      "geometry": {
        "coordinates": [
          22.18692,
          55.4898
        ],
        "type": "Point"
      }
    },
    {
      "type": "Feature",
      "properties": {
        "name": "Siauliai"
      },
      "geometry": {
        "coordinates": [
          23.31667,
          55.93333
        ],
        "type": "Point"
      }
    },
    {
      "type": "Feature",
      "properties": {
        "name": "Senieji Trakai"
      },
      "geometry": {
        "coordinates": [
          24.98,
          54.609
        ],
        "type": "Point"
      }
    },
    {
      "type": "Feature",
      "properties": {
        "name": "Seduva"
      },
      "geometry": {
        "coordinates": [
          23.7561,
          55.7493
        ],
        "type": "Point"
      }
    },
    {
      "type": "Feature",
      "properties": {
        "name": "Seda"
      },
      "geometry": {
        "coordinates": [
          22.09071,
          56.16854
        ],
        "type": "Point"
      }
    },
    {
      "type": "Feature",
      "properties": {
        "name": "Sargenai"
      },
      "geometry": {
        "coordinates": [
          23.88316,
          54.94933
        ],
        "type": "Point"
      }
    },
    {
      "type": "Feature",
      "properties": {
        "name": "Salcininkai"
      },
      "geometry": {
        "coordinates": [
          25.38677,
          54.30864
        ],
        "type": "Point"
      }
    },
    {
      "type": "Feature",
      "properties": {
        "name": "Salantai"
      },
      "geometry": {
        "coordinates": [
          21.5689,
          56.0565
        ],
        "type": "Point"
      }
    },
    {
      "type": "Feature",
      "properties": {
        "name": "Sakiai"
      },
      "geometry": {
        "coordinates": [
          23.04779,
          54.95339
        ],
        "type": "Point"
      }
    },
    {
      "type": "Feature",
      "properties": {
        "name": "Rusne"
      },
      "geometry": {
        "coordinates": [
          21.3712,
          55.2982
        ],
        "type": "Point"
      }
    },
    {
      "type": "Feature",
      "properties": {
        "name": "Rudiskes"
      },
      "geometry": {
        "coordinates": [
          24.83084,
          54.51609
        ],
        "type": "Point"
      }
    },
    {
      "type": "Feature",
      "properties": {
        "name": "Rokiskis"
      },
      "geometry": {
        "coordinates": [
          25.59466,
          55.95867
        ],
        "type": "Point"
      }
    },
    {
      "type": "Feature",
      "properties": {
        "name": "Rietavas"
      },
      "geometry": {
        "coordinates": [
          21.92343,
          55.72708
        ],
        "type": "Point"
      }
    },
    {
      "type": "Feature",
      "properties": {
        "name": "Raseiniai"
      },
      "geometry": {
        "coordinates": [
          23.12386,
          55.37973
        ],
        "type": "Point"
      }
    },
    {
      "type": "Feature",
      "properties": {
        "name": "Ramygala"
      },
      "geometry": {
        "coordinates": [
          24.3,
          55.514
        ],
        "type": "Point"
      }
    },
    {
      "type": "Feature",
      "properties": {
        "name": "Ramuciai"
      },
      "geometry": {
        "coordinates": [
          24.0305,
          54.9483
        ],
        "type": "Point"
      }
    },
    {
      "type": "Feature",
      "properties": {
        "name": "Radviliskis"
      },
      "geometry": {
        "coordinates": [
          23.53333,
          55.81667
        ],
        "type": "Point"
      }
    },
    {
      "type": "Feature",
      "properties": {
        "name": "Prienai"
      },
      "geometry": {
        "coordinates": [
          23.94585,
          54.636
        ],
        "type": "Point"
      }
    },
    {
      "type": "Feature",
      "properties": {
        "name": "Priekule"
      },
      "geometry": {
        "coordinates": [
          21.31903,
          55.55427
        ],
        "type": "Point"
      }
    },
    {
      "type": "Feature",
      "properties": {
        "name": "Plunge"
      },
      "geometry": {
        "coordinates": [
          21.84417,
          55.91139
        ],
        "type": "Point"
      }
    },
    {
      "type": "Feature",
      "properties": {
        "name": "Plateliai"
      },
      "geometry": {
        "coordinates": [
          21.81615,
          56.04657
        ],
        "type": "Point"
      }
    },
    {
      "type": "Feature",
      "properties": {
        "name": "Pasvalys"
      },
      "geometry": {
        "coordinates": [
          24.40361,
          56.05944
        ],
        "type": "Point"
      }
    },
    {
      "type": "Feature",
      "properties": {
        "name": "Panevezys"
      },
      "geometry": {
        "coordinates": [
          24.35,
          55.73333
        ],
        "type": "Point"
      }
    },
    {
      "type": "Feature",
      "properties": {
        "name": "Palanga"
      },
      "geometry": {
        "coordinates": [
          21.06861,
          55.9175
        ],
        "type": "Point"
      }
    },
    {
      "type": "Feature",
      "properties": {
        "name": "Pakruojis"
      },
      "geometry": {
        "coordinates": [
          23.85508,
          55.97889
        ],
        "type": "Point"
      }
    },
    {
      "type": "Feature",
      "properties": {
        "name": "Pagegiai"
      },
      "geometry": {
        "coordinates": [
          21.91378,
          55.13793
        ],
        "type": "Point"
      }
    },
    {
      "type": "Feature",
      "properties": {
        "name": "Pabrade"
      },
      "geometry": {
        "coordinates": [
          25.761,
          54.981
        ],
        "type": "Point"
      }
    },
    {
      "type": "Feature",
      "properties": {
        "name": "Fabijoniskes"
      },
      "geometry": {
        "coordinates": [
          25.24167,
          54.73333
        ],
        "type": "Point"
      }
    },
    {
      "type": "Feature",
      "properties": {
        "name": "Obeliai"
      },
      "geometry": {
        "coordinates": [
          25.15648,
          55.96895
        ],
        "type": "Point"
      }
    },
    {
      "type": "Feature",
      "properties": {
        "name": "Nida"
      },
      "geometry": {
        "coordinates": [
          20.99651,
          55.3086
        ],
        "type": "Point"
      }
    },
    {
      "type": "Feature",
      "properties": {
        "name": "Neringa"
      },
      "geometry": {
        "coordinates": [
          21.06472,
          55.37194
        ],
        "type": "Point"
      }
    },
    {
      "type": "Feature",
      "properties": {
        "name": "Nemencine"
      },
      "geometry": {
        "coordinates": [
          25.46992,
          54.84776
        ],
        "type": "Point"
      }
    },
    {
      "type": "Feature",
      "properties": {
        "name": "Naujoji Akmene"
      },
      "geometry": {
        "coordinates": [
          22.9,
          56.31667
        ],
        "type": "Point"
      }
    },
    {
      "type": "Feature",
      "properties": {
        "name": "Moletai"
      },
      "geometry": {
        "coordinates": [
          25.41688,
          55.22469
        ],
        "type": "Point"
      }
    },
    {
      "type": "Feature",
      "properties": {
        "name": "Mazeikiai"
      },
      "geometry": {
        "coordinates": [
          22.33333,
          56.31667
        ],
        "type": "Point"
      }
    },
    {
      "type": "Feature",
      "properties": {
        "name": "Marijampole"
      },
      "geometry": {
        "coordinates": [
          23.35412,
          54.55991
        ],
        "type": "Point"
      }
    },
    {
      "type": "Feature",
      "properties": {
        "name": "Linkuva"
      },
      "geometry": {
        "coordinates": [
          23.97061,
          56.08596
        ],
        "type": "Point"
      }
    },
    {
      "type": "Feature",
      "properties": {
        "name": "Lentvaris"
      },
      "geometry": {
        "coordinates": [
          25.05162,
          54.64364
        ],
        "type": "Point"
      }
    },
    {
      "type": "Feature",
      "properties": {
        "name": "Lazdijai"
      },
      "geometry": {
        "coordinates": [
          23.51466,
          54.23326
        ],
        "type": "Point"
      }
    },
    {
      "type": "Feature",
      "properties": {
        "name": "Kybartai"
      },
      "geometry": {
        "coordinates": [
          22.76316,
          54.63858
        ],
        "type": "Point"
      }
    },
    {
      "type": "Feature",
      "properties": {
        "name": "Kursenai"
      },
      "geometry": {
        "coordinates": [
          22.93662,
          56.00318
        ],
        "type": "Point"
      }
    },
    {
      "type": "Feature",
      "properties": {
        "name": "Kupiskis"
      },
      "geometry": {
        "coordinates": [
          24.96667,
          55.83333
        ],
        "type": "Point"
      }
    },
    {
      "type": "Feature",
      "properties": {
        "name": "Kulautuva"
      },
      "geometry": {
        "coordinates": [
          23.64218,
          54.94212
        ],
        "type": "Point"
      }
    },
    {
      "type": "Feature",
      "properties": {
        "name": "Kudirkos Naumiestis"
      },
      "geometry": {
        "coordinates": [
          22.86138,
          54.77353
        ],
        "type": "Point"
      }
    },
    {
      "type": "Feature",
      "properties": {
        "name": "Kretinga"
      },
      "geometry": {
        "coordinates": [
          21.24448,
          55.8888
        ],
        "type": "Point"
      }
    },
    {
      "type": "Feature",
      "properties": {
        "name": "Klaipeda"
      },
      "geometry": {
        "coordinates": [
          21.14312,
          55.70888
        ],
        "type": "Point"
      }
    },
    {
      "type": "Feature",
      "properties": {
        "name": "Kelme"
      },
      "geometry": {
        "coordinates": [
          22.9349,
          55.63009
        ],
        "type": "Point"
      }
    },
    {
      "type": "Feature",
      "properties": {
        "name": "Kedainiai"
      },
      "geometry": {
        "coordinates": [
          23.97275,
          55.28782
        ],
        "type": "Point"
      }
    },
    {
      "type": "Feature",
      "properties": {
        "name": "Kazlu Ruda"
      },
      "geometry": {
        "coordinates": [
          23.49,
          54.749
        ],
        "type": "Point"
      }
    },
    {
      "type": "Feature",
      "properties": {
        "name": "Kaunas"
      },
      "geometry": {
        "coordinates": [
          23.90961,
          54.90272
        ],
        "type": "Point"
      }
    },
    {
      "type": "Feature",
      "properties": {
        "name": "Karmelava"
      },
      "geometry": {
        "coordinates": [
          24.06182,
          54.97055
        ],
        "type": "Point"
      }
    },
    {
      "type": "Feature",
      "properties": {
        "name": "Kalvarija"
      },
      "geometry": {
        "coordinates": [
          23.223,
          54.417
        ],
        "type": "Point"
      }
    },
    {
      "type": "Feature",
      "properties": {
        "name": "Kaisiadorys"
      },
      "geometry": {
        "coordinates": [
          24.46815,
          54.86528
        ],
        "type": "Point"
      }
    },
    {
      "type": "Feature",
      "properties": {
        "name": "Jurbarkas"
      },
      "geometry": {
        "coordinates": [
          22.76416,
          55.07556
        ],
        "type": "Point"
      }
    },
    {
      "type": "Feature",
      "properties": {
        "name": "Juodupe"
      },
      "geometry": {
        "coordinates": [
          25.607,
          56.087
        ],
        "type": "Point"
      }
    },
    {
      "type": "Feature",
      "properties": {
        "name": "Joniskis"
      },
      "geometry": {
        "coordinates": [
          23.61541,
          56.23939
        ],
        "type": "Point"
      }
    },
    {
      "type": "Feature",
      "properties": {
        "name": "Jonava"
      },
      "geometry": {
        "coordinates": [
          24.28333,
          55.08333
        ],
        "type": "Point"
      }
    },
    {
      "type": "Feature",
      "properties": {
        "name": "Jieznas"
      },
      "geometry": {
        "coordinates": [
          24.17593,
          54.59937
        ],
        "type": "Point"
      }
    },
    {
      "type": "Feature",
      "properties": {
        "name": "Ignalina"
      },
      "geometry": {
        "coordinates": [
          26.16049,
          55.34063
        ],
        "type": "Point"
      }
    },
    {
      "type": "Feature",
      "properties": {
        "name": "Grigiskes"
      },
      "geometry": {
        "coordinates": [
          25.08333,
          54.68333
        ],
        "type": "Point"
      }
    },
    {
      "type": "Feature",
      "properties": {
        "name": "Gelgaudiskis"
      },
      "geometry": {
        "coordinates": [
          22.97699,
          55.07688
        ],
        "type": "Point"
      }
    },
    {
      "type": "Feature",
      "properties": {
        "name": "Garliava"
      },
      "geometry": {
        "coordinates": [
          23.8713,
          54.82139
        ],
        "type": "Point"
      }
    },
    {
      "type": "Feature",
      "properties": {
        "name": "Gargzdai"
      },
      "geometry": {
        "coordinates": [
          21.39441,
          55.70951
        ],
        "type": "Point"
      }
    },
    {
      "type": "Feature",
      "properties": {
        "name": "Ezerelis"
      },
      "geometry": {
        "coordinates": [
          23.60396,
          54.88315
        ],
        "type": "Point"
      }
    },
    {
      "type": "Feature",
      "properties": {
        "name": "Elektrenai"
      },
      "geometry": {
        "coordinates": [
          24.66302,
          54.78544
        ],
        "type": "Point"
      }
    },
    {
      "type": "Feature",
      "properties": {
        "name": "Eisiskes"
      },
      "geometry": {
        "coordinates": [
          24.99917,
          54.17414
        ],
        "type": "Point"
      }
    },
    {
      "type": "Feature",
      "properties": {
        "name": "Dukstas"
      },
      "geometry": {
        "coordinates": [
          26.321,
          55.522
        ],
        "type": "Point"
      }
    },
    {
      "type": "Feature",
      "properties": {
        "name": "Druskininkai"
      },
      "geometry": {
        "coordinates": [
          23.98703,
          54.01573
        ],
        "type": "Point"
      }
    },
    {
      "type": "Feature",
      "properties": {
        "name": "Daugai"
      },
      "geometry": {
        "coordinates": [
          24.33333,
          54.36667
        ],
        "type": "Point"
      }
    },
    {
      "type": "Feature",
      "properties": {
        "name": "Birzai"
      },
      "geometry": {
        "coordinates": [
          24.75,
          56.2
        ],
        "type": "Point"
      }
    },
    {
      "type": "Feature",
      "properties": {
        "name": "Birstonas"
      },
      "geometry": {
        "coordinates": [
          24.034,
          54.608
        ],
        "type": "Point"
      }
    },
    {
      "type": "Feature",
      "properties": {
        "name": "Baltoji Voke"
      },
      "geometry": {
        "coordinates": [
          25.19318,
          54.60002
        ],
        "type": "Point"
      }
    },
    {
      "type": "Feature",
      "properties": {
        "name": "Aukstadvaris"
      },
      "geometry": {
        "coordinates": [
          24.52683,
          54.57946
        ],
        "type": "Point"
      }
    },
    {
      "type": "Feature",
      "properties": {
        "name": "Ariogala"
      },
      "geometry": {
        "coordinates": [
          23.477,
          55.262
        ],
        "type": "Point"
      }
    },
    {
      "type": "Feature",
      "properties": {
        "name": "Anyksciai"
      },
      "geometry": {
        "coordinates": [
          25.10264,
          55.52557
        ],
        "type": "Point"
      }
    },
    {
      "type": "Feature",
      "properties": {
        "name": "Alytus"
      },
      "geometry": {
        "coordinates": [
          24.04142,
          54.39635
        ],
        "type": "Point"
      }
    },
    {
      "type": "Feature",
      "properties": {
        "name": "Aleksotas"
      },
      "geometry": {
        "coordinates": [
          23.90842,
          54.88037
        ],
        "type": "Point"
      }
    },
    {
      "type": "Feature",
      "properties": {
        "name": "Akmene"
      },
      "geometry": {
        "coordinates": [
          22.75,
          56.25
        ],
        "type": "Point"
      }
    },
    {
      "type": "Feature",
      "properties": {
        "name": "Dainava (Kaunas)"
      },
      "geometry": {
        "coordinates": [
          23.96831,
          54.91525
        ],
        "type": "Point"
      }
    },
    {
      "type": "Feature",
      "properties": {
        "name": "Silainiai"
      },
      "geometry": {
        "coordinates": [
          23.88599,
          54.92911
        ],
        "type": "Point"
      }
    },
    {
      "type": "Feature",
      "properties": {
        "name": "Eiguliai"
      },
      "geometry": {
        "coordinates": [
          23.93243,
          54.93133
        ],
        "type": "Point"
      }
    },
    {
      "type": "Feature",
      "properties": {
        "name": "Akademija (Kaunas)"
      },
      "geometry": {
        "coordinates": [
          23.82411,
          54.8964
        ],
        "type": "Point"
      }
    },
    {
      "type": "Feature",
      "properties": {
        "name": "Mastaiciai"
      },
      "geometry": {
        "coordinates": [
          23.84462,
          54.81998
        ],
        "type": "Point"
      }
    },
    {
      "type": "Feature",
      "properties": {
        "name": "Pasilaiciai"
      },
      "geometry": {
        "coordinates": [
          25.21912,
          54.73429
        ],
        "type": "Point"
      }
    },
    {
      "type": "Feature",
      "properties": {
        "name": "Pilaite"
      },
      "geometry": {
        "coordinates": [
          25.18393,
          54.69981
        ],
        "type": "Point"
      }
    },
    {
      "type": "Feature",
      "properties": {
        "name": "Justiniskes"
      },
      "geometry": {
        "coordinates": [
          25.2174,
          54.71664
        ],
        "type": "Point"
      }
    },
    {
      "type": "Feature",
      "properties": {
        "name": "Seskine"
      },
      "geometry": {
        "coordinates": [
          25.25053,
          54.70972
        ],
        "type": "Point"
      }
    },
    {
      "type": "Feature",
      "properties": {
        "name": "Lazdynai"
      },
      "geometry": {
        "coordinates": [
          25.20684,
          54.66815
        ],
        "type": "Point"
      }
    },
    {
      "type": "Feature",
      "properties": {
        "name": "Vilkpede"
      },
      "geometry": {
        "coordinates": [
          25.2477,
          54.66969
        ],
        "type": "Point"
      }
    },
    {
      "type": "Feature",
      "properties": {
        "name": "Naujamiestis"
      },
      "geometry": {
        "coordinates": [
          25.26855,
          54.67951
        ],
        "type": "Point"
      }
    },
    {
      "type": "Feature",
      "properties": {
        "name": "Rasos"
      },
      "geometry": {
        "coordinates": [
          25.31173,
          54.67877
        ],
        "type": "Point"
      }
    }
  ]
}