{
  "type": "FeatureCollection",
  "features": [
    {
      "type": "Feature",
      "properties": {
        "name": "Udomlya"
      },
      "geometry": {
        "coordinates": [
          34.9925,
          57.87944
        ],
        "type": "Point"
      }
    },
    {
      "type": "Feature",
      "properties": {
        "name": "Sosnovka"
      },
      "geometry": {
        "coordinates": [
          30.35,
          60.01667
        ],
        "type": "Point"
      }
    },
    {
      "type": "Feature",
      "properties": {
        "name": "Sasovo"
      },
      "geometry": {
        "coordinates": [
          41.91986,
          54.35369
        ],
        "type": "Point"
      }
    },
    {
      "type": "Feature",
      "properties": {
        "name": "Novozavidovskiy"
      },
      "geometry": {
        "coordinates": [
          36.43333,
          56.55
        ],
        "type": "Point"
      }
    },
    {
      "type": "Feature",
      "properties": {
        "name": "Krasnolesnyy"
      },
      "geometry": {
        "coordinates": [
          39.58772,
          51.88072
        ],
        "type": "Point"
      }
    },
    {
      "type": "Feature",
      "properties": {
        "name": "Kosterevo"
      },
      "geometry": {
        "coordinates": [
          39.61438,
          55.9299
        ],
        "type": "Point"
      }
    },
    {
      "type": "Feature",
      "properties": {
        "name": "Zyuzino"
      },
      "geometry": {
        "coordinates": [
          37.56846,
          55.65608
        ],
        "type": "Point"
      }
    },
    {
      "type": "Feature",
      "properties": {
        "name": "Zykovo"
      },
      "geometry": {
        "coordinates": [
          45.08633,
          54.06853
        ],
        "type": "Point"
      }
    },
    {
      "type": "Feature",
      "properties": {
        "name": "Zyablikovo"
      },
      "geometry": {
        "coordinates": [
          37.76667,
          55.61667
        ],
        "type": "Point"
      }
    },
    {
      "type": "Feature",
      "properties": {
        "name": "Zvony"
      },
      "geometry": {
        "coordinates": [
          28.81604,
          56.62409
        ],
        "type": "Point"
      }
    },
    {
      "type": "Feature",
      "properties": {
        "name": "Zverevo"
      },
      "geometry": {
        "coordinates": [
          40.12282,
          48.02108
        ],
        "type": "Point"
      }
    },
    {
      "type": "Feature",
      "properties": {
        "name": "Zvenigovo"
      },
      "geometry": {
        "coordinates": [
          48.01304,
          55.97539
        ],
        "type": "Point"
      }
    },
    {
      "type": "Feature",
      "properties": {
        "name": "Zvenigorod"
      },
      "geometry": {
        "coordinates": [
          36.85918,
          55.73401
        ],
        "type": "Point"
      }
    },
    {
      "type": "Feature",
      "properties": {
        "name": "Zubtsov"
      },
      "geometry": {
        "coordinates": [
          34.58935,
          56.17533
        ],
        "type": "Point"
      }
    },
    {
      "type": "Feature",
      "properties": {
        "name": "Zubovo"
      },
      "geometry": {
        "coordinates": [
          36.9709,
          60.3181
        ],
        "type": "Point"
      }
    },
    {
      "type": "Feature",
      "properties": {
        "name": "Zubova Polyana"
      },
      "geometry": {
        "coordinates": [
          42.8372,
          54.0771
        ],
        "type": "Point"
      }
    },
    {
      "type": "Feature",
      "properties": {
        "name": "Zolotukhino"
      },
      "geometry": {
        "coordinates": [
          36.37777,
          52.0842
        ],
        "type": "Point"
      }
    },
    {
      "type": "Feature",
      "properties": {
        "name": "Zolotkovo"
      },
      "geometry": {
        "coordinates": [
          41.1053,
          55.5281
        ],
        "type": "Point"
      }
    },
    {
      "type": "Feature",
      "properties": {
        "name": "Znamenskoye"
      },
      "geometry": {
        "coordinates": [
          35.69055,
          53.27869
        ],
        "type": "Point"
      }
    },
    {
      "type": "Feature",
      "properties": {
        "name": "Znamenskoye"
      },
      "geometry": {
        "coordinates": [
          45.12867,
          43.67898
        ],
        "type": "Point"
      }
    },
    {
      "type": "Feature",
      "properties": {
        "name": "Znamenka"
      },
      "geometry": {
        "coordinates": [
          35.97703,
          52.89789
        ],
        "type": "Point"
      }
    },
    {
      "type": "Feature",
      "properties": {
        "name": "Znamenka"
      },
      "geometry": {
        "coordinates": [
          41.43108,
          52.4167
        ],
        "type": "Point"
      }
    },
    {
      "type": "Feature",
      "properties": {
        "name": "Zmiyevka"
      },
      "geometry": {
        "coordinates": [
          36.37426,
          52.66697
        ],
        "type": "Point"
      }
    },
    {
      "type": "Feature",
      "properties": {
        "name": "Zmeyskaya"
      },
      "geometry": {
        "coordinates": [
          44.15733,
          43.33617
        ],
        "type": "Point"
      }
    },
    {
      "type": "Feature",
      "properties": {
        "name": "Zlynka"
      },
      "geometry": {
        "coordinates": [
          31.7378,
          52.4267
        ],
        "type": "Point"
      }
    },
    {
      "type": "Feature",
      "properties": {
        "name": "Zimovniki"
      },
      "geometry": {
        "coordinates": [
          42.4721,
          47.1474
        ],
        "type": "Point"
      }
    },
    {
      "type": "Feature",
      "properties": {
        "name": "Zhulebino"
      },
      "geometry": {
        "coordinates": [
          37.85,
          55.7
        ],
        "type": "Point"
      }
    },
    {
      "type": "Feature",
      "properties": {
        "name": "Zhukovskiy"
      },
      "geometry": {
        "coordinates": [
          38.12028,
          55.59528
        ],
        "type": "Point"
      }
    },
    {
      "type": "Feature",
      "properties": {
        "name": "Zhukovo"
      },
      "geometry": {
        "coordinates": [
          36.74402,
          55.03178
        ],
        "type": "Point"
      }
    },
    {
      "type": "Feature",
      "properties": {
        "name": "Zhukovka"
      },
      "geometry": {
        "coordinates": [
          37.51667,
          56.48333
        ],
        "type": "Point"
      }
    },
    {
      "type": "Feature",
      "properties": {
        "name": "Zhukovka"
      },
      "geometry": {
        "coordinates": [
          33.72798,
          53.53395
        ],
        "type": "Point"
      }
    },
    {
      "type": "Feature",
      "properties": {
        "name": "Zhizdra"
      },
      "geometry": {
        "coordinates": [
          34.73951,
          53.74596
        ],
        "type": "Point"
      }
    },
    {
      "type": "Feature",
      "properties": {
        "name": "Zhiryatino"
      },
      "geometry": {
        "coordinates": [
          33.7306,
          53.2228
        ],
        "type": "Point"
      }
    },
    {
      "type": "Feature",
      "properties": {
        "name": "Zhirnov"
      },
      "geometry": {
        "coordinates": [
          41.12608,
          48.17089
        ],
        "type": "Point"
      }
    },
    {
      "type": "Feature",
      "properties": {
        "name": "Zhilevo"
      },
      "geometry": {
        "coordinates": [
          38.01106,
          55.01408
        ],
        "type": "Point"
      }
    },
    {
      "type": "Feature",
      "properties": {
        "name": "Zhiletovo"
      },
      "geometry": {
        "coordinates": [
          36.02225,
          54.69216
        ],
        "type": "Point"
      }
    },
    {
      "type": "Feature",
      "properties": {
        "name": "Zheshart"
      },
      "geometry": {
        "coordinates": [
          49.57335,
          62.07314
        ],
        "type": "Point"
      }
    },
    {
      "type": "Feature",
      "properties": {
        "name": "Zherdevka"
      },
      "geometry": {
        "coordinates": [
          41.46056,
          51.84861
        ],
        "type": "Point"
      }
    },
    {
      "type": "Feature",
      "properties": {
        "name": "Zhemtala"
      },
      "geometry": {
        "coordinates": [
          43.65586,
          43.28408
        ],
        "type": "Point"
      }
    },
    {
      "type": "Feature",
      "properties": {
        "name": "Zheleznovodsk"
      },
      "geometry": {
        "coordinates": [
          43.01972,
          44.13944
        ],
        "type": "Point"
      }
    },
    {
      "type": "Feature",
      "properties": {
        "name": "Zheleznogorsk"
      },
      "geometry": {
        "coordinates": [
          35.3711,
          52.331
        ],
        "type": "Point"
      }
    },
    {
      "type": "Feature",
      "properties": {
        "name": "Zheleznodorozhnyy"
      },
      "geometry": {
        "coordinates": [
          38.01684,
          55.744
        ],
        "type": "Point"
      }
    },
    {
      "type": "Feature",
      "properties": {
        "name": "Zhdankovskiy"
      },
      "geometry": {
        "coordinates": [
          38.17951,
          53.75321
        ],
        "type": "Point"
      }
    },
    {
      "type": "Feature",
      "properties": {
        "name": "Zhavoronki"
      },
      "geometry": {
        "coordinates": [
          37.10101,
          55.64943
        ],
        "type": "Point"
      }
    },
    {
      "type": "Feature",
      "properties": {
        "name": "Zharkovskiy"
      },
      "geometry": {
        "coordinates": [
          32.2697,
          55.849
        ],
        "type": "Point"
      }
    },
    {
      "type": "Feature",
      "properties": {
        "name": "Zhankhoteko"
      },
      "geometry": {
        "coordinates": [
          43.21056,
          43.56417
        ],
        "type": "Point"
      }
    },
    {
      "type": "Feature",
      "properties": {
        "name": "Zernograd"
      },
      "geometry": {
        "coordinates": [
          40.30834,
          46.84518
        ],
        "type": "Point"
      }
    },
    {
      "type": "Feature",
      "properties": {
        "name": "Zemlyansk"
      },
      "geometry": {
        "coordinates": [
          38.7334,
          51.9041
        ],
        "type": "Point"
      }
    },
    {
      "type": "Feature",
      "properties": {
        "name": "Zemetchino"
      },
      "geometry": {
        "coordinates": [
          42.61632,
          53.4973
        ],
        "type": "Point"
      }
    },
    {
      "type": "Feature",
      "properties": {
        "name": "Zelyony Gorod"
      },
      "geometry": {
        "coordinates": [
          44.0744,
          56.17833
        ],
        "type": "Point"
      }
    },
    {
      "type": "Feature",
      "properties": {
        "name": "Zelenokumsk"
      },
      "geometry": {
        "coordinates": [
          43.88056,
          44.40694
        ],
        "type": "Point"
      }
    },
    {
      "type": "Feature",
      "properties": {
        "name": "Zelenogradskiy"
      },
      "geometry": {
        "coordinates": [
          37.91667,
          56.1
        ],
        "type": "Point"
      }
    },
    {
      "type": "Feature",
      "properties": {
        "name": "Zelenograd"
      },
      "geometry": {
        "coordinates": [
          37.18139,
          55.9825
        ],
        "type": "Point"
      }
    },
    {
      "type": "Feature",
      "properties": {
        "name": "Zelenogorsk"
      },
      "geometry": {
        "coordinates": [
          29.70183,
          60.19968
        ],
        "type": "Point"
      }
    },
    {
      "type": "Feature",
      "properties": {
        "name": "Zelenodolsk"
      },
      "geometry": {
        "coordinates": [
          48.51784,
          55.84376
        ],
        "type": "Point"
      }
    },
    {
      "type": "Feature",
      "properties": {
        "name": "Zelenoborskiy"
      },
      "geometry": {
        "coordinates": [
          32.36222,
          66.845
        ],
        "type": "Point"
      }
    },
    {
      "type": "Feature",
      "properties": {
        "name": "Zelenets"
      },
      "geometry": {
        "coordinates": [
          50.74892,
          61.88485
        ],
        "type": "Point"
      }
    },
    {
      "type": "Feature",
      "properties": {
        "name": "Zelenchukskaya"
      },
      "geometry": {
        "coordinates": [
          41.5894,
          43.85804
        ],
        "type": "Point"
      }
    },
    {
      "type": "Feature",
      "properties": {
        "name": "Zayukovo"
      },
      "geometry": {
        "coordinates": [
          43.33389,
          43.61611
        ],
        "type": "Point"
      }
    },
    {
      "type": "Feature",
      "properties": {
        "name": "Zaymishche"
      },
      "geometry": {
        "coordinates": [
          32.2334,
          52.7264
        ],
        "type": "Point"
      }
    },
    {
      "type": "Feature",
      "properties": {
        "name": "Zavoronezhskoye"
      },
      "geometry": {
        "coordinates": [
          40.5526,
          52.8801
        ],
        "type": "Point"
      }
    },
    {
      "type": "Feature",
      "properties": {
        "name": "Zavolzh'ye"
      },
      "geometry": {
        "coordinates": [
          43.39446,
          56.64051
        ],
        "type": "Point"
      }
    },
    {
      "type": "Feature",
      "properties": {
        "name": "Zavolzhsk"
      },
      "geometry": {
        "coordinates": [
          42.13779,
          57.4823
        ],
        "type": "Point"
      }
    },
    {
      "type": "Feature",
      "properties": {
        "name": "Masalovka"
      },
      "geometry": {
        "coordinates": [
          40.26064,
          48.40372
        ],
        "type": "Point"
      }
    },
    {
      "type": "Feature",
      "properties": {
        "name": "Zavidovo"
      },
      "geometry": {
        "coordinates": [
          36.53333,
          56.53333
        ],
        "type": "Point"
      }
    },
    {
      "type": "Feature",
      "properties": {
        "name": "Zavetnoye"
      },
      "geometry": {
        "coordinates": [
          43.89028,
          47.11944
        ],
        "type": "Point"
      }
    },
    {
      "type": "Feature",
      "properties": {
        "name": "Zavetnoye"
      },
      "geometry": {
        "coordinates": [
          41.5995,
          44.7492
        ],
        "type": "Point"
      }
    },
    {
      "type": "Feature",
      "properties": {
        "name": "Zaterechnyy"
      },
      "geometry": {
        "coordinates": [
          45.20972,
          44.79306
        ],
        "type": "Point"
      }
    },
    {
      "type": "Feature",
      "properties": {
        "name": "Zasosna"
      },
      "geometry": {
        "coordinates": [
          38.3965,
          50.6307
        ],
        "type": "Point"
      }
    },
    {
      "type": "Feature",
      "properties": {
        "name": "Zasechnoye"
      },
      "geometry": {
        "coordinates": [
          45.07936,
          53.1092
        ],
        "type": "Point"
      }
    },
    {
      "type": "Feature",
      "properties": {
        "name": "Zarubino"
      },
      "geometry": {
        "coordinates": [
          33.47556,
          58.735
        ],
        "type": "Point"
      }
    },
    {
      "type": "Feature",
      "properties": {
        "name": "Zarechnyy"
      },
      "geometry": {
        "coordinates": [
          42.28431,
          57.46931
        ],
        "type": "Point"
      }
    },
    {
      "type": "Feature",
      "properties": {
        "name": "Zarechnyy"
      },
      "geometry": {
        "coordinates": [
          39.59437,
          53.7306
        ],
        "type": "Point"
      }
    },
    {
      "type": "Feature",
      "properties": {
        "name": "Zarechnyy"
      },
      "geometry": {
        "coordinates": [
          45.19227,
          53.20356
        ],
        "type": "Point"
      }
    },
    {
      "type": "Feature",
      "properties": {
        "name": "Zaraysk"
      },
      "geometry": {
        "coordinates": [
          38.87841,
          54.7605
        ],
        "type": "Point"
      }
    },
    {
      "type": "Feature",
      "properties": {
        "name": "Zaprudnya"
      },
      "geometry": {
        "coordinates": [
          37.43333,
          56.56667
        ],
        "type": "Point"
      }
    },
    {
      "type": "Feature",
      "properties": {
        "name": "Zapolyarnyy"
      },
      "geometry": {
        "coordinates": [
          30.81355,
          69.41541
        ],
        "type": "Point"
      }
    },
    {
      "type": "Feature",
      "properties": {
        "name": "Zapadnaya Dvina"
      },
      "geometry": {
        "coordinates": [
          32.07454,
          56.25901
        ],
        "type": "Point"
      }
    },
    {
      "type": "Feature",
      "properties": {
        "name": "Zaokskiy"
      },
      "geometry": {
        "coordinates": [
          37.40539,
          54.73227
        ],
        "type": "Point"
      }
    },
    {
      "type": "Feature",
      "properties": {
        "name": "Zandak"
      },
      "geometry": {
        "coordinates": [
          46.45566,
          43.0571
        ],
        "type": "Point"
      }
    },
    {
      "type": "Feature",
      "properties": {
        "name": "Zamoskvorech'ye"
      },
      "geometry": {
        "coordinates": [
          37.63333,
          55.73333
        ],
        "type": "Point"
      }
    },
    {
      "type": "Feature",
      "properties": {
        "name": "Zamishevo"
      },
      "geometry": {
        "coordinates": [
          32.0129,
          52.5395
        ],
        "type": "Point"
      }
    },
    {
      "type": "Feature",
      "properties": {
        "name": "Zalukokoazhe"
      },
      "geometry": {
        "coordinates": [
          43.21556,
          43.90389
        ],
        "type": "Point"
      }
    },
    {
      "type": "Feature",
      "properties": {
        "name": "Zalegoshch'"
      },
      "geometry": {
        "coordinates": [
          36.89093,
          52.8989
        ],
        "type": "Point"
      }
    },
    {
      "type": "Feature",
      "properties": {
        "name": "Zakharovo"
      },
      "geometry": {
        "coordinates": [
          39.2792,
          54.366
        ],
        "type": "Point"
      }
    },
    {
      "type": "Feature",
      "properties": {
        "name": "Zakan-Yurt"
      },
      "geometry": {
        "coordinates": [
          45.42056,
          43.25972
        ],
        "type": "Point"
      }
    },
    {
      "type": "Feature",
      "properties": {
        "name": "Zainsk"
      },
      "geometry": {
        "coordinates": [
          52.06942,
          55.3195
        ],
        "type": "Point"
      }
    },
    {
      "type": "Feature",
      "properties": {
        "name": "Zagoryanskiy"
      },
      "geometry": {
        "coordinates": [
          37.95806,
          55.9325
        ],
        "type": "Point"
      }
    },
    {
      "type": "Feature",
      "properties": {
        "name": "Zadonsk"
      },
      "geometry": {
        "coordinates": [
          38.9261,
          52.3904
        ],
        "type": "Point"
      }
    },
    {
      "type": "Feature",
      "properties": {
        "name": "Zabolotovka"
      },
      "geometry": {
        "coordinates": [
          39.3147,
          50.27368
        ],
        "type": "Point"
      }
    },
    {
      "type": "Feature",
      "properties": {
        "name": "Yuzhno-Sukhokumsk"
      },
      "geometry": {
        "coordinates": [
          45.6436,
          44.65811
        ],
        "type": "Point"
      }
    },
    {
      "type": "Feature",
      "properties": {
        "name": "Yuzha"
      },
      "geometry": {
        "coordinates": [
          42.01222,
          56.58306
        ],
        "type": "Point"
      }
    },
    {
      "type": "Feature",
      "properties": {
        "name": "Yushkozero"
      },
      "geometry": {
        "coordinates": [
          32.10255,
          64.75162
        ],
        "type": "Point"
      }
    },
    {
      "type": "Feature",
      "properties": {
        "name": "Yur'yev-Pol'skiy"
      },
      "geometry": {
        "coordinates": [
          39.67911,
          56.50339
        ],
        "type": "Point"
      }
    },
    {
      "type": "Feature",
      "properties": {
        "name": "Yur'yevets"
      },
      "geometry": {
        "coordinates": [
          43.1041,
          57.32007
        ],
        "type": "Point"
      }
    },
    {
      "type": "Feature",
      "properties": {
        "name": "Yurovka"
      },
      "geometry": {
        "coordinates": [
          37.41882,
          45.1147
        ],
        "type": "Point"
      }
    },
    {
      "type": "Feature",
      "properties": {
        "name": "Yurino"
      },
      "geometry": {
        "coordinates": [
          46.30392,
          56.29417
        ],
        "type": "Point"
      }
    },
    {
      "type": "Feature",
      "properties": {
        "name": "Yukhnov"
      },
      "geometry": {
        "coordinates": [
          35.22972,
          54.74444
        ],
        "type": "Point"
      }
    },
    {
      "type": "Feature",
      "properties": {
        "name": "Yuganets"
      },
      "geometry": {
        "coordinates": [
          43.23069,
          56.2508
        ],
        "type": "Point"
      }
    },
    {
      "type": "Feature",
      "properties": {
        "name": "Yoshkar-Ola"
      },
      "geometry": {
        "coordinates": [
          47.89078,
          56.63877
        ],
        "type": "Point"
      }
    },
    {
      "type": "Feature",
      "properties": {
        "name": "Yeyskoye Ukrepleniye"
      },
      "geometry": {
        "coordinates": [
          38.6121,
          46.7063
        ],
        "type": "Point"
      }
    },
    {
      "type": "Feature",
      "properties": {
        "name": "Yeysk"
      },
      "geometry": {
        "coordinates": [
          38.2739,
          46.7055
        ],
        "type": "Point"
      }
    },
    {
      "type": "Feature",
      "properties": {
        "name": "Yessentukskaya"
      },
      "geometry": {
        "coordinates": [
          42.8813,
          44.0328
        ],
        "type": "Point"
      }
    },
    {
      "type": "Feature",
      "properties": {
        "name": "Yessentuki"
      },
      "geometry": {
        "coordinates": [
          42.86056,
          44.04444
        ],
        "type": "Point"
      }
    },
    {
      "type": "Feature",
      "properties": {
        "name": "Yertsevo"
      },
      "geometry": {
        "coordinates": [
          40.086,
          60.7966
        ],
        "type": "Point"
      }
    },
    {
      "type": "Feature",
      "properties": {
        "name": "Yershovo"
      },
      "geometry": {
        "coordinates": [
          36.85929,
          55.76911
        ],
        "type": "Point"
      }
    },
    {
      "type": "Feature",
      "properties": {
        "name": "Yershichi"
      },
      "geometry": {
        "coordinates": [
          32.75417,
          53.6725
        ],
        "type": "Point"
      }
    },
    {
      "type": "Feature",
      "properties": {
        "name": "Yermolino"
      },
      "geometry": {
        "coordinates": [
          37.49112,
          56.14887
        ],
        "type": "Point"
      }
    },
    {
      "type": "Feature",
      "properties": {
        "name": "Yermolino"
      },
      "geometry": {
        "coordinates": [
          36.59513,
          55.19489
        ],
        "type": "Point"
      }
    },
    {
      "type": "Feature",
      "properties": {
        "name": "Yermish'"
      },
      "geometry": {
        "coordinates": [
          42.27111,
          54.76778
        ],
        "type": "Point"
      }
    },
    {
      "type": "Feature",
      "properties": {
        "name": "Yepifan'"
      },
      "geometry": {
        "coordinates": [
          38.55181,
          53.82526
        ],
        "type": "Point"
      }
    },
    {
      "type": "Feature",
      "properties": {
        "name": "Yemva"
      },
      "geometry": {
        "coordinates": [
          50.85939,
          62.58999
        ],
        "type": "Point"
      }
    },
    {
      "type": "Feature",
      "properties": {
        "name": "Yemtsa"
      },
      "geometry": {
        "coordinates": [
          40.33285,
          63.07337
        ],
        "type": "Point"
      }
    },
    {
      "type": "Feature",
      "properties": {
        "name": "Yemetsk"
      },
      "geometry": {
        "coordinates": [
          41.78023,
          63.47191
        ],
        "type": "Point"
      }
    },
    {
      "type": "Feature",
      "properties": {
        "name": "Yel'nya"
      },
      "geometry": {
        "coordinates": [
          33.18373,
          54.57864
        ],
        "type": "Point"
      }
    },
    {
      "type": "Feature",
      "properties": {
        "name": "Yelizavetinskoye"
      },
      "geometry": {
        "coordinates": [
          43.34944,
          45.00722
        ],
        "type": "Point"
      }
    },
    {
      "type": "Feature",
      "properties": {
        "name": "Yelizavetinskaya"
      },
      "geometry": {
        "coordinates": [
          38.79491,
          45.04616
        ],
        "type": "Point"
      }
    },
    {
      "type": "Feature",
      "properties": {
        "name": "Yelizavetino"
      },
      "geometry": {
        "coordinates": [
          29.78153,
          59.49173
        ],
        "type": "Point"
      }
    },
    {
      "type": "Feature",
      "properties": {
        "name": "Yelets"
      },
      "geometry": {
        "coordinates": [
          38.50169,
          52.62366
        ],
        "type": "Point"
      }
    },
    {
      "type": "Feature",
      "properties": {
        "name": "Yel'digino"
      },
      "geometry": {
        "coordinates": [
          37.81667,
          56.11667
        ],
        "type": "Point"
      }
    },
    {
      "type": "Feature",
      "properties": {
        "name": "Yelat'ma"
      },
      "geometry": {
        "coordinates": [
          41.75083,
          54.9675
        ],
        "type": "Point"
      }
    },
    {
      "type": "Feature",
      "properties": {
        "name": "Yelan'-Kolenovskiy"
      },
      "geometry": {
        "coordinates": [
          41.151,
          51.1632
        ],
        "type": "Point"
      }
    },
    {
      "type": "Feature",
      "properties": {
        "name": "Yelan'-Koleno"
      },
      "geometry": {
        "coordinates": [
          41.2306,
          51.1523
        ],
        "type": "Point"
      }
    },
    {
      "type": "Feature",
      "properties": {
        "name": "Yelabuga"
      },
      "geometry": {
        "coordinates": [
          52.06493,
          55.76127
        ],
        "type": "Point"
      }
    },
    {
      "type": "Feature",
      "properties": {
        "name": "Yekimovichi"
      },
      "geometry": {
        "coordinates": [
          33.29648,
          54.11285
        ],
        "type": "Point"
      }
    },
    {
      "type": "Feature",
      "properties": {
        "name": "Yegor'yevsk"
      },
      "geometry": {
        "coordinates": [
          39.03233,
          55.38283
        ],
        "type": "Point"
      }
    },
    {
      "type": "Feature",
      "properties": {
        "name": "Yegorlykskaya"
      },
      "geometry": {
        "coordinates": [
          40.65621,
          46.56564
        ],
        "type": "Point"
      }
    },
    {
      "type": "Feature",
      "properties": {
        "name": "Yefremov"
      },
      "geometry": {
        "coordinates": [
          38.09924,
          53.14806
        ],
        "type": "Point"
      }
    },
    {
      "type": "Feature",
      "properties": {
        "name": "Yefimovskiy"
      },
      "geometry": {
        "coordinates": [
          34.67222,
          59.49639
        ],
        "type": "Point"
      }
    },
    {
      "type": "Feature",
      "properties": {
        "name": "Yedrovo"
      },
      "geometry": {
        "coordinates": [
          33.62028,
          57.91306
        ],
        "type": "Point"
      }
    },
    {
      "type": "Feature",
      "properties": {
        "name": "Yavas"
      },
      "geometry": {
        "coordinates": [
          42.8491,
          54.4159
        ],
        "type": "Point"
      }
    },
    {
      "type": "Feature",
      "properties": {
        "name": "Yasnogorsk"
      },
      "geometry": {
        "coordinates": [
          37.69854,
          54.48082
        ],
        "type": "Point"
      }
    },
    {
      "type": "Feature",
      "properties": {
        "name": "Yashkul'"
      },
      "geometry": {
        "coordinates": [
          45.3435,
          46.1711
        ],
        "type": "Point"
      }
    },
    {
      "type": "Feature",
      "properties": {
        "name": "Yashalta"
      },
      "geometry": {
        "coordinates": [
          42.2762,
          46.3395
        ],
        "type": "Point"
      }
    },
    {
      "type": "Feature",
      "properties": {
        "name": "Yasenskaya"
      },
      "geometry": {
        "coordinates": [
          38.269,
          46.3592
        ],
        "type": "Point"
      }
    },
    {
      "type": "Feature",
      "properties": {
        "name": "Yasenevo"
      },
      "geometry": {
        "coordinates": [
          37.51991,
          55.60686
        ],
        "type": "Point"
      }
    },
    {
      "type": "Feature",
      "properties": {
        "name": "Yartsevo"
      },
      "geometry": {
        "coordinates": [
          32.69639,
          55.06667
        ],
        "type": "Point"
      }
    },
    {
      "type": "Feature",
      "properties": {
        "name": "Yaroslavskaya"
      },
      "geometry": {
        "coordinates": [
          40.46417,
          44.61056
        ],
        "type": "Point"
      }
    },
    {
      "type": "Feature",
      "properties": {
        "name": "Yaroslavl"
      },
      "geometry": {
        "coordinates": [
          39.87368,
          57.62987
        ],
        "type": "Point"
      }
    },
    {
      "type": "Feature",
      "properties": {
        "name": "Yaroslavichi"
      },
      "geometry": {
        "coordinates": [
          34.50806,
          60.49275
        ],
        "type": "Point"
      }
    },
    {
      "type": "Feature",
      "properties": {
        "name": "Yaropolets"
      },
      "geometry": {
        "coordinates": [
          35.83317,
          56.13333
        ],
        "type": "Point"
      }
    },
    {
      "type": "Feature",
      "properties": {
        "name": "Yarensk"
      },
      "geometry": {
        "coordinates": [
          49.09162,
          62.16755
        ],
        "type": "Point"
      }
    },
    {
      "type": "Feature",
      "properties": {
        "name": "Yarega"
      },
      "geometry": {
        "coordinates": [
          53.5765,
          63.43543
        ],
        "type": "Point"
      }
    },
    {
      "type": "Feature",
      "properties": {
        "name": "Yantikovo"
      },
      "geometry": {
        "coordinates": [
          47.91036,
          55.82158
        ],
        "type": "Point"
      }
    },
    {
      "type": "Feature",
      "properties": {
        "name": "Yanis'yarvi"
      },
      "geometry": {
        "coordinates": [
          30.94849,
          61.89127
        ],
        "type": "Point"
      }
    },
    {
      "type": "Feature",
      "properties": {
        "name": "Yanishpole"
      },
      "geometry": {
        "coordinates": [
          34.27013,
          62.11095
        ],
        "type": "Point"
      }
    },
    {
      "type": "Feature",
      "properties": {
        "name": "Novaya Maka"
      },
      "geometry": {
        "coordinates": [
          48.36149,
          41.77173
        ],
        "type": "Point"
      }
    },
    {
      "type": "Feature",
      "properties": {
        "name": "Yamkino"
      },
      "geometry": {
        "coordinates": [
          38.40417,
          55.92088
        ],
        "type": "Point"
      }
    },
    {
      "type": "Feature",
      "properties": {
        "name": "Yam"
      },
      "geometry": {
        "coordinates": [
          37.74458,
          55.48785
        ],
        "type": "Point"
      }
    },
    {
      "type": "Feature",
      "properties": {
        "name": "Yalkhoy-Mokhk"
      },
      "geometry": {
        "coordinates": [
          46.19045,
          43.10528
        ],
        "type": "Point"
      }
    },
    {
      "type": "Feature",
      "properties": {
        "name": "Yakovlevskoye"
      },
      "geometry": {
        "coordinates": [
          37.94806,
          55.44194
        ],
        "type": "Point"
      }
    },
    {
      "type": "Feature",
      "properties": {
        "name": "Yakovlevo"
      },
      "geometry": {
        "coordinates": [
          29.488,
          60.29409
        ],
        "type": "Point"
      }
    },
    {
      "type": "Feature",
      "properties": {
        "name": "Yakovlevo"
      },
      "geometry": {
        "coordinates": [
          36.44784,
          50.86033
        ],
        "type": "Point"
      }
    },
    {
      "type": "Feature",
      "properties": {
        "name": "Yakhroma"
      },
      "geometry": {
        "coordinates": [
          37.48333,
          56.3
        ],
        "type": "Point"
      }
    },
    {
      "type": "Feature",
      "properties": {
        "name": "Yagry"
      },
      "geometry": {
        "coordinates": [
          39.81028,
          64.59417
        ],
        "type": "Point"
      }
    },
    {
      "type": "Feature",
      "properties": {
        "name": "Yadrin"
      },
      "geometry": {
        "coordinates": [
          46.20622,
          55.94052
        ],
        "type": "Point"
      }
    },
    {
      "type": "Feature",
      "properties": {
        "name": "Yablonovskiy"
      },
      "geometry": {
        "coordinates": [
          38.94324,
          44.98901
        ],
        "type": "Point"
      }
    },
    {
      "type": "Feature",
      "properties": {
        "name": "Vyyezdnoye"
      },
      "geometry": {
        "coordinates": [
          43.78638,
          55.38154
        ],
        "type": "Point"
      }
    },
    {
      "type": "Feature",
      "properties": {
        "name": "Vytegra"
      },
      "geometry": {
        "coordinates": [
          36.44811,
          61.00636
        ],
        "type": "Point"
      }
    },
    {
      "type": "Feature",
      "properties": {
        "name": "Vysotskoye"
      },
      "geometry": {
        "coordinates": [
          42.90639,
          45.025
        ],
        "type": "Point"
      }
    },
    {
      "type": "Feature",
      "properties": {
        "name": "Vysotsk"
      },
      "geometry": {
        "coordinates": [
          28.57048,
          60.62879
        ],
        "type": "Point"
      }
    },
    {
      "type": "Feature",
      "properties": {
        "name": "Vysokovsk"
      },
      "geometry": {
        "coordinates": [
          36.55,
          56.31667
        ],
        "type": "Point"
      }
    },
    {
      "type": "Feature",
      "properties": {
        "name": "Vysokinichi"
      },
      "geometry": {
        "coordinates": [
          36.93148,
          54.90928
        ],
        "type": "Point"
      }
    },
    {
      "type": "Feature",
      "properties": {
        "name": "Vysokaya Gora"
      },
      "geometry": {
        "coordinates": [
          49.30167,
          55.91278
        ],
        "type": "Point"
      }
    },
    {
      "type": "Feature",
      "properties": {
        "name": "Vyshniy Volochek"
      },
      "geometry": {
        "coordinates": [
          34.56453,
          57.59125
        ],
        "type": "Point"
      }
    },
    {
      "type": "Feature",
      "properties": {
        "name": "Vyshneye Dolgoye"
      },
      "geometry": {
        "coordinates": [
          37.40518,
          52.06302
        ],
        "type": "Point"
      }
    },
    {
      "type": "Feature",
      "properties": {
        "name": "Vyshkov"
      },
      "geometry": {
        "coordinates": [
          31.6873,
          52.4764
        ],
        "type": "Point"
      }
    },
    {
      "type": "Feature",
      "properties": {
        "name": "Vysha"
      },
      "geometry": {
        "coordinates": [
          42.37766,
          53.84768
        ],
        "type": "Point"
      }
    },
    {
      "type": "Feature",
      "properties": {
        "name": "Vyselki"
      },
      "geometry": {
        "coordinates": [
          39.66409,
          45.58128
        ],
        "type": "Point"
      }
    },
    {
      "type": "Feature",
      "properties": {
        "name": "Vyritsa"
      },
      "geometry": {
        "coordinates": [
          30.34806,
          59.40778
        ],
        "type": "Point"
      }
    },
    {
      "type": "Feature",
      "properties": {
        "name": "Vypolzovo"
      },
      "geometry": {
        "coordinates": [
          33.69861,
          57.87667
        ],
        "type": "Point"
      }
    },
    {
      "type": "Feature",
      "properties": {
        "name": "Vyksa"
      },
      "geometry": {
        "coordinates": [
          42.17444,
          55.3175
        ],
        "type": "Point"
      }
    },
    {
      "type": "Feature",
      "properties": {
        "name": "Vykhino-Zhulebino"
      },
      "geometry": {
        "coordinates": [
          37.81178,
          55.70196
        ],
        "type": "Point"
      }
    },
    {
      "type": "Feature",
      "properties": {
        "name": "Vygonichi"
      },
      "geometry": {
        "coordinates": [
          34.06728,
          53.09855
        ],
        "type": "Point"
      }
    },
    {
      "type": "Feature",
      "properties": {
        "name": "Vydropuzhsk"
      },
      "geometry": {
        "coordinates": [
          34.84287,
          57.3647
        ],
        "type": "Point"
      }
    },
    {
      "type": "Feature",
      "properties": {
        "name": "Vychegodskiy"
      },
      "geometry": {
        "coordinates": [
          46.89842,
          61.24702
        ],
        "type": "Point"
      }
    },
    {
      "type": "Feature",
      "properties": {
        "name": "Vyborg"
      },
      "geometry": {
        "coordinates": [
          28.75283,
          60.70763
        ],
        "type": "Point"
      }
    },
    {
      "type": "Feature",
      "properties": {
        "name": "Vybor"
      },
      "geometry": {
        "coordinates": [
          29.1663,
          57.22716
        ],
        "type": "Point"
      }
    },
    {
      "type": "Feature",
      "properties": {
        "name": "Vyazniki"
      },
      "geometry": {
        "coordinates": [
          42.15563,
          56.24057
        ],
        "type": "Point"
      }
    },
    {
      "type": "Feature",
      "properties": {
        "name": "Vyaz'ma"
      },
      "geometry": {
        "coordinates": [
          34.29508,
          55.21039
        ],
        "type": "Point"
      }
    },
    {
      "type": "Feature",
      "properties": {
        "name": "Vyartsilya"
      },
      "geometry": {
        "coordinates": [
          30.69296,
          62.17645
        ],
        "type": "Point"
      }
    },
    {
      "type": "Feature",
      "properties": {
        "name": "Vurnary"
      },
      "geometry": {
        "coordinates": [
          46.96479,
          55.49044
        ],
        "type": "Point"
      }
    },
    {
      "type": "Feature",
      "properties": {
        "name": "Vuktyl"
      },
      "geometry": {
        "coordinates": [
          57.30944,
          63.85667
        ],
        "type": "Point"
      }
    },
    {
      "type": "Feature",
      "properties": {
        "name": "Vsevolozhsk"
      },
      "geometry": {
        "coordinates": [
          30.67314,
          60.01512
        ],
        "type": "Point"
      }
    },
    {
      "type": "Feature",
      "properties": {
        "name": "Voznesen'ye"
      },
      "geometry": {
        "coordinates": [
          35.47813,
          61.0106
        ],
        "type": "Point"
      }
    },
    {
      "type": "Feature",
      "properties": {
        "name": "Voznesenskoye"
      },
      "geometry": {
        "coordinates": [
          42.75694,
          54.89
        ],
        "type": "Point"
      }
    },
    {
      "type": "Feature",
      "properties": {
        "name": "Voznesenskaya"
      },
      "geometry": {
        "coordinates": [
          41.0318,
          44.5527
        ],
        "type": "Point"
      }
    },
    {
      "type": "Feature",
      "properties": {
        "name": "Voznesenskaya"
      },
      "geometry": {
        "coordinates": [
          44.74614,
          43.54379
        ],
        "type": "Point"
      }
    },
    {
      "type": "Feature",
      "properties": {
        "name": "Vozhega"
      },
      "geometry": {
        "coordinates": [
          40.22134,
          60.47246
        ],
        "type": "Point"
      }
    },
    {
      "type": "Feature",
      "properties": {
        "name": "Voyvozh"
      },
      "geometry": {
        "coordinates": [
          54.96346,
          62.89198
        ],
        "type": "Point"
      }
    },
    {
      "type": "Feature",
      "properties": {
        "name": "Voyskovitsy"
      },
      "geometry": {
        "coordinates": [
          29.9362,
          59.53266
        ],
        "type": "Point"
      }
    },
    {
      "type": "Feature",
      "properties": {
        "name": "Vostryakovo"
      },
      "geometry": {
        "coordinates": [
          37.45,
          55.66667
        ],
        "type": "Point"
      }
    },
    {
      "type": "Feature",
      "properties": {
        "name": "Vostryakovo"
      },
      "geometry": {
        "coordinates": [
          37.80829,
          55.39934
        ],
        "type": "Point"
      }
    },
    {
      "type": "Feature",
      "properties": {
        "name": "Vostochnyy"
      },
      "geometry": {
        "coordinates": [
          37.86667,
          55.81667
        ],
        "type": "Point"
      }
    },
    {
      "type": "Feature",
      "properties": {
        "name": "Voskresenskoye"
      },
      "geometry": {
        "coordinates": [
          45.43167,
          56.83806
        ],
        "type": "Point"
      }
    },
    {
      "type": "Feature",
      "properties": {
        "name": "Voskresensk"
      },
      "geometry": {
        "coordinates": [
          38.65264,
          55.31733
        ],
        "type": "Point"
      }
    },
    {
      "type": "Feature",
      "properties": {
        "name": "Vorsma"
      },
      "geometry": {
        "coordinates": [
          43.27249,
          55.99062
        ],
        "type": "Point"
      }
    },
    {
      "type": "Feature",
      "properties": {
        "name": "Vorsha"
      },
      "geometry": {
        "coordinates": [
          40.07966,
          56.0491
        ],
        "type": "Point"
      }
    },
    {
      "type": "Feature",
      "properties": {
        "name": "Vorotynets"
      },
      "geometry": {
        "coordinates": [
          45.8633,
          56.06028
        ],
        "type": "Point"
      }
    },
    {
      "type": "Feature",
      "properties": {
        "name": "Voroshnevo"
      },
      "geometry": {
        "coordinates": [
          36.01722,
          51.65278
        ],
        "type": "Point"
      }
    },
    {
      "type": "Feature",
      "properties": {
        "name": "Vorontsovka"
      },
      "geometry": {
        "coordinates": [
          40.3549,
          50.6132
        ],
        "type": "Point"
      }
    },
    {
      "type": "Feature",
      "properties": {
        "name": "Vorontsovka"
      },
      "geometry": {
        "coordinates": [
          38.0787,
          46.6529
        ],
        "type": "Point"
      }
    },
    {
      "type": "Feature",
      "properties": {
        "name": "Voronezh"
      },
      "geometry": {
        "coordinates": [
          39.1843,
          51.67204
        ],
        "type": "Point"
      }
    },
    {
      "type": "Feature",
      "properties": {
        "name": "Altuf'yevskiy"
      },
      "geometry": {
        "coordinates": [
          37.58333,
          55.88333
        ],
        "type": "Point"
      }
    },
    {
      "type": "Feature",
      "properties": {
        "name": "Vorob'yovo"
      },
      "geometry": {
        "coordinates": [
          37.53333,
          55.71667
        ],
        "type": "Point"
      }
    },
    {
      "type": "Feature",
      "properties": {
        "name": "Volzhsk"
      },
      "geometry": {
        "coordinates": [
          48.3594,
          55.86638
        ],
        "type": "Point"
      }
    },
    {
      "type": "Feature",
      "properties": {
        "name": "Volya"
      },
      "geometry": {
        "coordinates": [
          39.5404,
          51.7651
        ],
        "type": "Point"
      }
    },
    {
      "type": "Feature",
      "properties": {
        "name": "Volovo"
      },
      "geometry": {
        "coordinates": [
          37.8854,
          52.02659
        ],
        "type": "Point"
      }
    },
    {
      "type": "Feature",
      "properties": {
        "name": "Volot"
      },
      "geometry": {
        "coordinates": [
          30.7025,
          57.92778
        ],
        "type": "Point"
      }
    },
    {
      "type": "Feature",
      "properties": {
        "name": "Volosovo"
      },
      "geometry": {
        "coordinates": [
          29.48911,
          59.44525
        ],
        "type": "Point"
      }
    },
    {
      "type": "Feature",
      "properties": {
        "name": "Voloshka"
      },
      "geometry": {
        "coordinates": [
          40.08583,
          61.33139
        ],
        "type": "Point"
      }
    },
    {
      "type": "Feature",
      "properties": {
        "name": "Volokonovka"
      },
      "geometry": {
        "coordinates": [
          37.8563,
          50.4827
        ],
        "type": "Point"
      }
    },
    {
      "type": "Feature",
      "properties": {
        "name": "Volokolamsk"
      },
      "geometry": {
        "coordinates": [
          35.96944,
          56.03361
        ],
        "type": "Point"
      }
    },
    {
      "type": "Feature",
      "properties": {
        "name": "Vologda"
      },
      "geometry": {
        "coordinates": [
          39.88398,
          59.2239
        ],
        "type": "Point"
      }
    },
    {
      "type": "Feature",
      "properties": {
        "name": "Volodarskogo"
      },
      "geometry": {
        "coordinates": [
          37.94174,
          55.50349
        ],
        "type": "Point"
      }
    },
    {
      "type": "Feature",
      "properties": {
        "name": "Volodarsk"
      },
      "geometry": {
        "coordinates": [
          43.18767,
          56.23105
        ],
        "type": "Point"
      }
    },
    {
      "type": "Feature",
      "properties": {
        "name": "Vol'nyy Aul"
      },
      "geometry": {
        "coordinates": [
          43.6275,
          43.47861
        ],
        "type": "Point"
      }
    },
    {
      "type": "Feature",
      "properties": {
        "name": "Volkhovskiy"
      },
      "geometry": {
        "coordinates": [
          31.31641,
          58.58
        ],
        "type": "Point"
      }
    },
    {
      "type": "Feature",
      "properties": {
        "name": "Volkhov"
      },
      "geometry": {
        "coordinates": [
          32.33819,
          59.9258
        ],
        "type": "Point"
      }
    },
    {
      "type": "Feature",
      "properties": {
        "name": "Nagornyy"
      },
      "geometry": {
        "coordinates": [
          37.61667,
          55.65
        ],
        "type": "Point"
      }
    },
    {
      "type": "Feature",
      "properties": {
        "name": "Volgorechensk"
      },
      "geometry": {
        "coordinates": [
          41.15553,
          57.43931
        ],
        "type": "Point"
      }
    },
    {
      "type": "Feature",
      "properties": {
        "name": "Volgodonsk"
      },
      "geometry": {
        "coordinates": [
          42.15139,
          47.51361
        ],
        "type": "Point"
      }
    },
    {
      "type": "Feature",
      "properties": {
        "name": "Volga"
      },
      "geometry": {
        "coordinates": [
          38.38785,
          57.95157
        ],
        "type": "Point"
      }
    },
    {
      "type": "Feature",
      "properties": {
        "name": "Vokhtoga"
      },
      "geometry": {
        "coordinates": [
          41.06245,
          58.80949
        ],
        "type": "Point"
      }
    },
    {
      "type": "Feature",
      "properties": {
        "name": "Vokhma"
      },
      "geometry": {
        "coordinates": [
          46.75859,
          58.9303
        ],
        "type": "Point"
      }
    },
    {
      "type": "Feature",
      "properties": {
        "name": "Yutsa"
      },
      "geometry": {
        "coordinates": [
          43.01278,
          43.95639
        ],
        "type": "Point"
      }
    },
    {
      "type": "Feature",
      "properties": {
        "name": "Vodnyy"
      },
      "geometry": {
        "coordinates": [
          53.40947,
          63.50464
        ],
        "type": "Point"
      }
    },
    {
      "type": "Feature",
      "properties": {
        "name": "Novovladykino"
      },
      "geometry": {
        "coordinates": [
          37.58333,
          55.85
        ],
        "type": "Point"
      }
    },
    {
      "type": "Feature",
      "properties": {
        "name": "Vladimirskoye"
      },
      "geometry": {
        "coordinates": [
          45.11843,
          56.82002
        ],
        "type": "Point"
      }
    },
    {
      "type": "Feature",
      "properties": {
        "name": "Vladimirskaya"
      },
      "geometry": {
        "coordinates": [
          40.7933,
          44.5455
        ],
        "type": "Point"
      }
    },
    {
      "type": "Feature",
      "properties": {
        "name": "Vladimir"
      },
      "geometry": {
        "coordinates": [
          40.39658,
          56.13655
        ],
        "type": "Point"
      }
    },
    {
      "type": "Feature",
      "properties": {
        "name": "Vladikavkaz"
      },
      "geometry": {
        "coordinates": [
          44.66778,
          43.03667
        ],
        "type": "Point"
      }
    },
    {
      "type": "Feature",
      "properties": {
        "name": "Vizinga"
      },
      "geometry": {
        "coordinates": [
          50.10311,
          61.07493
        ],
        "type": "Point"
      }
    },
    {
      "type": "Feature",
      "properties": {
        "name": "Vityazevo"
      },
      "geometry": {
        "coordinates": [
          37.28211,
          45.0013
        ],
        "type": "Point"
      }
    },
    {
      "type": "Feature",
      "properties": {
        "name": "Vistino"
      },
      "geometry": {
        "coordinates": [
          28.47708,
          59.77558
        ],
        "type": "Point"
      }
    },
    {
      "type": "Feature",
      "properties": {
        "name": "Vishnyakovskiye Dachi"
      },
      "geometry": {
        "coordinates": [
          38.13334,
          55.7647
        ],
        "type": "Point"
      }
    },
    {
      "type": "Feature",
      "properties": {
        "name": "Vinsady"
      },
      "geometry": {
        "coordinates": [
          42.96528,
          44.08083
        ],
        "type": "Point"
      }
    },
    {
      "type": "Feature",
      "properties": {
        "name": "Vinogradovo"
      },
      "geometry": {
        "coordinates": [
          37.55,
          56.93333
        ],
        "type": "Point"
      }
    },
    {
      "type": "Feature",
      "properties": {
        "name": "Vinogradnyy"
      },
      "geometry": {
        "coordinates": [
          37.32125,
          45.0561
        ],
        "type": "Point"
      }
    },
    {
      "type": "Feature",
      "properties": {
        "name": "Vinnitsy"
      },
      "geometry": {
        "coordinates": [
          34.77302,
          60.62867
        ],
        "type": "Point"
      }
    },
    {
      "type": "Feature",
      "properties": {
        "name": "Vilya"
      },
      "geometry": {
        "coordinates": [
          42.20889,
          55.24556
        ],
        "type": "Point"
      }
    },
    {
      "type": "Feature",
      "properties": {
        "name": "Vilovatovo"
      },
      "geometry": {
        "coordinates": [
          46.60134,
          56.1724
        ],
        "type": "Point"
      }
    },
    {
      "type": "Feature",
      "properties": {
        "name": "Vilenka"
      },
      "geometry": {
        "coordinates": [
          38.91663,
          54.2693
        ],
        "type": "Point"
      }
    },
    {
      "type": "Feature",
      "properties": {
        "name": "Vidyayevo"
      },
      "geometry": {
        "coordinates": [
          33.01667,
          68.88333
        ],
        "type": "Point"
      }
    },
    {
      "type": "Feature",
      "properties": {
        "name": "Vidnoye"
      },
      "geometry": {
        "coordinates": [
          37.70967,
          55.55239
        ],
        "type": "Point"
      }
    },
    {
      "type": "Feature",
      "properties": {
        "name": "Vichuga"
      },
      "geometry": {
        "coordinates": [
          41.93012,
          57.21276
        ],
        "type": "Point"
      }
    },
    {
      "type": "Feature",
      "properties": {
        "name": "Veydelevka"
      },
      "geometry": {
        "coordinates": [
          38.4492,
          50.1521
        ],
        "type": "Point"
      }
    },
    {
      "type": "Feature",
      "properties": {
        "name": "Vetluzhskiy"
      },
      "geometry": {
        "coordinates": [
          45.46543,
          58.39016
        ],
        "type": "Point"
      }
    },
    {
      "type": "Feature",
      "properties": {
        "name": "Vetluzhskiy"
      },
      "geometry": {
        "coordinates": [
          45.12272,
          57.17355
        ],
        "type": "Point"
      }
    },
    {
      "type": "Feature",
      "properties": {
        "name": "Vetluga"
      },
      "geometry": {
        "coordinates": [
          45.78102,
          57.85574
        ],
        "type": "Point"
      }
    },
    {
      "type": "Feature",
      "properties": {
        "name": "Ves'yegonsk"
      },
      "geometry": {
        "coordinates": [
          37.2604,
          58.66398
        ],
        "type": "Point"
      }
    },
    {
      "type": "Feature",
      "properties": {
        "name": "Veshnyaki"
      },
      "geometry": {
        "coordinates": [
          37.81952,
          55.72393
        ],
        "type": "Point"
      }
    },
    {
      "type": "Feature",
      "properties": {
        "name": "Veshenskaya"
      },
      "geometry": {
        "coordinates": [
          41.7334,
          49.63033
        ],
        "type": "Point"
      }
    },
    {
      "type": "Feature",
      "properties": {
        "name": "Veshchevo"
      },
      "geometry": {
        "coordinates": [
          29.18305,
          60.73107
        ],
        "type": "Point"
      }
    },
    {
      "type": "Feature",
      "properties": {
        "name": "Veselyy"
      },
      "geometry": {
        "coordinates": [
          40.7422,
          47.09338
        ],
        "type": "Point"
      }
    },
    {
      "type": "Feature",
      "properties": {
        "name": "Verkhozim"
      },
      "geometry": {
        "coordinates": [
          45.41803,
          52.71221
        ],
        "type": "Point"
      }
    },
    {
      "type": "Feature",
      "properties": {
        "name": "Verkhov'ye"
      },
      "geometry": {
        "coordinates": [
          37.24215,
          52.81165
        ],
        "type": "Point"
      }
    },
    {
      "type": "Feature",
      "properties": {
        "name": "Verkhovazh'ye"
      },
      "geometry": {
        "coordinates": [
          42.04652,
          60.74717
        ],
        "type": "Point"
      }
    },
    {
      "type": "Feature",
      "properties": {
        "name": "Verkhnyaya Toyma"
      },
      "geometry": {
        "coordinates": [
          45.0009,
          62.2347
        ],
        "type": "Point"
      }
    },
    {
      "type": "Feature",
      "properties": {
        "name": "Verkhnyaya Tishanka"
      },
      "geometry": {
        "coordinates": [
          40.53278,
          51.32389
        ],
        "type": "Point"
      }
    },
    {
      "type": "Feature",
      "properties": {
        "name": "Verkhnyaya Maksakovka"
      },
      "geometry": {
        "coordinates": [
          50.9674,
          61.63504
        ],
        "type": "Point"
      }
    },
    {
      "type": "Feature",
      "properties": {
        "name": "Kishcha"
      },
      "geometry": {
        "coordinates": [
          47.58117,
          42.17677
        ],
        "type": "Point"
      }
    },
    {
      "type": "Feature",
      "properties": {
        "name": "Verkhnyaya Khava"
      },
      "geometry": {
        "coordinates": [
          39.94134,
          51.84045
        ],
        "type": "Point"
      }
    },
    {
      "type": "Feature",
      "properties": {
        "name": "Verkhnyaya Balkariya"
      },
      "geometry": {
        "coordinates": [
          43.45732,
          43.12785
        ],
        "type": "Point"
      }
    },
    {
      "type": "Feature",
      "properties": {
        "name": "Verkhniy Uslon"
      },
      "geometry": {
        "coordinates": [
          48.9823,
          55.7701
        ],
        "type": "Point"
      }
    },
    {
      "type": "Feature",
      "properties": {
        "name": "Lakkha Nevre"
      },
      "geometry": {
        "coordinates": [
          45.24542,
          43.61033
        ],
        "type": "Point"
      }
    },
    {
      "type": "Feature",
      "properties": {
        "name": "Verkhniy Mamon"
      },
      "geometry": {
        "coordinates": [
          40.3832,
          50.1635
        ],
        "type": "Point"
      }
    },
    {
      "type": "Feature",
      "properties": {
        "name": "Verkhniy Lomov"
      },
      "geometry": {
        "coordinates": [
          43.55111,
          53.46778
        ],
        "type": "Point"
      }
    },
    {
      "type": "Feature",
      "properties": {
        "name": "Verkhniy Landekh"
      },
      "geometry": {
        "coordinates": [
          42.5973,
          56.83971
        ],
        "type": "Point"
      }
    },
    {
      "type": "Feature",
      "properties": {
        "name": "Verkhniy Kurkuzhin"
      },
      "geometry": {
        "coordinates": [
          43.27472,
          43.69556
        ],
        "type": "Point"
      }
    },
    {
      "type": "Feature",
      "properties": {
        "name": "Verkhniy Fiagdon"
      },
      "geometry": {
        "coordinates": [
          44.30657,
          42.83323
        ],
        "type": "Point"
      }
    },
    {
      "type": "Feature",
      "properties": {
        "name": "Verkhniye Osel'ki"
      },
      "geometry": {
        "coordinates": [
          30.44938,
          60.24948
        ],
        "type": "Point"
      }
    },
    {
      "type": "Feature",
      "properties": {
        "name": "Verkhniye Achaluki"
      },
      "geometry": {
        "coordinates": [
          44.6975,
          43.34694
        ],
        "type": "Point"
      }
    },
    {
      "type": "Feature",
      "properties": {
        "name": "Verkhneye Kazanishche"
      },
      "geometry": {
        "coordinates": [
          47.1378,
          42.73547
        ],
        "type": "Point"
      }
    },
    {
      "type": "Feature",
      "properties": {
        "name": "Verkhnetulomskiy"
      },
      "geometry": {
        "coordinates": [
          31.79621,
          68.60727
        ],
        "type": "Point"
      }
    },
    {
      "type": "Feature",
      "properties": {
        "name": "Verkhnedneprovskiy"
      },
      "geometry": {
        "coordinates": [
          33.34573,
          54.98131
        ],
        "type": "Point"
      }
    },
    {
      "type": "Feature",
      "properties": {
        "name": "Vereya"
      },
      "geometry": {
        "coordinates": [
          39.09766,
          55.77373
        ],
        "type": "Point"
      }
    },
    {
      "type": "Feature",
      "properties": {
        "name": "Vereya"
      },
      "geometry": {
        "coordinates": [
          38.03917,
          55.61472
        ],
        "type": "Point"
      }
    },
    {
      "type": "Feature",
      "properties": {
        "name": "Vereya"
      },
      "geometry": {
        "coordinates": [
          36.17194,
          55.34472
        ],
        "type": "Point"
      }
    },
    {
      "type": "Feature",
      "properties": {
        "name": "Verbilki"
      },
      "geometry": {
        "coordinates": [
          37.6,
          56.53333
        ],
        "type": "Point"
      }
    },
    {
      "type": "Feature",
      "properties": {
        "name": "Ventsy"
      },
      "geometry": {
        "coordinates": [
          40.83583,
          45.37639
        ],
        "type": "Point"
      }
    },
    {
      "type": "Feature",
      "properties": {
        "name": "Venev"
      },
      "geometry": {
        "coordinates": [
          38.26843,
          54.35533
        ],
        "type": "Point"
      }
    },
    {
      "type": "Feature",
      "properties": {
        "name": "Vel'ye"
      },
      "geometry": {
        "coordinates": [
          28.57883,
          56.97005
        ],
        "type": "Point"
      }
    },
    {
      "type": "Feature",
      "properties": {
        "name": "Vel'sk"
      },
      "geometry": {
        "coordinates": [
          42.0983,
          61.07006
        ],
        "type": "Point"
      }
    },
    {
      "type": "Feature",
      "properties": {
        "name": "Velizh"
      },
      "geometry": {
        "coordinates": [
          31.19673,
          55.60564
        ],
        "type": "Point"
      }
    },
    {
      "type": "Feature",
      "properties": {
        "name": "Velikovechnoye"
      },
      "geometry": {
        "coordinates": [
          39.75499,
          44.93402
        ],
        "type": "Point"
      }
    },
    {
      "type": "Feature",
      "properties": {
        "name": "Velikooktyabr'skiy"
      },
      "geometry": {
        "coordinates": [
          33.81595,
          57.43333
        ],
        "type": "Point"
      }
    },
    {
      "type": "Feature",
      "properties": {
        "name": "Velikodvorskiy"
      },
      "geometry": {
        "coordinates": [
          40.6678,
          55.24996
        ],
        "type": "Point"
      }
    },
    {
      "type": "Feature",
      "properties": {
        "name": "Velikiy Ustyug"
      },
      "geometry": {
        "coordinates": [
          46.31352,
          60.76186
        ],
        "type": "Point"
      }
    },
    {
      "type": "Feature",
      "properties": {
        "name": "Velikiye Luki"
      },
      "geometry": {
        "coordinates": [
          30.54517,
          56.34
        ],
        "type": "Point"
      }
    },
    {
      "type": "Feature",
      "properties": {
        "name": "Velikent"
      },
      "geometry": {
        "coordinates": [
          48.06285,
          42.18626
        ],
        "type": "Point"
      }
    },
    {
      "type": "Feature",
      "properties": {
        "name": "Vedeno"
      },
      "geometry": {
        "coordinates": [
          46.09611,
          42.96892
        ],
        "type": "Point"
      }
    },
    {
      "type": "Feature",
      "properties": {
        "name": "Vazhiny"
      },
      "geometry": {
        "coordinates": [
          34.02222,
          60.96444
        ],
        "type": "Point"
      }
    },
    {
      "type": "Feature",
      "properties": {
        "name": "Vatutino"
      },
      "geometry": {
        "coordinates": [
          37.69055,
          55.88441
        ],
        "type": "Point"
      }
    },
    {
      "type": "Feature",
      "properties": {
        "name": "Vatutinki"
      },
      "geometry": {
        "coordinates": [
          37.32988,
          55.4965
        ],
        "type": "Point"
      }
    },
    {
      "type": "Feature",
      "properties": {
        "name": "Vasyurinskaya"
      },
      "geometry": {
        "coordinates": [
          39.42399,
          45.11809
        ],
        "type": "Point"
      }
    },
    {
      "type": "Feature",
      "properties": {
        "name": "Vaskelovo"
      },
      "geometry": {
        "coordinates": [
          30.35419,
          60.39571
        ],
        "type": "Point"
      }
    },
    {
      "type": "Feature",
      "properties": {
        "name": "Vasil'yevskiy Mokh"
      },
      "geometry": {
        "coordinates": [
          35.91897,
          57.01316
        ],
        "type": "Point"
      }
    },
    {
      "type": "Feature",
      "properties": {
        "name": "Varygino"
      },
      "geometry": {
        "coordinates": [
          28.53511,
          56.76034
        ],
        "type": "Point"
      }
    },
    {
      "type": "Feature",
      "properties": {
        "name": "Varnavino"
      },
      "geometry": {
        "coordinates": [
          45.09164,
          57.40351
        ],
        "type": "Point"
      }
    },
    {
      "type": "Feature",
      "properties": {
        "name": "Varenikovskaya"
      },
      "geometry": {
        "coordinates": [
          37.64171,
          45.12085
        ],
        "type": "Point"
      }
    },
    {
      "type": "Feature",
      "properties": {
        "name": "Vardane"
      },
      "geometry": {
        "coordinates": [
          39.55428,
          43.73179
        ],
        "type": "Point"
      }
    },
    {
      "type": "Feature",
      "properties": {
        "name": "Valuyki"
      },
      "geometry": {
        "coordinates": [
          38.1067,
          50.2035
        ],
        "type": "Point"
      }
    },
    {
      "type": "Feature",
      "properties": {
        "name": "Valerik"
      },
      "geometry": {
        "coordinates": [
          45.40806,
          43.17972
        ],
        "type": "Point"
      }
    },
    {
      "type": "Feature",
      "properties": {
        "name": "Valday"
      },
      "geometry": {
        "coordinates": [
          33.2525,
          57.97472
        ],
        "type": "Point"
      }
    },
    {
      "type": "Feature",
      "properties": {
        "name": "Vakhtan"
      },
      "geometry": {
        "coordinates": [
          46.68886,
          57.96592
        ],
        "type": "Point"
      }
    },
    {
      "type": "Feature",
      "properties": {
        "name": "Vagonoremont"
      },
      "geometry": {
        "coordinates": [
          37.55,
          55.9
        ],
        "type": "Point"
      }
    },
    {
      "type": "Feature",
      "properties": {
        "name": "Vadinsk"
      },
      "geometry": {
        "coordinates": [
          43.05744,
          53.69157
        ],
        "type": "Point"
      }
    },
    {
      "type": "Feature",
      "properties": {
        "name": "Vad"
      },
      "geometry": {
        "coordinates": [
          44.21137,
          55.53009
        ],
        "type": "Point"
      }
    },
    {
      "type": "Feature",
      "properties": {
        "name": "Vacha"
      },
      "geometry": {
        "coordinates": [
          42.7709,
          55.8035
        ],
        "type": "Point"
      }
    },
    {
      "type": "Feature",
      "properties": {
        "name": "Uzunovo"
      },
      "geometry": {
        "coordinates": [
          38.61734,
          54.53858
        ],
        "type": "Point"
      }
    },
    {
      "type": "Feature",
      "properties": {
        "name": "Uzlovaya"
      },
      "geometry": {
        "coordinates": [
          38.17118,
          53.98179
        ],
        "type": "Point"
      }
    },
    {
      "type": "Feature",
      "properties": {
        "name": "Uyemskiy"
      },
      "geometry": {
        "coordinates": [
          40.8524,
          64.4743
        ],
        "type": "Point"
      }
    },
    {
      "type": "Feature",
      "properties": {
        "name": "Uvarovo"
      },
      "geometry": {
        "coordinates": [
          42.26147,
          51.98486
        ],
        "type": "Point"
      }
    },
    {
      "type": "Feature",
      "properties": {
        "name": "Uvarovka"
      },
      "geometry": {
        "coordinates": [
          35.60611,
          55.52778
        ],
        "type": "Point"
      }
    },
    {
      "type": "Feature",
      "properties": {
        "name": "Utsmiyurt"
      },
      "geometry": {
        "coordinates": [
          46.46952,
          43.53481
        ],
        "type": "Point"
      }
    },
    {
      "type": "Feature",
      "properties": {
        "name": "Utorgosh"
      },
      "geometry": {
        "coordinates": [
          30.25344,
          58.28127
        ],
        "type": "Point"
      }
    },
    {
      "type": "Feature",
      "properties": {
        "name": "Utamysh"
      },
      "geometry": {
        "coordinates": [
          47.75109,
          42.40718
        ],
        "type": "Point"
      }
    },
    {
      "type": "Feature",
      "properties": {
        "name": "Usvyaty"
      },
      "geometry": {
        "coordinates": [
          30.75333,
          55.74556
        ],
        "type": "Point"
      }
    },
    {
      "type": "Feature",
      "properties": {
        "name": "Usukhchay"
      },
      "geometry": {
        "coordinates": [
          47.91318,
          41.42245
        ],
        "type": "Point"
      }
    },
    {
      "type": "Feature",
      "properties": {
        "name": "Ustyuzhna"
      },
      "geometry": {
        "coordinates": [
          36.4321,
          58.8394
        ],
        "type": "Point"
      }
    },
    {
      "type": "Feature",
      "properties": {
        "name": "Ust'ye"
      },
      "geometry": {
        "coordinates": [
          39.73596,
          59.63043
        ],
        "type": "Point"
      }
    },
    {
      "type": "Feature",
      "properties": {
        "name": "Ust-Tsilma"
      },
      "geometry": {
        "coordinates": [
          52.14978,
          65.44104
        ],
        "type": "Point"
      }
    },
    {
      "type": "Feature",
      "properties": {
        "name": "Ust'-Shonosha"
      },
      "geometry": {
        "coordinates": [
          41.343,
          61.1531
        ],
        "type": "Point"
      }
    },
    {
      "type": "Feature",
      "properties": {
        "name": "Ust'-Luga"
      },
      "geometry": {
        "coordinates": [
          28.28713,
          59.66755
        ],
        "type": "Point"
      }
    },
    {
      "type": "Feature",
      "properties": {
        "name": "Ust'-Labinsk"
      },
      "geometry": {
        "coordinates": [
          39.68914,
          45.21077
        ],
        "type": "Point"
      }
    },
    {
      "type": "Feature",
      "properties": {
        "name": "Ust'-Kulom"
      },
      "geometry": {
        "coordinates": [
          53.6902,
          61.68636
        ],
        "type": "Point"
      }
    },
    {
      "type": "Feature",
      "properties": {
        "name": "Ust'-Izhora"
      },
      "geometry": {
        "coordinates": [
          30.58139,
          59.81194
        ],
        "type": "Point"
      }
    },
    {
      "type": "Feature",
      "properties": {
        "name": "Ust'-Dzheguta"
      },
      "geometry": {
        "coordinates": [
          41.9763,
          44.0834
        ],
        "type": "Point"
      }
    },
    {
      "type": "Feature",
      "properties": {
        "name": "Ust'-Donetskiy"
      },
      "geometry": {
        "coordinates": [
          40.87182,
          47.64189
        ],
        "type": "Point"
      }
    },
    {
      "type": "Feature",
      "properties": {
        "name": "Uspenskoye"
      },
      "geometry": {
        "coordinates": [
          41.3927,
          44.8311
        ],
        "type": "Point"
      }
    },
    {
      "type": "Feature",
      "properties": {
        "name": "Uspenskaya"
      },
      "geometry": {
        "coordinates": [
          41.06696,
          45.76448
        ],
        "type": "Point"
      }
    },
    {
      "type": "Feature",
      "properties": {
        "name": "Usogorsk"
      },
      "geometry": {
        "coordinates": [
          48.68722,
          63.41064
        ],
        "type": "Point"
      }
    },
    {
      "type": "Feature",
      "properties": {
        "name": "Usman'"
      },
      "geometry": {
        "coordinates": [
          39.7288,
          52.04662
        ],
        "type": "Point"
      }
    },
    {
      "type": "Feature",
      "properties": {
        "name": "Usisha"
      },
      "geometry": {
        "coordinates": [
          47.39278,
          42.25111
        ],
        "type": "Point"
      }
    },
    {
      "type": "Feature",
      "properties": {
        "name": "Uryv-Pokrovka"
      },
      "geometry": {
        "coordinates": [
          39.16394,
          51.1159
        ],
        "type": "Point"
      }
    },
    {
      "type": "Feature",
      "properties": {
        "name": "Urvan'"
      },
      "geometry": {
        "coordinates": [
          43.76056,
          43.49222
        ],
        "type": "Point"
      }
    },
    {
      "type": "Feature",
      "properties": {
        "name": "Urussu"
      },
      "geometry": {
        "coordinates": [
          53.46313,
          54.59812
        ],
        "type": "Point"
      }
    },
    {
      "type": "Feature",
      "properties": {
        "name": "Urus-Martan"
      },
      "geometry": {
        "coordinates": [
          45.53791,
          43.13053
        ],
        "type": "Point"
      }
    },
    {
      "type": "Feature",
      "properties": {
        "name": "Urukh"
      },
      "geometry": {
        "coordinates": [
          44.02647,
          43.29335
        ],
        "type": "Point"
      }
    },
    {
      "type": "Feature",
      "properties": {
        "name": "Urshel'skiy"
      },
      "geometry": {
        "coordinates": [
          40.21692,
          55.67833
        ],
        "type": "Point"
      }
    },
    {
      "type": "Feature",
      "properties": {
        "name": "Urozhaynoye"
      },
      "geometry": {
        "coordinates": [
          44.92278,
          44.78833
        ],
        "type": "Point"
      }
    },
    {
      "type": "Feature",
      "properties": {
        "name": "Urmary"
      },
      "geometry": {
        "coordinates": [
          47.94396,
          55.67894
        ],
        "type": "Point"
      }
    },
    {
      "type": "Feature",
      "properties": {
        "name": "Urma"
      },
      "geometry": {
        "coordinates": [
          47.28639,
          42.53894
        ],
        "type": "Point"
      }
    },
    {
      "type": "Feature",
      "properties": {
        "name": "Urkarakh"
      },
      "geometry": {
        "coordinates": [
          47.63068,
          42.16297
        ],
        "type": "Point"
      }
    },
    {
      "type": "Feature",
      "properties": {
        "name": "Uritsk"
      },
      "geometry": {
        "coordinates": [
          30.17528,
          59.83889
        ],
        "type": "Point"
      }
    },
    {
      "type": "Feature",
      "properties": {
        "name": "Uren'"
      },
      "geometry": {
        "coordinates": [
          45.78522,
          57.45516
        ],
        "type": "Point"
      }
    },
    {
      "type": "Feature",
      "properties": {
        "name": "Urdoma"
      },
      "geometry": {
        "coordinates": [
          48.5442,
          61.75335
        ],
        "type": "Point"
      }
    },
    {
      "type": "Feature",
      "properties": {
        "name": "Urazovo"
      },
      "geometry": {
        "coordinates": [
          38.0395,
          50.0836
        ],
        "type": "Point"
      }
    },
    {
      "type": "Feature",
      "properties": {
        "name": "Urazovka"
      },
      "geometry": {
        "coordinates": [
          45.6186,
          55.40126
        ],
        "type": "Point"
      }
    },
    {
      "type": "Feature",
      "properties": {
        "name": "Upornaya"
      },
      "geometry": {
        "coordinates": [
          41.0196,
          44.3914
        ],
        "type": "Point"
      }
    },
    {
      "type": "Feature",
      "properties": {
        "name": "Untsukul'"
      },
      "geometry": {
        "coordinates": [
          46.78663,
          42.71149
        ],
        "type": "Point"
      }
    },
    {
      "type": "Feature",
      "properties": {
        "name": "Unecha"
      },
      "geometry": {
        "coordinates": [
          32.67394,
          52.84591
        ],
        "type": "Point"
      }
    },
    {
      "type": "Feature",
      "properties": {
        "name": "Umet"
      },
      "geometry": {
        "coordinates": [
          42.6975,
          54.11611
        ],
        "type": "Point"
      }
    },
    {
      "type": "Feature",
      "properties": {
        "name": "Umba"
      },
      "geometry": {
        "coordinates": [
          34.34291,
          66.68706
        ],
        "type": "Point"
      }
    },
    {
      "type": "Feature",
      "properties": {
        "name": "Ul'yanovka"
      },
      "geometry": {
        "coordinates": [
          30.76472,
          59.63944
        ],
        "type": "Point"
      }
    },
    {
      "type": "Feature",
      "properties": {
        "name": "Ullubiyaul"
      },
      "geometry": {
        "coordinates": [
          47.71825,
          42.59689
        ],
        "type": "Point"
      }
    },
    {
      "type": "Feature",
      "properties": {
        "name": "Ulluaya"
      },
      "geometry": {
        "coordinates": [
          47.37451,
          42.37377
        ],
        "type": "Point"
      }
    },
    {
      "type": "Feature",
      "properties": {
        "name": "Ukhta"
      },
      "geometry": {
        "coordinates": [
          53.68348,
          63.56705
        ],
        "type": "Point"
      }
    },
    {
      "type": "Feature",
      "properties": {
        "name": "Ukholovo"
      },
      "geometry": {
        "coordinates": [
          40.4892,
          53.7929
        ],
        "type": "Point"
      }
    },
    {
      "type": "Feature",
      "properties": {
        "name": "Ugra"
      },
      "geometry": {
        "coordinates": [
          34.32674,
          54.77775
        ],
        "type": "Point"
      }
    },
    {
      "type": "Feature",
      "properties": {
        "name": "Uglyanets"
      },
      "geometry": {
        "coordinates": [
          39.59606,
          51.81908
        ],
        "type": "Point"
      }
    },
    {
      "type": "Feature",
      "properties": {
        "name": "Uglovka"
      },
      "geometry": {
        "coordinates": [
          33.51083,
          58.23917
        ],
        "type": "Point"
      }
    },
    {
      "type": "Feature",
      "properties": {
        "name": "Uglich"
      },
      "geometry": {
        "coordinates": [
          38.33167,
          57.5275
        ],
        "type": "Point"
      }
    },
    {
      "type": "Feature",
      "properties": {
        "name": "Uglerodovskiy"
      },
      "geometry": {
        "coordinates": [
          40.06352,
          48.14558
        ],
        "type": "Point"
      }
    },
    {
      "type": "Feature",
      "properties": {
        "name": "Uglegorskiy"
      },
      "geometry": {
        "coordinates": [
          41.2531,
          48.24274
        ],
        "type": "Point"
      }
    },
    {
      "type": "Feature",
      "properties": {
        "name": "Udobnaya"
      },
      "geometry": {
        "coordinates": [
          41.5529,
          44.1932
        ],
        "type": "Point"
      }
    },
    {
      "type": "Feature",
      "properties": {
        "name": "Udimskiy"
      },
      "geometry": {
        "coordinates": [
          45.91443,
          61.14171
        ],
        "type": "Point"
      }
    },
    {
      "type": "Feature",
      "properties": {
        "name": "Udel'naya"
      },
      "geometry": {
        "coordinates": [
          30.31815,
          60.01636
        ],
        "type": "Point"
      }
    },
    {
      "type": "Feature",
      "properties": {
        "name": "Udel'naya"
      },
      "geometry": {
        "coordinates": [
          38.00285,
          55.62536
        ],
        "type": "Point"
      }
    },
    {
      "type": "Feature",
      "properties": {
        "name": "Uchkulan"
      },
      "geometry": {
        "coordinates": [
          42.09643,
          43.45705
        ],
        "type": "Point"
      }
    },
    {
      "type": "Feature",
      "properties": {
        "name": "Uchkeken"
      },
      "geometry": {
        "coordinates": [
          42.51167,
          43.93778
        ],
        "type": "Point"
      }
    },
    {
      "type": "Feature",
      "properties": {
        "name": "Tyulyachi"
      },
      "geometry": {
        "coordinates": [
          50.23992,
          55.89125
        ],
        "type": "Point"
      }
    },
    {
      "type": "Feature",
      "properties": {
        "name": "Tyrnyauz"
      },
      "geometry": {
        "coordinates": [
          42.91833,
          43.38278
        ],
        "type": "Point"
      }
    },
    {
      "type": "Feature",
      "properties": {
        "name": "Tyarlevo"
      },
      "geometry": {
        "coordinates": [
          30.44543,
          59.70777
        ],
        "type": "Point"
      }
    },
    {
      "type": "Feature",
      "properties": {
        "name": "Tver"
      },
      "geometry": {
        "coordinates": [
          35.90057,
          56.85836
        ],
        "type": "Point"
      }
    },
    {
      "type": "Feature",
      "properties": {
        "name": "Tutayev"
      },
      "geometry": {
        "coordinates": [
          39.5406,
          57.88529
        ],
        "type": "Point"
      }
    },
    {
      "type": "Feature",
      "properties": {
        "name": "Turgenevo"
      },
      "geometry": {
        "coordinates": [
          46.32968,
          54.84555
        ],
        "type": "Point"
      }
    },
    {
      "type": "Feature",
      "properties": {
        "name": "Tunoshna"
      },
      "geometry": {
        "coordinates": [
          40.12543,
          57.54589
        ],
        "type": "Point"
      }
    },
    {
      "type": "Feature",
      "properties": {
        "name": "Tuma"
      },
      "geometry": {
        "coordinates": [
          40.55374,
          55.14798
        ],
        "type": "Point"
      }
    },
    {
      "type": "Feature",
      "properties": {
        "name": "Tul'skiy"
      },
      "geometry": {
        "coordinates": [
          40.17889,
          44.51361
        ],
        "type": "Point"
      }
    },
    {
      "type": "Feature",
      "properties": {
        "name": "Tula"
      },
      "geometry": {
        "coordinates": [
          37.61822,
          54.19609
        ],
        "type": "Point"
      }
    },
    {
      "type": "Feature",
      "properties": {
        "name": "Tugolesskiy Bor"
      },
      "geometry": {
        "coordinates": [
          39.82422,
          55.55051
        ],
        "type": "Point"
      }
    },
    {
      "type": "Feature",
      "properties": {
        "name": "Tuchkovo"
      },
      "geometry": {
        "coordinates": [
          36.46806,
          55.60111
        ],
        "type": "Point"
      }
    },
    {
      "type": "Feature",
      "properties": {
        "name": "Tuapse"
      },
      "geometry": {
        "coordinates": [
          39.0802,
          44.1053
        ],
        "type": "Point"
      }
    },
    {
      "type": "Feature",
      "properties": {
        "name": "Tsurib"
      },
      "geometry": {
        "coordinates": [
          46.83073,
          42.2368
        ],
        "type": "Point"
      }
    },
    {
      "type": "Feature",
      "properties": {
        "name": "Tsivil'sk"
      },
      "geometry": {
        "coordinates": [
          47.47874,
          55.86974
        ],
        "type": "Point"
      }
    },
    {
      "type": "Feature",
      "properties": {
        "name": "Tsimlyansk"
      },
      "geometry": {
        "coordinates": [
          42.10194,
          47.64611
        ],
        "type": "Point"
      }
    },
    {
      "type": "Feature",
      "properties": {
        "name": "Tsentoroy"
      },
      "geometry": {
        "coordinates": [
          46.22235,
          43.00658
        ],
        "type": "Point"
      }
    },
    {
      "type": "Feature",
      "properties": {
        "name": "Tselina"
      },
      "geometry": {
        "coordinates": [
          41.03284,
          46.53381
        ],
        "type": "Point"
      }
    },
    {
      "type": "Feature",
      "properties": {
        "name": "Tsagan Aman"
      },
      "geometry": {
        "coordinates": [
          46.7218,
          47.5639
        ],
        "type": "Point"
      }
    },
    {
      "type": "Feature",
      "properties": {
        "name": "Trunovskoye"
      },
      "geometry": {
        "coordinates": [
          42.13583,
          45.48778
        ],
        "type": "Point"
      }
    },
    {
      "type": "Feature",
      "properties": {
        "name": "Trudobelikovskiy"
      },
      "geometry": {
        "coordinates": [
          38.15376,
          45.26853
        ],
        "type": "Point"
      }
    },
    {
      "type": "Feature",
      "properties": {
        "name": "Trubchevsk"
      },
      "geometry": {
        "coordinates": [
          33.7644,
          52.5798
        ],
        "type": "Point"
      }
    },
    {
      "type": "Feature",
      "properties": {
        "name": "Trosna"
      },
      "geometry": {
        "coordinates": [
          35.7791,
          52.4446
        ],
        "type": "Point"
      }
    },
    {
      "type": "Feature",
      "properties": {
        "name": "Troparevo"
      },
      "geometry": {
        "coordinates": [
          37.48496,
          55.65625
        ],
        "type": "Point"
      }
    },
    {
      "type": "Feature",
      "properties": {
        "name": "Troitskoye"
      },
      "geometry": {
        "coordinates": [
          38.53333,
          55.3
        ],
        "type": "Point"
      }
    },
    {
      "type": "Feature",
      "properties": {
        "name": "Troitskoye"
      },
      "geometry": {
        "coordinates": [
          44.2591,
          46.4206
        ],
        "type": "Point"
      }
    },
    {
      "type": "Feature",
      "properties": {
        "name": "Troitskoye"
      },
      "geometry": {
        "coordinates": [
          44.68415,
          43.76219
        ],
        "type": "Point"
      }
    },
    {
      "type": "Feature",
      "properties": {
        "name": "Troitsko-Pechorsk"
      },
      "geometry": {
        "coordinates": [
          56.19643,
          62.70836
        ],
        "type": "Point"
      }
    },
    {
      "type": "Feature",
      "properties": {
        "name": "Troitskiy"
      },
      "geometry": {
        "coordinates": [
          37.5253,
          51.3588
        ],
        "type": "Point"
      }
    },
    {
      "type": "Feature",
      "properties": {
        "name": "Troitskaya"
      },
      "geometry": {
        "coordinates": [
          38.12544,
          45.13493
        ],
        "type": "Point"
      }
    },
    {
      "type": "Feature",
      "properties": {
        "name": "Troitskaya"
      },
      "geometry": {
        "coordinates": [
          44.98395,
          43.30664
        ],
        "type": "Point"
      }
    },
    {
      "type": "Feature",
      "properties": {
        "name": "Troitsk"
      },
      "geometry": {
        "coordinates": [
          37.30736,
          55.48498
        ],
        "type": "Point"
      }
    },
    {
      "type": "Feature",
      "properties": {
        "name": "Tpig"
      },
      "geometry": {
        "coordinates": [
          47.58896,
          41.78007
        ],
        "type": "Point"
      }
    },
    {
      "type": "Feature",
      "properties": {
        "name": "Tovarkovskiy"
      },
      "geometry": {
        "coordinates": [
          38.2092,
          53.68217
        ],
        "type": "Point"
      }
    },
    {
      "type": "Feature",
      "properties": {
        "name": "Tovarkovo"
      },
      "geometry": {
        "coordinates": [
          35.9386,
          54.67617
        ],
        "type": "Point"
      }
    },
    {
      "type": "Feature",
      "properties": {
        "name": "Tot'ma"
      },
      "geometry": {
        "coordinates": [
          42.76487,
          59.97375
        ],
        "type": "Point"
      }
    },
    {
      "type": "Feature",
      "properties": {
        "name": "Tosno"
      },
      "geometry": {
        "coordinates": [
          30.8775,
          59.54
        ],
        "type": "Point"
      }
    },
    {
      "type": "Feature",
      "properties": {
        "name": "Torzhok"
      },
      "geometry": {
        "coordinates": [
          34.96221,
          57.0436
        ],
        "type": "Point"
      }
    },
    {
      "type": "Feature",
      "properties": {
        "name": "Toropets"
      },
      "geometry": {
        "coordinates": [
          31.63528,
          56.49779
        ],
        "type": "Point"
      }
    },
    {
      "type": "Feature",
      "properties": {
        "name": "Torbeyevo"
      },
      "geometry": {
        "coordinates": [
          43.24732,
          54.07972
        ],
        "type": "Point"
      }
    },
    {
      "type": "Feature",
      "properties": {
        "name": "Tonshayevo"
      },
      "geometry": {
        "coordinates": [
          47.01265,
          57.73598
        ],
        "type": "Point"
      }
    },
    {
      "type": "Feature",
      "properties": {
        "name": "Tonkino"
      },
      "geometry": {
        "coordinates": [
          46.46294,
          57.37257
        ],
        "type": "Point"
      }
    },
    {
      "type": "Feature",
      "properties": {
        "name": "Tomsino"
      },
      "geometry": {
        "coordinates": [
          28.53905,
          56.45067
        ],
        "type": "Point"
      }
    },
    {
      "type": "Feature",
      "properties": {
        "name": "Tomilino"
      },
      "geometry": {
        "coordinates": [
          37.94713,
          55.65619
        ],
        "type": "Point"
      }
    },
    {
      "type": "Feature",
      "properties": {
        "name": "Tomarovka"
      },
      "geometry": {
        "coordinates": [
          36.23309,
          50.68338
        ],
        "type": "Point"
      }
    },
    {
      "type": "Feature",
      "properties": {
        "name": "Tolstoy-Yurt"
      },
      "geometry": {
        "coordinates": [
          45.77901,
          43.44548
        ],
        "type": "Point"
      }
    },
    {
      "type": "Feature",
      "properties": {
        "name": "Tolstopal'tsevo"
      },
      "geometry": {
        "coordinates": [
          37.21834,
          55.61026
        ],
        "type": "Point"
      }
    },
    {
      "type": "Feature",
      "properties": {
        "name": "Tolmachevo"
      },
      "geometry": {
        "coordinates": [
          29.91091,
          58.85973
        ],
        "type": "Point"
      }
    },
    {
      "type": "Feature",
      "properties": {
        "name": "Toksovo"
      },
      "geometry": {
        "coordinates": [
          30.51646,
          60.15323
        ],
        "type": "Point"
      }
    },
    {
      "type": "Feature",
      "properties": {
        "name": "Tlyustenkhabl'"
      },
      "geometry": {
        "coordinates": [
          39.09773,
          44.982
        ],
        "type": "Point"
      }
    },
    {
      "type": "Feature",
      "properties": {
        "name": "Tlyarata"
      },
      "geometry": {
        "coordinates": [
          46.3559,
          42.10408
        ],
        "type": "Point"
      }
    },
    {
      "type": "Feature",
      "properties": {
        "name": "Tishchenskoye"
      },
      "geometry": {
        "coordinates": [
          41.67382,
          45.46056
        ],
        "type": "Point"
      }
    },
    {
      "type": "Feature",
      "properties": {
        "name": "Timashevsk"
      },
      "geometry": {
        "coordinates": [
          38.94528,
          45.61694
        ],
        "type": "Point"
      }
    },
    {
      "type": "Feature",
      "properties": {
        "name": "Tim"
      },
      "geometry": {
        "coordinates": [
          37.12444,
          51.62222
        ],
        "type": "Point"
      }
    },
    {
      "type": "Feature",
      "properties": {
        "name": "Tikhvin"
      },
      "geometry": {
        "coordinates": [
          33.52937,
          59.64511
        ],
        "type": "Point"
      }
    },
    {
      "type": "Feature",
      "properties": {
        "name": "Tikhoretsk"
      },
      "geometry": {
        "coordinates": [
          40.12528,
          45.85472
        ],
        "type": "Point"
      }
    },
    {
      "type": "Feature",
      "properties": {
        "name": "Teykovo"
      },
      "geometry": {
        "coordinates": [
          40.53692,
          56.85796
        ],
        "type": "Point"
      }
    },
    {
      "type": "Feature",
      "properties": {
        "name": "Adygeysk"
      },
      "geometry": {
        "coordinates": [
          39.19071,
          44.88414
        ],
        "type": "Point"
      }
    },
    {
      "type": "Feature",
      "properties": {
        "name": "Tetyushi"
      },
      "geometry": {
        "coordinates": [
          48.83656,
          54.93821
        ],
        "type": "Point"
      }
    },
    {
      "type": "Feature",
      "properties": {
        "name": "Teryayevo"
      },
      "geometry": {
        "coordinates": [
          36.12545,
          56.16974
        ],
        "type": "Point"
      }
    },
    {
      "type": "Feature",
      "properties": {
        "name": "Terskol"
      },
      "geometry": {
        "coordinates": [
          42.51528,
          43.25528
        ],
        "type": "Point"
      }
    },
    {
      "type": "Feature",
      "properties": {
        "name": "Terskaya"
      },
      "geometry": {
        "coordinates": [
          44.72442,
          43.72376
        ],
        "type": "Point"
      }
    },
    {
      "type": "Feature",
      "properties": {
        "name": "Ternevskaya"
      },
      "geometry": {
        "coordinates": [
          40.4125,
          45.8513
        ],
        "type": "Point"
      }
    },
    {
      "type": "Feature",
      "properties": {
        "name": "Ternovka"
      },
      "geometry": {
        "coordinates": [
          41.6375,
          51.67803
        ],
        "type": "Point"
      }
    },
    {
      "type": "Feature",
      "properties": {
        "name": "Teriberka"
      },
      "geometry": {
        "coordinates": [
          35.14527,
          69.16088
        ],
        "type": "Point"
      }
    },
    {
      "type": "Feature",
      "properties": {
        "name": "Tereze"
      },
      "geometry": {
        "coordinates": [
          42.4434,
          43.93608
        ],
        "type": "Point"
      }
    },
    {
      "type": "Feature",
      "properties": {
        "name": "Terekli-Mekteb"
      },
      "geometry": {
        "coordinates": [
          45.86975,
          44.1671
        ],
        "type": "Point"
      }
    },
    {
      "type": "Feature",
      "properties": {
        "name": "Terek"
      },
      "geometry": {
        "coordinates": [
          44.13611,
          43.48333
        ],
        "type": "Point"
      }
    },
    {
      "type": "Feature",
      "properties": {
        "name": "Terbuny"
      },
      "geometry": {
        "coordinates": [
          38.2834,
          52.1493
        ],
        "type": "Point"
      }
    },
    {
      "type": "Feature",
      "properties": {
        "name": "Tyoply Stan"
      },
      "geometry": {
        "coordinates": [
          37.49338,
          55.62047
        ],
        "type": "Point"
      }
    },
    {
      "type": "Feature",
      "properties": {
        "name": "Teploye"
      },
      "geometry": {
        "coordinates": [
          37.59026,
          53.62022
        ],
        "type": "Point"
      }
    },
    {
      "type": "Feature",
      "properties": {
        "name": "Ten'gushevo"
      },
      "geometry": {
        "coordinates": [
          42.71889,
          54.76861
        ],
        "type": "Point"
      }
    },
    {
      "type": "Feature",
      "properties": {
        "name": "Temryuk"
      },
      "geometry": {
        "coordinates": [
          37.38716,
          45.27055
        ],
        "type": "Point"
      }
    },
    {
      "type": "Feature",
      "properties": {
        "name": "Temnikov"
      },
      "geometry": {
        "coordinates": [
          43.21483,
          54.63023
        ],
        "type": "Point"
      }
    },
    {
      "type": "Feature",
      "properties": {
        "name": "Temkino"
      },