{
  "type": "FeatureCollection",
  "features": [
    {
      "type": "Feature",
      "properties": {
        "name": "Zyrzyn"
      },
      "geometry": {
        "coordinates": [
          22.0917,
          51.49918
        ],
        "type": "Point"
      }
    },
    {
      "type": "Feature",
      "properties": {
        "name": "Zyrardow"
      },
      "geometry": {
        "coordinates": [
          20.44599,
          52.0488
        ],
        "type": "Point"
      }
    },
    {
      "type": "Feature",
      "properties": {
        "name": "Zyrakow"
      },
      "geometry": {
        "coordinates": [
          21.39622,
          50.08545
        ],
        "type": "Point"
      }
    },
    {
      "type": "Feature",
      "properties": {
        "name": "Zwolen"
      },
      "geometry": {
        "coordinates": [
          21.58768,
          51.35542
        ],
        "type": "Point"
      }
    },
    {
      "type": "Feature",
      "properties": {
        "name": "Zwierzyniec"
      },
      "geometry": {
        "coordinates": [
          22.97512,
          50.614
        ],
        "type": "Point"
      }
    },
    {
      "type": "Feature",
      "properties": {
        "name": "Zurowa"
      },
      "geometry": {
        "coordinates": [
          21.16894,
          49.82636
        ],
        "type": "Point"
      }
    },
    {
      "type": "Feature",
      "properties": {
        "name": "Zurawiczki"
      },
      "geometry": {
        "coordinates": [
          22.49949,
          50.0137
        ],
        "type": "Point"
      }
    },
    {
      "type": "Feature",
      "properties": {
        "name": "Zurawica"
      },
      "geometry": {
        "coordinates": [
          22.78925,
          49.82348
        ],
        "type": "Point"
      }
    },
    {
      "type": "Feature",
      "properties": {
        "name": "Zolynia"
      },
      "geometry": {
        "coordinates": [
          22.30825,
          50.162
        ],
        "type": "Point"
      }
    },
    {
      "type": "Feature",
      "properties": {
        "name": "Zolkiewka"
      },
      "geometry": {
        "coordinates": [
          22.83465,
          50.90991
        ],
        "type": "Point"
      }
    },
    {
      "type": "Feature",
      "properties": {
        "name": "Zoliborz"
      },
      "geometry": {
        "coordinates": [
          20.98644,
          52.26896
        ],
        "type": "Point"
      }
    },
    {
      "type": "Feature",
      "properties": {
        "name": "Zmiennica"
      },
      "geometry": {
        "coordinates": [
          21.96596,
          49.67652
        ],
        "type": "Point"
      }
    },
    {
      "type": "Feature",
      "properties": {
        "name": "Zlota"
      },
      "geometry": {
        "coordinates": [
          20.59361,
          50.3816
        ],
        "type": "Point"
      }
    },
    {
      "type": "Feature",
      "properties": {
        "name": "Zlota"
      },
      "geometry": {
        "coordinates": [
          20.69326,
          49.88059
        ],
        "type": "Point"
      }
    },
    {
      "type": "Feature",
      "properties": {
        "name": "Zielonka"
      },
      "geometry": {
        "coordinates": [
          21.16018,
          52.30376
        ],
        "type": "Point"
      }
    },
    {
      "type": "Feature",
      "properties": {
        "name": "Zglobien"
      },
      "geometry": {
        "coordinates": [
          21.8549,
          50.0127
        ],
        "type": "Point"
      }
    },
    {
      "type": "Feature",
      "properties": {
        "name": "Zelechow"
      },
      "geometry": {
        "coordinates": [
          21.89721,
          51.81051
        ],
        "type": "Point"
      }
    },
    {
      "type": "Feature",
      "properties": {
        "name": "Zelechlinek"
      },
      "geometry": {
        "coordinates": [
          20.0346,
          51.71214
        ],
        "type": "Point"
      }
    },
    {
      "type": "Feature",
      "properties": {
        "name": "Zegocina"
      },
      "geometry": {
        "coordinates": [
          20.41964,
          49.81395
        ],
        "type": "Point"
      }
    },
    {
      "type": "Feature",
      "properties": {
        "name": "Zbuczyn"
      },
      "geometry": {
        "coordinates": [
          22.43829,
          52.08974
        ],
        "type": "Point"
      }
    },
    {
      "type": "Feature",
      "properties": {
        "name": "Zbojna"
      },
      "geometry": {
        "coordinates": [
          21.78812,
          53.24293
        ],
        "type": "Point"
      }
    },
    {
      "type": "Feature",
      "properties": {
        "name": "Zawichost"
      },
      "geometry": {
        "coordinates": [
          21.85408,
          50.80743
        ],
        "type": "Point"
      }
    },
    {
      "type": "Feature",
      "properties": {
        "name": "Zatory"
      },
      "geometry": {
        "coordinates": [
          21.18258,
          52.59929
        ],
        "type": "Point"
      }
    },
    {
      "type": "Feature",
      "properties": {
        "name": "Zarzecze"
      },
      "geometry": {
        "coordinates": [
          22.19522,
          50.52767
        ],
        "type": "Point"
      }
    },
    {
      "type": "Feature",
      "properties": {
        "name": "Zarzecze"
      },
      "geometry": {
        "coordinates": [
          22.53716,
          49.98633
        ],
        "type": "Point"
      }
    },
    {
      "type": "Feature",
      "properties": {
        "name": "Zarszyn"
      },
      "geometry": {
        "coordinates": [
          22.01283,
          49.58178
        ],
        "type": "Point"
      }
    },
    {
      "type": "Feature",
      "properties": {
        "name": "Zarnow"
      },
      "geometry": {
        "coordinates": [
          20.17476,
          51.24607
        ],
        "type": "Point"
      }
    },
    {
      "type": "Feature",
      "properties": {
        "name": "Zamosc"
      },
      "geometry": {
        "coordinates": [
          23.25196,
          50.72314
        ],
        "type": "Point"
      }
    },
    {
      "type": "Feature",
      "properties": {
        "name": "Zamch"
      },
      "geometry": {
        "coordinates": [
          23.02786,
          50.31713
        ],
        "type": "Point"
      }
    },
    {
      "type": "Feature",
      "properties": {
        "name": "Zambrow"
      },
      "geometry": {
        "coordinates": [
          22.24319,
          52.9855
        ],
        "type": "Point"
      }
    },
    {
      "type": "Feature",
      "properties": {
        "name": "Zaluski"
      },
      "geometry": {
        "coordinates": [
          20.52864,
          52.51152
        ],
        "type": "Point"
      }
    },
    {
      "type": "Feature",
      "properties": {
        "name": "Zaleszany"
      },
      "geometry": {
        "coordinates": [
          21.89069,
          50.64799
        ],
        "type": "Point"
      }
    },
    {
      "type": "Feature",
      "properties": {
        "name": "Zalesie Gorne"
      },
      "geometry": {
        "coordinates": [
          21.03659,
          52.02768
        ],
        "type": "Point"
      }
    },
    {
      "type": "Feature",
      "properties": {
        "name": "Zalesie"
      },
      "geometry": {
        "coordinates": [
          23.3636,
          52.03743
        ],
        "type": "Point"
      }
    },
    {
      "type": "Feature",
      "properties": {
        "name": "Zakrzowek"
      },
      "geometry": {
        "coordinates": [
          22.38138,
          50.95124
        ],
        "type": "Point"
      }
    },
    {
      "type": "Feature",
      "properties": {
        "name": "Zakrzew"
      },
      "geometry": {
        "coordinates": [
          21.00105,
          51.44095
        ],
        "type": "Point"
      }
    },
    {
      "type": "Feature",
      "properties": {
        "name": "Zakrzew"
      },
      "geometry": {
        "coordinates": [
          22.59115,
          50.89004
        ],
        "type": "Point"
      }
    },
    {
      "type": "Feature",
      "properties": {
        "name": "Zakroczym"
      },
      "geometry": {
        "coordinates": [
          20.61207,
          52.43351
        ],
        "type": "Point"
      }
    },
    {
      "type": "Feature",
      "properties": {
        "name": "Zaklikow"
      },
      "geometry": {
        "coordinates": [
          22.10226,
          50.75769
        ],
        "type": "Point"
      }
    },
    {
      "type": "Feature",
      "properties": {
        "name": "Zakliczyn"
      },
      "geometry": {
        "coordinates": [
          20.80935,
          49.85589
        ],
        "type": "Point"
      }
    },
    {
      "type": "Feature",
      "properties": {
        "name": "Zagorzyce"
      },
      "geometry": {
        "coordinates": [
          21.67517,
          50.0169
        ],
        "type": "Point"
      }
    },
    {
      "type": "Feature",
      "properties": {
        "name": "Zagorz"
      },
      "geometry": {
        "coordinates": [
          22.26706,
          49.51457
        ],
        "type": "Point"
      }
    },
    {
      "type": "Feature",
      "properties": {
        "name": "Zagnansk"
      },
      "geometry": {
        "coordinates": [
          20.66314,
          50.98037
        ],
        "type": "Point"
      }
    },
    {
      "type": "Feature",
      "properties": {
        "name": "Zabno"
      },
      "geometry": {
        "coordinates": [
          20.88615,
          50.13334
        ],
        "type": "Point"
      }
    },
    {
      "type": "Feature",
      "properties": {
        "name": "Zabludow"
      },
      "geometry": {
        "coordinates": [
          23.33831,
          53.01442
        ],
        "type": "Point"
      }
    },
    {
      "type": "Feature",
      "properties": {
        "name": "Zabki"
      },
      "geometry": {
        "coordinates": [
          21.10539,
          52.29271
        ],
        "type": "Point"
      }
    },
    {
      "type": "Feature",
      "properties": {
        "name": "Zabierzow Bochenski"
      },
      "geometry": {
        "coordinates": [
          20.31896,
          50.06821
        ],
        "type": "Point"
      }
    },
    {
      "type": "Feature",
      "properties": {
        "name": "Zabieniec"
      },
      "geometry": {
        "coordinates": [
          21.04817,
          52.05856
        ],
        "type": "Point"
      }
    },
    {
      "type": "Feature",
      "properties": {
        "name": "Zabia Wola"
      },
      "geometry": {
        "coordinates": [
          20.69112,
          52.03169
        ],
        "type": "Point"
      }
    },
    {
      "type": "Feature",
      "properties": {
        "name": "Wyszogrod"
      },
      "geometry": {
        "coordinates": [
          20.19081,
          52.38988
        ],
        "type": "Point"
      }
    },
    {
      "type": "Feature",
      "properties": {
        "name": "Wyszkow"
      },
      "geometry": {
        "coordinates": [
          21.4584,
          52.59278
        ],
        "type": "Point"
      }
    },
    {
      "type": "Feature",
      "properties": {
        "name": "Wyszki"
      },
      "geometry": {
        "coordinates": [
          22.98119,
          52.84129
        ],
        "type": "Point"
      }
    },
    {
      "type": "Feature",
      "properties": {
        "name": "Wysokie Mazowieckie"
      },
      "geometry": {
        "coordinates": [
          22.51712,
          52.91661
        ],
        "type": "Point"
      }
    },
    {
      "type": "Feature",
      "properties": {
        "name": "Wysokie"
      },
      "geometry": {
        "coordinates": [
          22.666,
          50.91093
        ],
        "type": "Point"
      }
    },
    {
      "type": "Feature",
      "properties": {
        "name": "Wysoka Strzyzowska"
      },
      "geometry": {
        "coordinates": [
          21.74074,
          49.83056
        ],
        "type": "Point"
      }
    },
    {
      "type": "Feature",
      "properties": {
        "name": "Wysoka Glogowska"
      },
      "geometry": {
        "coordinates": [
          22.02124,
          50.16019
        ],
        "type": "Point"
      }
    },
    {
      "type": "Feature",
      "properties": {
        "name": "Wysoka"
      },
      "geometry": {
        "coordinates": [
          22.26002,
          50.04474
        ],
        "type": "Point"
      }
    },
    {
      "type": "Feature",
      "properties": {
        "name": "Wysmierzyce"
      },
      "geometry": {
        "coordinates": [
          20.81394,
          51.62494
        ],
        "type": "Point"
      }
    },
    {
      "type": "Feature",
      "properties": {
        "name": "Wydminy"
      },
      "geometry": {
        "coordinates": [
          22.03239,
          53.98194
        ],
        "type": "Point"
      }
    },
    {
      "type": "Feature",
      "properties": {
        "name": "Wolomin"
      },
      "geometry": {
        "coordinates": [
          21.24207,
          52.34006
        ],
        "type": "Point"
      }
    },
    {
      "type": "Feature",
      "properties": {
        "name": "Wolka Tanewska"
      },
      "geometry": {
        "coordinates": [
          22.26113,
          50.50005
        ],
        "type": "Point"
      }
    },
    {
      "type": "Feature",
      "properties": {
        "name": "Wolka Podlesna"
      },
      "geometry": {
        "coordinates": [
          22.11213,
          50.11785
        ],
        "type": "Point"
      }
    },
    {
      "type": "Feature",
      "properties": {
        "name": "Wolka Pelkinska"
      },
      "geometry": {
        "coordinates": [
          22.62342,
          50.09553
        ],
        "type": "Point"
      }
    },
    {
      "type": "Feature",
      "properties": {
        "name": "Wolka Niedzwiedzka"
      },
      "geometry": {
        "coordinates": [
          22.18826,
          50.24226
        ],
        "type": "Point"
      }
    },
    {
      "type": "Feature",
      "properties": {
        "name": "Wola Zarczycka"
      },
      "geometry": {
        "coordinates": [
          22.25023,
          50.2912
        ],
        "type": "Point"
      }
    },
    {
      "type": "Feature",
      "properties": {
        "name": "Wola Zabierzowska"
      },
      "geometry": {
        "coordinates": [
          20.33217,
          50.07257
        ],
        "type": "Point"
      }
    },
    {
      "type": "Feature",
      "properties": {
        "name": "Wola Uhruska"
      },
      "geometry": {
        "coordinates": [
          23.62627,
          51.32139
        ],
        "type": "Point"
      }
    },
    {
      "type": "Feature",
      "properties": {
        "name": "Wola Sernicka"
      },
      "geometry": {
        "coordinates": [
          22.68351,
          51.44978
        ],
        "type": "Point"
      }
    },
    {
      "type": "Feature",
      "properties": {
        "name": "Wola Rebkowska"
      },
      "geometry": {
        "coordinates": [
          21.55818,
          51.90181
        ],
        "type": "Point"
      }
    },
    {
      "type": "Feature",
      "properties": {
        "name": "Wolanow"
      },
      "geometry": {
        "coordinates": [
          20.97702,
          51.3803
        ],
        "type": "Point"
      }
    },
    {
      "type": "Feature",
      "properties": {
        "name": "Wola Jachowa"
      },
      "geometry": {
        "coordinates": [
          20.85814,
          50.84524
        ],
        "type": "Point"
      }
    },
    {
      "type": "Feature",
      "properties": {
        "name": "Wola Debinska"
      },
      "geometry": {
        "coordinates": [
          20.68777,
          49.98214
        ],
        "type": "Point"
      }
    },
    {
      "type": "Feature",
      "properties": {
        "name": "Wola Batorska"
      },
      "geometry": {
        "coordinates": [
          20.26617,
          50.05262
        ],
        "type": "Point"
      }
    },
    {
      "type": "Feature",
      "properties": {
        "name": "Wola"
      },
      "geometry": {
        "coordinates": [
          20.98869,
          52.2401
        ],
        "type": "Point"
      }
    },
    {
      "type": "Feature",
      "properties": {
        "name": "Wojslawice"
      },
      "geometry": {
        "coordinates": [
          23.54602,
          50.91916
        ],
        "type": "Point"
      }
    },
    {
      "type": "Feature",
      "properties": {
        "name": "Wojnicz"
      },
      "geometry": {
        "coordinates": [
          20.83785,
          49.958
        ],
        "type": "Point"
      }
    },
    {
      "type": "Feature",
      "properties": {
        "name": "Wojcieszkow"
      },
      "geometry": {
        "coordinates": [
          22.31589,
          51.76922
        ],
        "type": "Point"
      }
    },
    {
      "type": "Feature",
      "properties": {
        "name": "Wojciechowice"
      },
      "geometry": {
        "coordinates": [
          21.58942,
          50.84226
        ],
        "type": "Point"
      }
    },
    {
      "type": "Feature",
      "properties": {
        "name": "Wojciechow"
      },
      "geometry": {
        "coordinates": [
          22.24551,
          51.23543
        ],
        "type": "Point"
      }
    },
    {
      "type": "Feature",
      "properties": {
        "name": "Wojaszowka"
      },
      "geometry": {
        "coordinates": [
          21.67079,
          49.77777
        ],
        "type": "Point"
      }
    },
    {
      "type": "Feature",
      "properties": {
        "name": "Wohyn"
      },
      "geometry": {
        "coordinates": [
          22.78582,
          51.75642
        ],
        "type": "Point"
      }
    },
    {
      "type": "Feature",
      "properties": {
        "name": "Wodzislaw"
      },
      "geometry": {
        "coordinates": [
          20.1915,
          50.52047
        ],
        "type": "Point"
      }
    },
    {
      "type": "Feature",
      "properties": {
        "name": "Wodynie"
      },
      "geometry": {
        "coordinates": [
          21.95575,
          52.0404
        ],
        "type": "Point"
      }
    },
    {
      "type": "Feature",
      "properties": {
        "name": "Wlodawa"
      },
      "geometry": {
        "coordinates": [
          23.55,
          51.55
        ],
        "type": "Point"
      }
    },
    {
      "type": "Feature",
      "properties": {
        "name": "Wlochy"
      },
      "geometry": {
        "coordinates": [
          20.94612,
          52.17941
        ],
        "type": "Point"
      }
    },
    {
      "type": "Feature",
      "properties": {
        "name": "Wizna"
      },
      "geometry": {
        "coordinates": [
          22.38241,
          53.19518
        ],
        "type": "Point"
      }
    },
    {
      "type": "Feature",
      "properties": {
        "name": "Wisznice"
      },
      "geometry": {
        "coordinates": [
          23.20836,
          51.78924
        ],
        "type": "Point"
      }
    },
    {
      "type": "Feature",
      "properties": {
        "name": "Wisniowa"
      },
      "geometry": {
        "coordinates": [
          21.65508,
          49.86897
        ],
        "type": "Point"
      }
    },
    {
      "type": "Feature",
      "properties": {
        "name": "Wisniowa"
      },
      "geometry": {
        "coordinates": [
          20.11502,
          49.7878
        ],
        "type": "Point"
      }
    },
    {
      "type": "Feature",
      "properties": {
        "name": "Wisniew"
      },
      "geometry": {
        "coordinates": [
          22.29392,
          52.07265
        ],
        "type": "Point"
      }
    },
    {
      "type": "Feature",
      "properties": {
        "name": "Wislica"
      },
      "geometry": {
        "coordinates": [
          20.67438,
          50.34891
        ],
        "type": "Point"
      }
    },
    {
      "type": "Feature",
      "properties": {
        "name": "Wiskitki"
      },
      "geometry": {
        "coordinates": [
          20.38708,
          52.08831
        ],
        "type": "Point"
      }
    },
    {
      "type": "Feature",
      "properties": {
        "name": "Winnica"
      },
      "geometry": {
        "coordinates": [
          20.94114,
          52.64306
        ],
        "type": "Point"
      }
    },
    {
      "type": "Feature",
      "properties": {
        "name": "Wilkow"
      },
      "geometry": {
        "coordinates": [
          21.87756,
          51.26224
        ],
        "type": "Point"
      }
    },
    {
      "type": "Feature",
      "properties": {
        "name": "Wilkolaz"
      },
      "geometry": {
        "coordinates": [
          22.35014,
          51.01473
        ],
        "type": "Point"
      }
    },
    {
      "type": "Feature",
      "properties": {
        "name": "Wilga"
      },
      "geometry": {
        "coordinates": [
          21.37751,
          51.85211
        ],
        "type": "Point"
      }
    },
    {
      "type": "Feature",
      "properties": {
        "name": "Wilczyce"
      },
      "geometry": {
        "coordinates": [
          21.65783,
          50.74694
        ],
        "type": "Point"
      }
    },
    {
      "type": "Feature",
      "properties": {
        "name": "Wilanow"
      },
      "geometry": {
        "coordinates": [
          21.08748,
          52.16311
        ],
        "type": "Point"
      }
    },
    {
      "type": "Feature",
      "properties": {
        "name": "Wietrzychowice"
      },
      "geometry": {
        "coordinates": [
          20.76502,
          50.19097
        ],
        "type": "Point"
      }
    },
    {
      "type": "Feature",
      "properties": {
        "name": "Wierzchoslawice"
      },
      "geometry": {
        "coordinates": [
          20.85677,
          50.02478
        ],
        "type": "Point"
      }
    },
    {
      "type": "Feature",
      "properties": {
        "name": "Wierzbno"
      },
      "geometry": {
        "coordinates": [
          21.85902,
          52.31008
        ],
        "type": "Point"
      }
    },
    {
      "type": "Feature",
      "properties": {
        "name": "Wierzbna"
      },
      "geometry": {
        "coordinates": [
          22.60128,
          50.03311
        ],
        "type": "Point"
      }
    },
    {
      "type": "Feature",
      "properties": {
        "name": "Wierzbica"
      },
      "geometry": {
        "coordinates": [
          21.08259,
          51.2494
        ],
        "type": "Point"
      }
    },
    {
      "type": "Feature",
      "properties": {
        "name": "Wierzawice"
      },
      "geometry": {
        "coordinates": [
          22.4509,
          50.23623
        ],
        "type": "Point"
      }
    },
    {
      "type": "Feature",
      "properties": {
        "name": "Wieniawa"
      },
      "geometry": {
        "coordinates": [
          20.79489,
          51.36171
        ],
        "type": "Point"
      }
    },
    {
      "type": "Feature",
      "properties": {
        "name": "Wielopole Skrzynskie"
      },
      "geometry": {
        "coordinates": [
          21.61491,
          49.94564
        ],
        "type": "Point"
      }
    },
    {
      "type": "Feature",
      "properties": {
        "name": "Wielkie Oczy"
      },
      "geometry": {
        "coordinates": [
          23.16407,
          50.02357
        ],
        "type": "Point"
      }
    },
    {
      "type": "Feature",
      "properties": {
        "name": "Wielka Wies"
      },
      "geometry": {
        "coordinates": [
          20.96655,
          51.07107
        ],
        "type": "Point"
      }
    },
    {
      "type": "Feature",
      "properties": {
        "name": "Wielka Wies"
      },
      "geometry": {
        "coordinates": [
          20.82304,
          49.93631
        ],
        "type": "Point"
      }
    },
    {
      "type": "Feature",
      "properties": {
        "name": "Wieliszew"
      },
      "geometry": {
        "coordinates": [
          20.96827,
          52.4513
        ],
        "type": "Point"
      }
    },
    {
      "type": "Feature",
      "properties": {
        "name": "Wieliczka"
      },
      "geometry": {
        "coordinates": [
          20.06473,
          49.98738
        ],
        "type": "Point"
      }
    },
    {
      "type": "Feature",
      "properties": {
        "name": "Wielbark"
      },
      "geometry": {
        "coordinates": [
          20.94629,
          53.39858
        ],
        "type": "Point"
      }
    },
    {
      "type": "Feature",
      "properties": {
        "name": "Wieczfnia Koscielna"
      },
      "geometry": {
        "coordinates": [
          20.47637,
          53.19534
        ],
        "type": "Point"
      }
    },
    {
      "type": "Feature",
      "properties": {
        "name": "Wiazownica"
      },
      "geometry": {
        "coordinates": [
          22.70668,
          50.08066
        ],
        "type": "Point"
      }
    },
    {
      "type": "Feature",
      "properties": {
        "name": "Wesola"
      },
      "geometry": {
        "coordinates": [
          21.22407,
          52.25451
        ],
        "type": "Point"
      }
    },
    {
      "type": "Feature",
      "properties": {
        "name": "Wesola"
      },
      "geometry": {
        "coordinates": [
          22.10029,
          49.79977
        ],
        "type": "Point"
      }
    },
    {
      "type": "Feature",
      "properties": {
        "name": "Werbkowice"
      },
      "geometry": {
        "coordinates": [
          23.76411,
          50.75373
        ],
        "type": "Point"
      }
    },
    {
      "type": "Feature",
      "properties": {
        "name": "Wegrzce Wielkie"
      },
      "geometry": {
        "coordinates": [
          20.11082,
          50.01491
        ],
        "type": "Point"
      }
    },
    {
      "type": "Feature",
      "properties": {
        "name": "Wegrow"
      },
      "geometry": {
        "coordinates": [
          22.01634,
          52.39954
        ],
        "type": "Point"
      }
    },
    {
      "type": "Feature",
      "properties": {
        "name": "Wegorzewo"
      },
      "geometry": {
        "coordinates": [
          21.7372,
          54.21567
        ],
        "type": "Point"
      }
    },
    {
      "type": "Feature",
      "properties": {
        "name": "Weglowka"
      },
      "geometry": {
        "coordinates": [
          20.08575,
          49.73424
        ],
        "type": "Point"
      }
    },
    {
      "type": "Feature",
      "properties": {
        "name": "Wawrzenczyce"
      },
      "geometry": {
        "coordinates": [
          20.31612,
          50.11012
        ],
        "type": "Point"
      }
    },
    {
      "type": "Feature",
      "properties": {
        "name": "Wawolnica"
      },
      "geometry": {
        "coordinates": [
          22.14681,
          51.29467
        ],
        "type": "Point"
      }
    },
    {
      "type": "Feature",
      "properties": {
        "name": "Wawer"
      },
      "geometry": {
        "coordinates": [
          21.17752,
          52.19656
        ],
        "type": "Point"
      }
    },
    {
      "type": "Feature",
      "properties": {
        "name": "Wasosz"
      },
      "geometry": {
        "coordinates": [
          22.31915,
          53.52209
        ],
        "type": "Point"
      }
    },
    {
      "type": "Feature",
      "properties": {
        "name": "Wasniow"
      },
      "geometry": {
        "coordinates": [
          21.22301,
          50.89914
        ],
        "type": "Point"
      }
    },
    {
      "type": "Feature",
      "properties": {
        "name": "Wasilkow"
      },
      "geometry": {
        "coordinates": [
          23.20776,
          53.19909
        ],
        "type": "Point"
      }
    },
    {
      "type": "Feature",
      "properties": {
        "name": "Warsaw"
      },
      "geometry": {
        "coordinates": [
          21.01178,
          52.22977
        ],
        "type": "Point"
      }
    },
    {
      "type": "Feature",
      "properties": {
        "name": "Warka"
      },
      "geometry": {
        "coordinates": [
          21.19091,
          51.7843
        ],
        "type": "Point"
      }
    },
    {
      "type": "Feature",
      "properties": {
        "name": "Jodlowka-Walki"
      },
      "geometry": {
        "coordinates": [
          21.13332,
          50.04992
        ],
        "type": "Point"
      }
    },
    {
      "type": "Feature",
      "properties": {
        "name": "Waksmund"
      },
      "geometry": {
        "coordinates": [
          20.07563,
          49.48207
        ],
        "type": "Point"
      }
    },
    {
      "type": "Feature",
      "properties": {
        "name": "Wadowice Gorne"
      },
      "geometry": {
        "coordinates": [
          21.30215,
          50.26312
        ],
        "type": "Point"
      }
    },
    {
      "type": "Feature",
      "properties": {
        "name": "Wachock"
      },
      "geometry": {
        "coordinates": [
          21.01243,
          51.07391
        ],
        "type": "Point"
      }
    },
    {
      "type": "Feature",
      "properties": {
        "name": "Ustrzyki Dolne"
      },
      "geometry": {
        "coordinates": [
          22.59381,
          49.4304
        ],
        "type": "Point"
      }
    },
    {
      "type": "Feature",
      "properties": {
        "name": "Uscimow Stary"
      },
      "geometry": {
        "coordinates": [
          22.95516,
          51.46962
        ],
        "type": "Point"
      }
    },
    {
      "type": "Feature",
      "properties": {
        "name": "Uscie Gorlickie"
      },
      "geometry": {
        "coordinates": [
          21.13821,
          49.52192
        ],
        "type": "Point"
      }
    },
    {
      "type": "Feature",
      "properties": {
        "name": "Urzejowice"
      },
      "geometry": {
        "coordinates": [
          22.46189,
          50.01182
        ],
        "type": "Point"
      }
    },
    {
      "type": "Feature",
      "properties": {
        "name": "Urzedow"
      },
      "geometry": {
        "coordinates": [
          22.1426,
          50.99323
        ],
        "type": "Point"
      }
    },
    {
      "type": "Feature",
      "properties": {
        "name": "Urszulin"
      },
      "geometry": {
        "coordinates": [
          23.1948,
          51.3939
        ],
        "type": "Point"
      }
    },
    {
      "type": "Feature",
      "properties": {
        "name": "Ursus"
      },
      "geometry": {
        "coordinates": [
          20.88419,
          52.19517
        ],
        "type": "Point"
      }
    },
    {
      "type": "Feature",
      "properties": {
        "name": "Ulhowek"
      },
      "geometry": {
        "coordinates": [
          23.79956,
          50.44969
        ],
        "type": "Point"
      }
    },
    {
      "type": "Feature",
      "properties": {
        "name": "Ulez"
      },
      "geometry": {
        "coordinates": [
          22.10741,
          51.59195
        ],
        "type": "Point"
      }
    },
    {
      "type": "Feature",
      "properties": {
        "name": "Ulanow"
      },
      "geometry": {
        "coordinates": [
          22.26362,
          50.49031
        ],
        "type": "Point"
      }
    },
    {
      "type": "Feature",
      "properties": {
        "name": "Uherce Mineralne"
      },
      "geometry": {
        "coordinates": [
          22.39829,
          49.46455
        ],
        "type": "Point"
      }
    },
    {
      "type": "Feature",
      "properties": {
        "name": "Tyszowce"
      },
      "geometry": {
        "coordinates": [
          23.69927,
          50.61699
        ],
        "type": "Point"
      }
    },
    {
      "type": "Feature",
      "properties": {
        "name": "Tyrawa Woloska"
      },
      "geometry": {
        "coordinates": [
          22.36988,
          49.57744
        ],
        "type": "Point"
      }
    },
    {
      "type": "Feature",
      "properties": {
        "name": "Tymbark"
      },
      "geometry": {
        "coordinates": [
          20.32539,
          49.72859
        ],
        "type": "Point"
      }
    },
    {
      "type": "Feature",
      "properties": {
        "name": "Tylicz"
      },
      "geometry": {
        "coordinates": [
          21.02368,
          49.39598
        ],
        "type": "Point"
      }
    },
    {
      "type": "Feature",
      "properties": {
        "name": "Tykocin"
      },
      "geometry": {
        "coordinates": [
          22.77457,
          53.20567
        ],
        "type": "Point"
      }
    },
    {
      "type": "Feature",
      "properties": {
        "name": "Tyczyn"
      },
      "geometry": {
        "coordinates": [
          22.03398,
          49.96384
        ],
        "type": "Point"
      }
    },
    {
      "type": "Feature",
      "properties": {
        "name": "Turze Pole"
      },
      "geometry": {
        "coordinates": [
          22.00476,
          49.66329
        ],
        "type": "Point"
      }
    },
    {
      "type": "Feature",
      "properties": {
        "name": "Turosn Koscielna"
      },
      "geometry": {
        "coordinates": [
          23.05532,
          53.01463
        ],
        "type": "Point"
      }
    },
    {
      "type": "Feature",
      "properties": {
        "name": "Turobin"
      },
      "geometry": {
        "coordinates": [
          22.74273,
          50.82367
        ],
        "type": "Point"
      }
    },
    {
      "type": "Feature",
      "properties": {
        "name": "Tuczna"
      },
      "geometry": {
        "coordinates": [
          23.4252,
          51.88029
        ],
        "type": "Point"
      }
    },
    {
      "type": "Feature",
      "properties": {
        "name": "Tuczepy"
      },
      "geometry": {
        "coordinates": [
          20.99187,
          50.51676
        ],
        "type": "Point"
      }
    },
    {
      "type": "Feature",
      "properties": {
        "name": "Tuchow"
      },
      "geometry": {
        "coordinates": [
          21.05407,
          49.89485
        ],
        "type": "Point"
      }
    },
    {
      "type": "Feature",
      "properties": {
        "name": "Trzydnik Duzy"
      },
      "geometry": {
        "coordinates": [
          22.13359,
          50.84887
        ],
        "type": "Point"
      }
    },
    {
      "type": "Feature",
      "properties": {
        "name": "Trzemesnia"
      },
      "geometry": {
        "coordinates": [
          20.02207,
          49.82752
        ],
        "type": "Point"
      }
    },
    {
      "type": "Feature",
      "properties": {
        "name": "Trzebownisko"
      },
      "geometry": {
        "coordinates": [
          22.03712,
          50.07829
        ],
        "type": "Point"
      }
    },
    {
      "type": "Feature",
      "properties": {
        "name": "Trzebieszow"
      },
      "geometry": {
        "coordinates": [
          22.55502,
          51.99006
        ],
        "type": "Point"
      }
    },
    {
      "type": "Feature",
      "properties": {
        "name": "Trzcinica"
      },
      "geometry": {
        "coordinates": [
          21.4175,
          49.74301
        ],
        "type": "Point"
      }
    },
    {
      "type": "Feature",
      "properties": {
        "name": "Trzciana"
      },
      "geometry": {
        "coordinates": [
          21.33725,
          50.30771
        ],
        "type": "Point"
      }
    },
    {
      "type": "Feature",
      "properties": {
        "name": "Trzciana"
      },
      "geometry": {
        "coordinates": [
          21.8385,
          50.0719
        ],
        "type": "Point"
      }
    },
    {
      "type": "Feature",
      "properties": {
        "name": "Trzciana"
      },
      "geometry": {
        "coordinates": [
          20.37415,
          49.84485
        ],
        "type": "Point"
      }
    },
    {
      "type": "Feature",
      "properties": {
        "name": "Tryncza"
      },
      "geometry": {
        "coordinates": [
          22.55008,
          50.16087
        ],
        "type": "Point"
      }
    },
    {
      "type": "Feature",
      "properties": {
        "name": "Truskaw"
      },
      "geometry": {
        "coordinates": [
          20.78244,
          52.30124
        ],
        "type": "Point"
      }
    },
    {
      "type": "Feature",
      "properties": {
        "name": "Troszyn"
      },
      "geometry": {
        "coordinates": [
          21.73083,
          53.03115
        ],
        "type": "Point"
      }
    },
    {
      "type": "Feature",
      "properties": {
        "name": "Trojanow"
      },
      "geometry": {
        "coordinates": [
          21.81112,
          51.69225
        ],
        "type": "Point"
      }
    },
    {
      "type": "Feature",
      "properties": {
        "name": "Trawniki"
      },
      "geometry": {
        "coordinates": [
          22.99816,
          51.13633
        ],
        "type": "Point"
      }
    },
    {
      "type": "Feature",
      "properties": {
        "name": "Trablice"
      },
      "geometry": {
        "coordinates": [
          21.12877,
          51.35249
        ],
        "type": "Point"
      }
    },
    {
      "type": "Feature",
      "properties": {
        "name": "Trabki"
      },
      "geometry": {
        "coordinates": [
          21.59929,
          51.94792
        ],
        "type": "Point"
      }
    },
    {
      "type": "Feature",
      "properties": {
        "name": "Trabki"
      },
      "geometry": {
        "coordinates": [
          20.1424,
          49.96226
        ],
        "type": "Point"
      }
    },
    {
      "type": "Feature",
      "properties": {
        "name": "Tomaszow Mazowiecki"
      },
      "geometry": {
        "coordinates": [
          20.00855,
          51.53131
        ],
        "type": "Point"
      }
    },
    {
      "type": "Feature",
      "properties": {
        "name": "Tomaszow Lubelski"
      },
      "geometry": {
        "coordinates": [
          23.41616,
          50.44767
        ],
        "type": "Point"
      }
    },
    {
      "type": "Feature",
      "properties": {
        "name": "Tluszcz"
      },
      "geometry": {
        "coordinates": [
          21.43561,
          52.43058
        ],
        "type": "Point"
      }
    },
    {
      "type": "Feature",
      "properties": {
        "name": "Tereszpol"
      },
      "geometry": {
        "coordinates": [
          22.8798,
          50.58373
        ],
        "type": "Point"
      }
    },
    {
      "type": "Feature",
      "properties": {
        "name": "Terespol"
      },
      "geometry": {
        "coordinates": [
          23.61614,
          52.0755
        ],
        "type": "Point"
      }
    },
    {
      "type": "Feature",
      "properties": {
        "name": "Teresin"
      },
      "geometry": {
        "coordinates": [
          20.41672,
          52.19887
        ],
        "type": "Point"
      }
    },
    {
      "type": "Feature",
      "properties": {
        "name": "Telatyn"
      },
      "geometry": {
        "coordinates": [
          23.83956,
          50.52712
        ],
        "type": "Point"
      }
    },
    {
      "type": "Feature",
      "properties": {
        "name": "Tczow"
      },
      "geometry": {
        "coordinates": [
          21.44677,
          51.326
        ],
        "type": "Point"
      }
    },
    {
      "type": "Feature",
      "properties": {
        "name": "Tarnowiec"
      },
      "geometry": {
        "coordinates": [
          20.98655,
          49.98164
        ],
        "type": "Point"
      }
    },
    {
      "type": "Feature",
      "properties": {
        "name": "Tarnowiec"
      },
      "geometry": {
        "coordinates": [
          21.57663,
          49.73108
        ],
        "type": "Point"
      }
    },
    {
      "type": "Feature",
      "properties": {
        "name": "Tarnow"
      },
      "geometry": {
        "coordinates": [
          20.98698,
          50.01381
        ],
        "type": "Point"
      }
    },
    {
      "type": "Feature",
      "properties": {
        "name": "Tarnogrod"
      },
      "geometry": {
        "coordinates": [
          22.74174,
          50.3609
        ],
        "type": "Point"
      }
    },
    {
      "type": "Feature",
      "properties": {
        "name": "Tarnobrzeg"
      },
      "geometry": {
        "coordinates": [
          21.67937,
          50.57304
        ],
        "type": "Point"
      }
    },
    {
      "type": "Feature",
      "properties": {
        "name": "Tarnawatka"
      },
      "geometry": {
        "coordinates": [
          23.3959,
          50.53154
        ],
        "type": "Point"
      }
    },
    {
      "type": "Feature",
      "properties": {
        "name": "Tarlow"
      },
      "geometry": {
        "coordinates": [
          21.71474,
          51.0016
        ],
        "type": "Point"
      }
    },
    {
      "type": "Feature",
      "properties": {
        "name": "Targowisko"
      },
      "geometry": {
        "coordinates": [
          20.29346,
          49.98473
        ],
        "type": "Point"
      }
    },
    {
      "type": "Feature",
      "properties": {
        "name": "Targowek"
      },
      "geometry": {
        "coordinates": [
          21.04845,
          52.29185
        ],
        "type": "Point"
      }
    },
    {
      "type": "Feature",
      "properties": {
        "name": "Tarczyn"
      },
      "geometry": {
        "coordinates": [
          20.83394,
          51.98197
        ],
        "type": "Point"
      }
    },
    {
      "type": "Feature",
      "properties": {
        "name": "Szynwald"
      },
      "geometry": {
        "coordinates": [
          21.12293,
          49.96767
        ],
        "type": "Point"
      }
    },
    {
      "type": "Feature",
      "properties": {
        "name": "Szydlowo"
      },
      "geometry": {
        "coordinates": [
          20.45071,
          53.08062
        ],
        "type": "Point"
      }
    },
    {
      "type": "Feature",
      "properties": {
        "name": "Szydlowiec"
      },
      "geometry": {
        "coordinates": [
          20.86106,
          51.22823
        ],
        "type": "Point"
      }
    },
    {
      "type": "Feature",
      "properties": {
        "name": "Szydlow"
      },
      "geometry": {
        "coordinates": [
          21.0068,
          50.59114
        ],
        "type": "Point"
      }
    },
    {
      "type": "Feature",
      "properties": {
        "name": "Szumowo"
      },
      "geometry": {
        "coordinates": [
          22.08449,
          52.91884
        ],
        "type": "Point"
      }
    },
    {
      "type": "Feature",
      "properties": {
        "name": "Szrensk"
      },
      "geometry": {
        "coordinates": [
          20.12009,
          53.01277
        ],
        "type": "Point"
      }
    },
    {
      "type": "Feature",
      "properties": {
        "name": "Szerzyny"
      },
      "geometry": {
        "coordinates": [
          21.2467,
          49.80919
        ],
        "type": "Point"
      }
    },
    {
      "type": "Feature",
      "properties": {
        "name": "Szepietowo"
      },
      "geometry": {
        "coordinates": [
          22.54392,
          52.87032
        ],
        "type": "Point"
      }
    },
    {
      "type": "Feature",
      "properties": {
        "name": "Szelkow"
      },
      "geometry": {
        "coordinates": [
          21.21769,
          52.83487
        ],
        "type": "Point"
      }
    },
    {
      "type": "Feature",
      "properties": {
        "name": "Szczytno"
      },
      "geometry": {
        "coordinates": [
          20.98747,
          53.56259
        ],
        "type": "Point"
      }
    },
    {
      "type": "Feature",
      "properties": {
        "name": "Szczurowa"
      },
      "geometry": {
        "coordinates": [
          20.6361,
          50.11915
        ],
        "type": "Point"
      }
    },
    {
      "type": "Feature",
      "properties": {
        "name": "Szczuczyn"
      },
      "geometry": {
        "coordinates": [
          22.28534,
          53.5633
        ],
        "type": "Point"
      }
    },
    {
      "type": "Feature",
      "properties": {
        "name": "Szczucin"
      },
      "geometry": {
        "coordinates": [
          21.07444,
          50.30957
        ],
        "type": "Point"
      }
    },
    {
      "type": "Feature",
      "properties": {
        "name": "Szczebrzeszyn"
      },
      "geometry": {
        "coordinates": [
          22.97954,
          50.69499
        ],
        "type": "Point"
      }
    },
    {
      "type": "Feature",
      "properties": {
        "name": "Szczawnica"
      },
      "geometry": {
        "coordinates": [
          20.48487,
          49.42437
        ],
        "type": "Point"
      }
    },
    {
      "type": "Feature",
      "properties": {
        "name": "Szastarka"
      },
      "geometry": {
        "coordinates": [
          22.3346,
          50.85494
        ],
        "type": "Point"
      }
    },
    {
      "type": "Feature",
      "properties": {
        "name": "Szarow"
      },
      "geometry": {
        "coordinates": [
          20.2696,
          49.99505
        ],
        "type": "Point"
      }
    },
    {
      "type": "Feature",
      "properties": {
        "name": "Szaflary"
      },
      "geometry": {
        "coordinates": [
          20.02713,
          49.42655
        ],
        "type": "Point"
      }
    },
    {
      "type": "Feature",
      "properties": {
        "name": "Sypniewo"
      },
      "geometry": {
        "coordinates": [
          21.3073,
          53.0058
        ],
        "type": "Point"
      }
    },
    {
      "type": "Feature",
      "properties": {
        "name": "Swilcza"
      },
      "geometry": {
        "coordinates": [
          21.89798,
          50.07179
        ],
        "type": "Point"
      }
    },
    {
      "type": "Feature",
      "properties": {
        "name": "Swietajno"
      },
      "geometry": {
        "coordinates": [
          22.3183,
          54.00151
        ],
        "type": "Point"
      }
    },
    {
      "type": "Feature",
      "properties": {
        "name": "Swietajno"
      },
      "geometry": {
        "coordinates": [
          22.33297,
          54.03892
        ],
        "type": "Point"
      }
    },
    {
      "type": "Feature",
      "properties": {
        "name": "Swietajno"
      },
      "geometry": {
        "coordinates": [
          21.21546,
          53.56692
        ],
        "type": "Point"
      }
    },
    {
      "type": "Feature",
      "properties": {
        "name": "Swidnik"
      },
      "geometry": {
        "coordinates": [
          22.69621,
          51.21898
        ],
        "type": "Point"
      }
    },
    {
      "type": "Feature",
      "properties": {
        "name": "Suwalki"
      },
      "geometry": {
        "coordinates": [
          22.93087,
          54.11175
        ],
        "type": "Point"
      }
    },
    {
      "type": "Feature",
      "properties": {
        "name": "Susiec"
      },
      "geometry": {
        "coordinates": [
          23.19626,
          50.41973
        ],
        "type": "Point"
      }
    },
    {
      "type": "Feature",
      "properties": {
        "name": "Suraz"
      },
      "geometry": {
        "coordinates": [
          22.95653,
          52.94908
        ],
        "type": "Point"
      }
    },
    {
      "type": "Feature",
      "properties": {
        "name": "Suprasl"
      },
      "geometry": {
        "coordinates": [
          23.33934,
          53.20526
        ],
        "type": "Point"
      }
    },
    {
      "type": "Feature",
      "properties": {
        "name": "Sulow"
      },
      "geometry": {
        "coordinates": [
          22.36061,
          50.90661
        ],
        "type": "Point"
      }
    },
    {
      "type": "Feature",
      "properties": {
        "name": "Sulow"
      },
      "geometry": {
        "coordinates": [
          22.95593,
          50.77099
        ],
        "type": "Point"
      }
    },
    {
      "type": "Feature",
      "properties": {
        "name": "Sulkowice"
      },
      "geometry": {
        "coordinates": [
          21.08929,
          51.9231
        ],
        "type": "Point"
      }
    },
    {
      "type": "Feature",
      "properties": {
        "name": "Sulejowek"
      },
      "geometry": {
        "coordinates": [
          21.26902,
          52.25221
        ],
        "type": "Point"
      }
    },
    {
      "type": "Feature",
      "properties": {
        "name": "Suchozebry"
      },
      "geometry": {
        "coordinates": [
          22.25289,
          52.25948
        ],
        "type": "Point"
      }
    },
    {
      "type": "Feature",
      "properties": {
        "name": "Suchowola"
      },
      "geometry": {
        "coordinates": [
          23.10596,
          53.57753
        ],
        "type": "Point"
      }
    },
    {
      "type": "Feature",
      "properties": {
        "name": "Suchedniow"
      },
      "geometry": {
        "coordinates": [
          20.82922,
          51.04776
        ],
        "type": "Point"
      }
    },
    {
      "type": "Feature",
      "properties": {
        "name": "Sucha"
      },
      "geometry": {
        "coordinates": [
          20.94887,
          51.61999
        ],
        "type": "Point"
      }
    },
    {
      "type": "Feature",
      "properties": {
        "name": "Stupsk"
      },
      "geometry": {
        "coordinates": [
          20.4368,
          53.02258
        ],
        "type": "Point"
      }
    },
    {
      "type": "Feature",
      "properties": {
        "name": "Stubno"
      },
      "geometry": {
        "coordinates": [
          22.95602,
          49.89806
        ],
        "type": "Point"
      }
    },
    {
      "type": "Feature",
      "properties": {
        "name": "Strzyzowice"
      },
      "geometry": {
        "coordinates": [
          22.44018,
          51.0483
        ],
        "type": "Point"
      }
    },
    {
      "type": "Feature",
      "properties": {
        "name": "Strzyzow"
      },
      "geometry": {
        "coordinates": [
          21.79413,
          49.87074
        ],
        "type": "Point"
      }
    },
    {
      "type": "Feature",
      "properties": {
        "name": "Strzegowo"
      },
      "geometry": {
        "coordinates": [
          20.28548,
          52.89394
        ],
        "type": "Point"
      }
    },
    {
      "type": "Feature",
      "properties": {
        "name": "Stromiec"
      },
      "geometry": {
        "coordinates": [
          21.09229,
          51.647
        ],
        "type": "Point"
      }
    },
    {
      "type": "Feature",
      "properties": {
        "name": "Strawczyn"
      },
      "geometry": {
        "coordinates": [
          20.42135,
          50.94177
        ],
        "type": "Point"
      }
    },
    {
      "type": "Feature",
      "properties": {
        "name": "Straszydle"
      },
      "geometry": {
        "coordinates": [
          21.98124,
          49.90038
        ],
        "type": "Point"
      }
    },
    {
      "type": "Feature",
      "properties": {
        "name": "Strachowka"
      },
      "geometry": {
        "coordinates": [
          21.635,
          52.42692
        ],
        "type": "Point"
      }
    },
    {
      "type": "Feature",
      "properties": {
        "name": "Strachocina"
      },
      "geometry": {
        "coordinates": [
          22.08836,
          49.60815
        ],
        "type": "Point"
      }
    },
    {
      "type": "Feature",
      "properties": {
        "name": "Stopnica"
      },
      "geometry": {
        "coordinates": [
          20.9378,
          50.44018
        ],
        "type": "Point"
      }
    },
    {
      "type": "Feature",
      "properties": {
        "name": "Stoczek Lukowski"
      },
      "geometry": {
        "coordinates": [
          21.97137,
          51.96135
        ],
        "type": "Point"
      }
    },
    {
      "type": "Feature",
      "properties": {
        "name": "Stoczek"
      },
      "geometry": {
        "coordinates": [
          21.90013,
          52.54332
        ],
        "type": "Point"
      }
    },
    {
      "type": "Feature",
      "properties": {
        "name": "Stezyca"
      },
      "geometry": {
        "coordinates": [
          21.77087,
          51.58187
        ],
        "type": "Point"
      }
    },
    {
      "type": "Feature",
      "properties": {
        "name": "Sterdyn"
      },
      "geometry": {
        "coordinates": [
          22.29358,
          52.58026
        ],
        "type": "Point"
      }
    },
    {
      "type": "Feature",
      "properties": {
        "name": "Stawiski"
      },
      "geometry": {
        "coordinates": [
          22.15462,
          53.37987
        ],
        "type": "Point"
      }
    },
    {
      "type": "Feature",
      "properties": {
        "name": "Stawiguda"
      },
      "geometry": {
        "coordinates": [
          20.40041,
          53.6572
        ],
        "type": "Point"
      }
    },
    {
      "type": "Feature",
      "properties": {
        "name": "Staszow"
      },
      "geometry": {
        "coordinates": [
          21.16593,
          50.56307
        ],
        "type": "Point"
      }
    },
    {
      "type": "Feature",
      "properties": {
        "name": "Stary Zamosc"
      },
      "geometry": {
        "coordinates": [
          23.17154,
          50.82004
        ],
        "type": "Point"
      }
    },
    {
      "type": "Feature",
      "properties": {
        "name": "Stary Wisnicz"
      },
      "geometry": {
        "coordinates": [
          20.48641,
          49.92548
        ],
        "type": "Point"
      }
    },
    {
      "type": "Feature",
      "properties": {
        "name": "Stary Sacz"
      },
      "geometry": {
        "coordinates": [
          20.63496,
          49.56364
        ],
        "type": "Point"
      }
    },
    {
      "type": "Feature",
      "properties": {
        "name": "Stare Miasto"
      },
      "geometry": {
        "coordinates": [
          22.42928,
          50.28879
        ],
        "type": "Point"
      }
    },
    {
      "type": "Feature",
      "properties": {
        "name": "Stare Juchy"
      },
      "geometry": {
        "coordinates": [
          22.17367,
          53.92198
        ],
        "type": "Point"
      }
    },
    {
      "type": "Feature",
      "properties": {
        "name": "Stare Babice"
      },
      "geometry": {
        "coordinates": [
          20.83403,
          52.26028
        ],
        "type": "Point"
      }
    },
    {
      "type": "Feature",
      "properties": {
        "name": "Stara Wies"
      },
      "geometry": {
        "coordinates": [
          22.00441,
          49.71505
        ],
        "type": "Point"
      }
    },
    {
      "type": "Feature",
      "properties": {
        "name": "Starachowice"
      },
      "geometry": {
        "coordinates": [
          21.07126,
          51.0374
        ],
        "type": "Point"
      }
    },
    {
      "type": "Feature",
      "properties": {
        "name": "Staporkow"
      },
      "geometry": {
        "coordinates": [
          20.57173,
          51.13762
        ],
        "type": "Point"
      }
    },
    {
      "type": "Feature",
      "properties": {
        "name": "Stanislawow Pierwszy"
      },
      "geometry": {
        "coordinates": [
          21.05184,
          52.37485
        ],
        "type": "Point"
      }
    },
    {
      "type": "Feature",
      "properties": {
        "name": "Stanislawow"
      },
      "geometry": {
        "coordinates": [
          21.54848,
          52.28937
        ],
        "type": "Point"
      }
    },
    {
      "type": "Feature",
      "properties": {
        "name": "Stanislawice"
      },
      "geometry": {
        "coordinates": [
          20.35123,
          49.9855
        ],
        "type": "Point"
      }
    },
    {
      "type": "Feature",
      "properties": {
        "name": "Stalowa Wola"
      },
      "geometry": {
        "coordinates": [
          22.05334,
          50.58286
        ],
        "type": "Point"
      }
    },
    {
      "type": "Feature",
      "properties": {
        "name": "Srokowo"
      },
      "geometry": {
        "coordinates": [
          21.52282,
          54.21416
        ],
        "type": "Point"
      }
    },
    {
      "type": "Feature",
      "properties": {
        "name": "Srodmiescie"
      },
      "geometry": {
        "coordinates": [
          21.01644,
          52.22904
        ],
        "type": "Point"
      }
    },
    {
      "type": "Feature",
      "properties": {
        "name": "Spiczyn"
      },
      "geometry": {
        "coordinates": [
          22.75354,
          51.34128
        ],
        "type": "Point"
      }
    },
    {
      "type": "Feature",
      "properties": {
        "name": "Sosnowka"
      },
      "geometry": {
        "coordinates": [
          23.33814,
          51.75084
        ],
        "type": "Point"
      }
    },
    {
      "type": "Feature",
      "properties": {
        "name": "Sosnowica"
      },
      "geometry": {
        "coordinates": [
          23.09215,
          51.52065
        ],
        "type": "Point"
      }
    },
    {
      "type": "Feature",
      "properties": {
        "name": "Sosnica"
      },
      "geometry": {
        "coordinates": [
          22.87469,
          49.90083
        ],
        "type": "Point"
      }
    },
    {
      "type": "Feature",
      "properties": {
        "name": "Sonsk"
      },
      "geometry": {
        "coordinates": [
          20.69901,
          52.78164
        ],
        "type": "Point"
      }
    },
    {
      "type": "Feature",
      "properties": {
        "name": "Sonina"
      },
      "geometry": {
        "coordinates": [
          22.26551,
          50.06089
        ],
        "type": "Point"
      }
    },
    {
      "type": "Feature",
      "properties": {
        "name": "Solec-Zdroj"
      },
      "geometry": {
        "coordinates": [
          20.88956,
          50.36594
        ],
        "type": "Point"
      }
    },
    {
      "type": "Feature",
      "properties": {
        "name": "Solec Nad Wisla"
      },
      "geometry": {
        "coordinates": [
          21.76563,
          51.13633
        ],
        "type": "Point"
      }
    },
    {
      "type": "Feature",
      "properties": {
        "name": "Sokoly"
      },
      "geometry": {
        "coordinates": [
          22.7005,
          52.99314
        ],
        "type": "Point"
      }
    },
    {
      "type": "Feature",
      "properties": {
        "name": "Sokolow Podlaski"
      },
      "geometry": {
        "coordinates": [
          22.25307,
          52.40677
        ],
        "type": "Point"
      }
    },
    {
      "type": "Feature",
      "properties": {
        "name": "Sokolow Malopolski"
      },
      "geometry": {
        "coordinates": [
          22.11968,
          50.22909
        ],
        "type": "Point"
      }
    },
    {
      "type": "Feature",
      "properties": {
        "name": "Sokolniki"
      },
      "geometry": {
        "coordinates": [
          21.80649,
          50.63803
        ],
        "type": "Point"
      }
    },
    {
      "type": "Feature",
      "properties": {
        "name": "Sokolka"
      },
      "geometry": {
        "coordinates": [
          23.50228,
          53.40715
        ],
        "type": "Point"
      }
    },
    {
      "type": "Feature",
      "properties": {
        "name": "Sochocin"
      },
      "geometry": {
        "coordinates": [
          20.47259,
          52.68715
        ],
        "type": "Point"
      }
    },
    {
      "type": "Feature",
      "properties": {
        "name": "Sochaczew"
      },
      "geometry": {
        "coordinates": [
          20.23838,
          52.22944
        ],
        "type": "Point"
      }
    },
    {
      "type": "Feature",
      "properties": {
        "name": "Sobolew"
      },
      "geometry": {
        "coordinates": [
          21.66349,
          51.7366
        ],
        "type": "Point"
      }
    },
    {
      "type": "Feature",
      "properties": {
        "name": "Sobkow"
      },
      "geometry": {
        "coordinates": [
          20.45062,
          50.69999
        ],
        "type": "Point"
      }
    },
    {
      "type": "Feature",
      "properties": {
        "name": "Sobienie Jeziory"
      },
      "geometry": {
        "coordinates": [
          21.30335,
          51.93273
        ],
        "type": "Point"
      }
    },
    {
      "type": "Feature",
      "properties": {
        "name": "Sniadowo"
      },
      "geometry": {
        "coordinates": [
          21.99077,
          53.03874
        ],
        "type": "Point"
      }
    },
    {
      "type": "Feature",
      "properties": {
        "name": "Smykow"
      },
      "geometry": {
        "coordinates": [
          20.40032,
          51.04442
        ],
        "type": "Point"
      }
    },
    {
      "type": "Feature",
      "properties": {
        "name": "Smegorzow"
      },
      "geometry": {
        "coordinates": [
          21.00414,
          50.22843
        ],
        "type": "Point"
      }
    },
    {
      "type": "Feature",
      "properties": {
        "name": "Slupno"
      },
      "geometry": {
        "coordinates": [
          21.15572,
          52.38409
        ],
        "type": "Point"
      }
    },
    {
      "type": "Feature",
      "properties": {
        "name": "Slupiec"
      },
      "geometry": {
        "coordinates": [
          21.19374,
          50.32787
        ],
        "type": "Point"
      }
    },
    {
      "type": "Feature",
      "properties": {
        "name": "Slupia"
      },
      "geometry": {
        "coordinates": [
          20.1406,
          51.0137
        ],
        "type": "Point"
      }
    },
    {
      "type": "Feature",
      "properties": {
        "name": "Slotowa"
      },
      "geometry": {
        "coordinates": [
          21.29425,
          49.94603
        ],
        "type": "Point"
      }
    },
    {
      "type": "Feature",
      "properties": {
        "name": "Slopnice"
      },
      "geometry": {
        "coordinates": [
          20.34325,
          49.68496
        ],
        "type": "Point"
      }
    },
    {
      "type": "Feature",
      "properties": {
        "name": "Slomniki"
      },
      "geometry": {
        "coordinates": [
          20.08224,
          50.24012
        ],
        "type": "Point"
      }
    },
    {
      "type": "Feature",
      "properties": {
        "name": "Slawno"
      },
      "geometry": {
        "coordinates": [
          20.14043,
          51.39273
        ],
        "type": "Point"
      }
    },
    {
      "type": "Feature",
      "properties": {
        "name": "Slawatycze"
      },
      "geometry": {
        "coordinates": [
          23.5546,
          51.76338
        ],
        "type": "Point"
      }
    },
    {
      "type": "Feature",
      "properties": {
        "name": "Skrzyszow"
      },
      "geometry": {
        "coordinates": [
          21.06139,
          49.99373
        ],
        "type": "Point"
      }
    },
    {
      "type": "Feature",
      "properties": {
        "name": "Skrzydlna"
      },
      "geometry": {
        "coordinates": [
          20.18618,
          49.75343
        ],
        "type": "Point"
      }
    },
    {
      "type": "Feature",
      "properties": {
        "name": "Skorzec"
      },
      "geometry": {
        "coordinates": [
          22.13052,
          52.10727
        ],
        "type": "Point"
      }
    },
    {
      "type": "Feature",
      "properties": {
        "name": "Skolyszyn"
      },
      "geometry": {
        "coordinates": [
          21.33665,
          49.74955
        ],
        "type": "Point"
      }
    },
    {
      "type": "Feature",
      "properties": {
        "name": "Skierniewice"
      },
      "geometry": {
        "coordinates": [
          20.15837,
          51.95485
        ],
        "type": "Point"
      }
    },
    {
      "type": "Feature",
      "properties": {
        "name": "Skierbieszow"
      },
      "geometry": {
        "coordinates": [
          23.35917,
          50.85158
        ],
        "type": "Point"
      }
    },
    {
      "type": "Feature",
      "properties": {
        "name": "Skarzysko Koscielne"
      },
      "geometry": {
        "coordinates": [
          20.91196,
          51.13822
        ],
        "type": "Point"
      }
    },
    {
      "type": "Feature",
      "properties": {
        "name": "Skarzysko-Kamienna"
      },
      "geometry": {
        "coordinates": [
          20.87162,
          51.11311
        ],
        "type": "Point"
      }
    },
    {
      "type": "Feature",
      "properties": {
        "name": "Skaryszew"
      },
      "geometry": {
        "coordinates": [
          21.25233,
          51.31075
        ],
        "type": "Point"
      }
    },
    {
      "type": "Feature",
      "properties": {
        "name": "Skalbmierz"
      },
      "geometry": {
        "coordinates": [
          20.39929,
          50.31993
        ],
        "type": "Point"
      }
    },
    {
      "type": "Feature",
      "properties": {
        "name": "Sitno"
      },
      "geometry": {
        "coordinates": [
          23.3626,
          50.74944
        ],
        "type": "Point"
      }
    },
    {
      "type": "Feature",
      "properties": {
        "name": "Osiedle-Nowiny"
      },
      "geometry": {
        "coordinates": [
          20.54117,
          50.8177
        ],
        "type": "Point"
      }
    },
    {
      "type": "Feature",
      "properties": {
        "name": "Sietesz"
      },
      "geometry": {
        "coordinates": [
          22.34671,
          49.98622
        ],
        "type": "Point"
      }
    },
    {
      "type": "Feature",
      "properties": {
        "name": "Sieradza"
      },
      "geometry": {
        "coordinates": [
          20.92947,
          50.13499
        ],
        "type": "Point"
      }
    },
    {
      "type": "Feature",
      "properties": {
        "name": "Sienno"
      },
      "geometry": {
        "coordinates": [
          21.48325,
          51.08773
        ],
        "type": "Point"
      }
    },
    {
      "type": "Feature",
      "properties": {
        "name": "Siennica"
      },
      "geometry": {
        "coordinates": [
          21.61921,
          52.09164
        ],
        "type": "Point"
      }
    },
    {
      "type": "Feature",
      "properties": {
        "name": "Sieniawa"
      },
      "geometry": {
        "coordinates": [
          22.60954,
          50.1779
        ],
        "type": "Point"
      }
    },
    {
      "type": "Feature",
      "properties": {
        "name": "Sieniawa"
      },
      "geometry": {
        "coordinates": [
          21.92785,
          49.56508
        ],
        "type": "Point"
      }
    },
    {
      "type": "Feature",
      "properties": {
        "name": "Siemien"
      },
      "geometry": {
        "coordinates": [
          22.77243,
          51.62883
        ],
        "type": "Point"
      }
    },
    {
      "type": "Feature",
      "properties": {
        "name": "Siemiechow"
      },
      "geometry": {
        "coordinates": [
          20.90595,
          49.85359
        ],
        "type": "Point"
      }
    },
    {
      "type": "Feature",
      "properties": {
        "name": "Siemiatycze"
      },
      "geometry": {
        "coordinates": [
          22.86231,
          52.42719
        ],
        "type": "Point"
      }
    },
    {
      "type": "Feature",
      "properties": {
        "name": "Siemiatkowo"
      },
      "geometry": {
        "coordinates": [
          20.02893,
          52.8811
        ],
        "type": "Point"
      }
    },
    {
      "type": "Feature",
      "properties": {
        "name": "Siedliska"
      },
      "geometry": {
        "coordinates": [
          21.94742,
          49.95409
        ],
        "type": "Point"
      }
    },
    {
      "type": "Feature",
      "properties": {
        "name": "Siedliska"
      },
      "geometry": {
        "coordinates": [
          20.99625,
          49.87163
        ],
        "type": "Point"
      }
    },
    {
      "type": "Feature",
      "properties": {
        "name": "Siedleczka"
      },
      "geometry": {
        "coordinates": [
          22.37949,
          49.96061
        ],
        "type": "Point"
      }
    },
    {
      "type": "Feature",
      "properties": {
        "name": "Siedlce"
      },
      "geometry": {
        "coordinates": [
          22.29006,
          52.16772
        ],
        "type": "Point"
      }
    },
    {
      "type": "Feature",
      "properties": {
        "name": "Serokomla"
      },
      "geometry": {
        "coordinates": [
          22.33237,
          51.7007
        ],
        "type": "Point"
      }
    },
    {
      "type": "Feature",
      "properties": {
        "name": "Serock"
      },
      "geometry": {
        "coordinates": [
          21.0691,
          52.51036
        ],
        "type": "Point"
      }
    },
    {
      "type": "Feature",
      "properties": {
        "name": "Serniki"
      },
      "geometry": {
        "coordinates": [
          22.65853,
          51.43716
        ],
        "type": "Point"
      }
    },
    {
      "type": "Feature",
      "properties": {
        "name": "Sepopol"
      },
      "geometry": {
        "coordinates": [
          21.01453,
          54.26903
        ],
        "type": "Point"
      }
    },
    {
      "type": "Feature",
      "properties": {
        "name": "Sekowa"
      },
      "geometry": {
        "coordinates": [
          21.19769,
          49.62217
        ],
        "type": "Point"
      }
    },
    {
      "type": "Feature",
      "properties": {
        "name": "Sejny"
      },
      "geometry": {
        "coordinates": [
          23.34698,
          54.10802
        ],
        "type": "Point"
      }
    },
    {
      "type": "Feature",
      "properties": {
        "name": "Sedziszow Malopolski"
      },
      "geometry": {
        "coordinates": [
          21.70062,
          50.07069
        ],
        "type": "Point"
      }
    },
    {
      "type": "Feature",
      "properties": {
        "name": "Sedziszow"
      },
      "geometry": {
        "coordinates": [
          20.05563,
          50.5659
        ],
        "type": "Point"
      }
    },
    {
      "type": "Feature",
      "properties": {
        "name": "Sawin"
      },
      "geometry": {
        "coordinates": [
          23.43375,
          51.27443
        ],
        "type": "Point"
      }
    },
    {
      "type": "Feature",
      "properties": {
        "name": "Sarnaki"
      },
      "geometry": {
        "coordinates": [
          22.89044,
          52.31504
        ],
        "type": "Point"
      }
    },
    {
      "type": "Feature",
      "properties": {
        "name": "Sanok"
      },
      "geometry": {
        "coordinates": [
          22.2056,
          49.55573
        ],
        "type": "Point"
      }
    },
    {
      "type": "Feature",
      "properties": {
        "name": "Sandomierz"
      },
      "geometry": {
        "coordinates": [
          21.74898,
          50.68265
        ],
        "type": "Point"
      }
    },
    {
      "type": "Feature",
      "properties": {
        "name": "Samborzec"
      },
      "geometry": {
        "coordinates": [
          21.64822,
          50.64663
        ],
        "type": "Point"
      }
    },
    {
      "type": "Feature",
      "properties": {
        "name": "Sadowne"
      },
      "geometry": {
        "coordinates": [
          21.84563,
          52.64124
        ],
        "type": "Point"
      }
    },
    {
      "type": "Feature",
      "properties": {
        "name": "Sadowie"
      },
      "geometry": {
        "coordinates": [
          21.36884,
          50.85261
        ],
        "type": "Point"
      }
    },
    {
      "type": "Feature",
      "properties": {
        "name": "Sadkowice"
      },
      "geometry": {
        "coordinates": [
          20.51465,
          51.72517
        ],
        "type": "Point"
      }
    },
    {
      "type": "Feature",
      "properties": {
        "name": "Sabnie"
      },
      "geometry": {
        "coordinates": [
          22.30697,
          52.50097
        ],
        "type": "Point"
      }
    },
    {
      "type": "Feature",
      "properties": {
        "name": "Rzezawa"
      },
      "geometry": {
        "coordinates": [
          20.51508,
          49.98997
        ],
        "type": "Point"
      }
    },
    {
      "type": "Feature",
      "properties": {
        "name": "Rzewnie"
      },
      "geometry": {
        "coordinates": [
          21.33682,
          52.83508
        ],
        "type": "Point"
      }
    },
    {
      "type": "Feature",
      "properties": {
        "name": "Rzeszow"
      },
      "geometry": {
        "coordinates": [
          21.99901,
          50.04132
        ],
        "type": "Point"
      }
    },
    {
      "type": "Feature",
      "properties": {
        "name": "Rzepiennik Strzyzewski"
      },
      "geometry": {
        "coordinates": [
          21.03599,
          49.80542
        ],
        "type": "Point"
      }
    },
    {
      "type": "Feature",
      "properties": {
        "name": "Rzepedz"
      },
      "geometry": {
        "coordinates": [
          22.11174,
          49.36997
        ],
        "type": "Point"
      }
    },
    {
      "type": "Feature",
      "properties": {
        "name": "Rzekun"
      },
      "geometry": {
        "coordinates": [
          21.62069,
          53.04756
        ],
        "type": "Point"
      }
    },
    {
      "type": "Feature",
      "properties": {
        "name": "Rzeczyca"
      },
      "geometry": {
        "coordinates": [
          22.74942,
          51.96225
        ],
        "type": "Point"
      }
    },
    {
      "type": "Feature",
      "properties": {
        "name": "Rzeczyca"
      },
      "geometry": {
        "coordinates": [
          20.29484,
          51.59824
        ],
        "type": "Point"
      }
    },
    {
      "type": "Feature",
      "properties": {
        "name": "Rzeczniow"
      },
      "geometry": {
        "coordinates": [
          21.44008,
          51.12804
        ],
        "type": "Point"
      }
    },
    {
      "type": "Feature",
      "properties": {
        "name": "Rzasnik"
      },
      "geometry": {
        "coordinates": [
          21.36772,
          52.71332
        ],
        "type": "Point"
      }
    },
    {
      "type": "Feature",
      "properties": {
        "name": "Rytwiany"
      },
      "geometry": {
        "coordinates": [
          21.20636,
          50.5292
        ],
        "type": "Point"
      }
    },
    {
      "type": "Feature",
      "properties": {
        "name": "Rytro"
      },
      "geometry": {
        "coordinates": [
          20.66631,
          49.48904
        ],
        "type": "Point"
      }
    },
    {
      "type": "Feature",
      "properties": {
        "name": "Ryn"
      },
      "geometry": {
        "coordinates": [
          21.54642,
          53.9377
        ],
        "type": "Point"
      }
    },
    {
      "type": "Feature",
      "properties": {
        "name": "Rymanow"
      },
      "geometry": {
        "coordinates": [
          21.86811,
          49.57649
        ],
        "type": "Point"
      }
    },
    {
      "type": "Feature",
      "properties": {
        "name": "Ryki"
      },
      "geometry": {
        "coordinates": [
          21.93274,
          51.62574
        ],
        "type": "Point"
      }
    },
    {
      "type": "Feature",
      "properties": {
        "name": "Ryglice"
      },
      "geometry": {
        "coordinates": [
          21.13748,
          49.87887
        ],
        "type": "Point"
      }
    },
    {
      "type": "Feature",
      "properties": {
        "name": "Ryczywol"
      },
      "geometry": {
        "coordinates": [
          21.42197,
          51.69118
        ],
        "type": "Point"
      }
    },
    {
      "type": "Feature",
      "properties": {
        "name": "Rybno"
      },
      "geometry": {
        "coordinates": [
          20.10301,
          52.24278
        ],
        "type": "Point"
      }
    },
    {
      "type": "Feature",
      "properties": {
        "name": "Rybie"
      },
      "geometry": {
        "coordinates": [
          20.93655,
          52.15229
        ],
        "type": "Point"
      }
    },
    {
      "type": "Feature",
      "properties": {
        "name": "Rybczewice"
      },
      "geometry": {
        "coordinates": [
          22.85053,
          51.02876
        ],
        "type": "Point"
      }
    },
    {
      "type": "Feature",
      "properties": {
        "name": "Rutki"
      },
      "geometry": {
        "coordinates": [
          22.43333,
          53.1
        ],
        "type": "Point"
      }
    },
    {
      "type": "Feature",
      "properties": {
        "name": "Rusinow"
      },
      "geometry": {
        "coordinates": [
          20.58701,
          51.43678
        ],
        "type": "Point"
      }
    },
    {
      "type": "Feature",
      "properties": {
        "name": "Rudnik"
      },
      "geometry": {
        "coordinates": [
          22.97293,
          50.88035
        ],
        "type": "Point"
      }
    },
    {
      "type": "Feature",
      "properties": {
        "name": "Rudnik nad Sanem"
      },
      "geometry": {
        "coordinates": [
          22.24856,
          50.44152
        ],
        "type": "Point"
      }
    },
    {
      "type": "Feature",
      "properties": {
        "name": "Rudna Wielka"
      },
      "geometry": {
        "coordinates": [
          21.94759,
          50.08799
        ],
        "type": "Point"
      }
    },
    {
      "type": "Feature",
      "properties": {
        "name": "Rudna Mala"
      },
      "geometry": {
        "coordinates": [
          21.96021,
          50.09889
        ],
        "type": "Point"
      }
    },
    {
      "type": "Feature",
      "properties": {
        "name": "Rudka"
      },
      "geometry": {
        "coordinates": [
          22.72676,
          52.72439
        ],
        "type": "Point"
      }
    },
    {
      "type": "Feature",
      "properties": {
        "name": "Ruda Maleniecka"
      },
      "geometry": {
        "coordinates": [
          20.22377,
          51.14592
        ],
        "type": "Point"
      }
    },
    {
      "type": "Feature",
      "properties": {
        "name": "Ruciane-Nida"
      },
      "geometry": {
        "coordinates": [
          21.53964,
          53.64161
        ],
        "type": "Point"
      }
    },
    {
      "type": "Feature",
      "properties": {
        "name": "Rozogi"
      },
      "geometry": {
        "coordinates": [
          21.36223,
          53.48549
        ],
        "type": "Point"
      }
    },
    {
      "type": "Feature",
      "properties": {
        "name": "Rozborz"
      },
      "geometry": {
        "coordinates": [
          22.54686,
          50.05615
        ],
        "type": "Point"
      }
    },
    {
      "type": "Feature",
      "properties": {
        "name": "Siennica Rozana"
      },
      "geometry": {
        "coordinates": [
          23.3226,
          51.00123
        ],
        "type": "Point"
      }
    },
    {
      "type": "Feature",
      "properties": {
        "name": "Rozan"
      },
      "geometry": {
        "coordinates": [
          21.39105,
          52.88757
        ],
        "type": "Point"
      }
    },
    {
      "type": "Feature",
      "properties": {
        "name": "Rossosz"
      },
      "geometry": {
        "coordinates": [
          23.1374,
          51.85836
        ],
        "type": "Point"
      }
    },
    {
      "type": "Feature",
      "properties": {
        "name": "Ropczyce"
      },
      "geometry": {
        "coordinates": [
          21.60891,
          50.05229
        ],
        "type": "Point"
      }
    },
    {
      "type": "Feature",
      "properties": {
        "name": "Ropa"
      },
      "geometry": {
        "coordinates": [
          21.04431,
          49.59146
        ],
        "type": "Point"
      }
    },
    {
      "type": "Feature",
      "properties": {
        "name": "Rokitno"
      },
      "geometry": {
        "coordinates": [
          23.29514,
          52.12142
        ],
        "type": "Point"
      }
    },
    {
      "type": "Feature",
      "properties": {
        "name": "Rokietnica"
      },
      "geometry": {
        "coordinates": [
          22.64171,
          49.89983
        ],
        "type": "Point"
      }
    },
    {
      "type": "Feature",
      "properties": {
        "name": "Rogozno"
      },
      "geometry": {
        "coordinates": [
          23.39041,
          50.46417
        ],
        "type": "Point"
      }
    },
    {
      "type": "Feature",
      "properties": {
        "name": "Rogozno"
      },
      "geometry": {
        "coordinates": [
          22.37486,
          50.07367
        ],
        "type": "Point"
      }
    },
    {
      "type": "Feature",
      "properties": {
        "name": "Rogow"
      },
      "geometry": {
        "coordinates": [
          20.43483,
          51.20414
        ],
        "type": "Point"
      }
    },
    {
      "type": "Feature",
      "properties": {
        "name": "Reszel"
      },
      "geometry": {
        "coordinates": [
          21.14585,
          54.05042
        ],
        "type": "Point"
      }
    },
    {
      "type": "Feature",
      "properties": {
        "name": "Repki"
      },
      "geometry": {
        "coordinates": [
          22.39117,
          52.38555
        ],
        "type": "Point"
      }
    },
    {
      "type": "Feature",
      "properties": {
        "name": "Rembertow"
      },
      "geometry": {
        "coordinates": [
          21.16355,
          52.26059
        ],
        "type": "Point"
      }
    },
    {
      "type": "Feature",
      "properties": {
        "name": "Rejowiec Fabryczny"
      },
      "geometry": {
        "coordinates": [
          23.24724,
          51.11414
        ],
        "type": "Point"
      }
    },
    {
      "type": "Feature",
      "properties": {
        "name": "Rejowiec"
      },
      "geometry": {
        "coordinates": [
          23.28192,
          51.09134
        ],
        "type": "Point"
      }
    },
    {
      "type": "Feature",
      "properties": {
        "name": "Regnow"
      },
      "geometry": {
        "coordinates": [
          20.38711,
          51.7485
        ],
        "type": "Point"
      }
    },
    {
      "type": "Feature",
      "properties": {
        "name": "Regimin"
      },
      "geometry": {
        "coordinates": [
          20.55319,
          52.94166
        ],
        "type": "Point"
      }
    },
    {
      "type": "Feature",
      "properties": {
        "name": "Rawa Mazowiecka"
      },
      "geometry": {
        "coordinates": [
          20.25493,
          51.76437
        ],
        "type": "Point"
      }
    },
    {
      "type": "Feature",
      "properties": {
        "name": "Raszyn"
      },
      "geometry": {
        "coordinates": [
          20.9226,
          52.15603
        ],
        "type": "Point"
      }
    },
    {
      "type": "Feature",
      "properties": {
        "name": "Ranizow"
      },
      "geometry": {
        "coordinates": [
          21.97137,
          50.25873
        ],
        "type": "Point"
      }
    },
    {
      "type": "Feature",
      "properties": {
        "name": "Rakszawa"
      },
      "geometry": {
        "coordinates": [
          22.23907,
          50.16051
        ],
        "type": "Point"
      }
    },
    {
      "type": "Feature",
      "properties": {
        "name": "Rakow"
      },
      "geometry": {
        "coordinates": [
          21.04517,
          50.67427
        ],
        "type": "Point"
      }
    },
    {
      "type": "Feature",
      "properties": {
        "name": "Rajgrod"
      },
      "geometry": {
        "coordinates": [
          22.70515,
          53.73102
        ],
        "type": "Point"
      }
    },
    {
      "type": "Feature",
      "properties": {
        "name": "Radzyn Podlaski"
      },
      "geometry": {
        "coordinates": [
          22.61667,
          51.78333
        ],
        "type": "Point"
      }
    },
    {
      "type": "Feature",
      "properties": {
        "name": "Radzymin"
      },
      "geometry": {
        "coordinates": [
          21.18415,
          52.41592
        ],
        "type": "Point"
      }
    },
    {
      "type": "Feature",
      "properties": {
        "name": "Radzilow"
      },
      "geometry": {
        "coordinates": [
          22.40988,
          53.40994
        ],
        "type": "Point"
      }
    },
    {
      "type": "Feature",
      "properties": {
        "name": "Radziejowice"
      },
      "geometry": {
        "coordinates": [
          20.5477,
          52.00834
        ],
        "type": "Point"
      }
    },
    {
      "type": "Feature",
      "properties": {
        "name": "Radzanow"
      },
      "geometry": {
        "coordinates": [
          20.09219,
          52.94238
        ],
        "type": "Point"
      }
    },
    {
      "type": "Feature",
      "properties": {
        "name": "Radzanow"
      },
      "geometry": {
        "coordinates": [
          20.86398,
          51.55786
        ],
        "type": "Point"
      }
    },
    {
      "type": "Feature",
      "properties": {
        "name": "Radymno"
      },
      "geometry": {
        "coordinates": [
          22.82375,
          49.9472
        ],
        "type": "Point"
      }
    },
    {
      "type": "Feature",
      "properties": {
        "name": "Radoszyce"
      },
      "geometry": {
        "coordinates": [
          20.25836,
          51.07392
        ],
        "type": "Point"
      }
    },
    {
      "type": "Feature",
      "properties": {
        "name": "Radomysl Wielki"
      },
      "geometry": {
        "coordinates": [
          21.27693,
          50.19693
        ],
        "type": "Point"
      }
    },
    {
      "type": "Feature",
      "properties": {
        "name": "Radomysl"
      },
      "geometry": {
        "coordinates": [
          21.94365,
          50.68101
        ],
        "type": "Point"
      }
    },
    {
      "type": "Feature",
      "properties": {
        "name": "Radom"
      },
      "geometry": {
        "coordinates": [
          21.14714,
          51.40253
        ],
        "type": "Point"
      }
    },
    {
      "type": "Feature",
      "properties": {
        "name": "Radlow"
      },
      "geometry": {
        "coordinates": [
          20.84967,
          50.08419
        ],
        "type": "Point"
      }
    },
    {
      "type": "Feature",
      "properties": {
        "name": "Radgoszcz"
      },
      "geometry": {
        "coordinates": [
          21.11315,
          50.2058
        ],
        "type": "Point"
      }
    },
    {
      "type": "Feature",
      "properties": {
        "name": "Radecznica"
      },
      "geometry": {
        "coordinates": [
          22.82976,
          50.75155
        ],
        "type": "Point"
      }
    },
    {
      "type": "Feature",
      "properties": {
        "name": "Raczki"
      },
      "geometry": {
        "coordinates": [
          22.78487,
          53.98749
        ],
        "type": "Point"
      }
    },
    {
      "type": "Feature",
      "properties": {
        "name": "Raclawice"
      },
      "geometry": {
        "coordinates": [
          22.16552,
          50.5137
        ],
        "type": "Point"
      }
    },
    {
      "type": "Feature",
      "properties": {
        "name": "Raciaz"
      },
      "geometry": {
        "coordinates": [
          20.1177,
          52.78152
        ],
        "type": "Point"
      }
    },
    {
      "type": "Feature",
      "properties": {
        "name": "Rachanie"
      },
      "geometry": {
        "coordinates": [
          23.54688,
          50.53842
        ],
        "type": "Point"
      }
    },
    {
      "type": "Feature",
      "properties": {
        "name": "Pysznica"
      },
      "geometry": {
        "coordinates": [
          22.12913,
          50.56999
        ],
        "type": "Point"
      }
    },
    {
      "type": "Feature",
      "properties": {
        "name": "Puszcza Marianska"
      },
      "geometry": {
        "coordinates": [
          20.35037,
          51.97901
        ],
        "type": "Point"
      }
    },
    {
      "type": "Feature",
      "properties": {
        "name": "Purda"
      },
      "geometry": {
        "coordinates": [
          20.70683,
          53.70844
        ],
        "type": "Point"
      }
    },
    {
      "type": "Feature",
      "properties": {
        "name": "Punsk"
      },
      "geometry": {
        "coordinates": [
          23.18124,
          54.25114
        ],
        "type": "Point"
      }
    },
    {
      "type": "Feature",
      "properties": {
        "name": "Pultusk"
      },
      "geometry": {
        "coordinates": [
          21.08276,
          52.7025
        ],
        "type": "Point"
      }
    },
    {
      "type": "Feature",
      "properties": {
        "name": "Pulawy"
      },
      "geometry": {
        "coordinates": [
          21.96939,
          51.41655
        ],
        "type": "Point"
      }
    },
    {
      "type": "Feature",
      "properties": {
        "name": "Puchaczow"
      },
      "geometry": {
        "coordinates": [
          22.9737,
          51.3105
        ],
        "type": "Point"
      }
    },
    {
      "type": "Feature",
      "properties": {
        "name": "Przytyk"
      },
      "geometry": {
        "coordinates": [
          20.90587,
          51.46567
        ],
        "type": "Point"
      }
    },
    {
      "type": "Feature",
      "properties": {
        "name": "Przytoczno"
      },
      "geometry": {
        "coordinates": [
          22.27135,
          51.61951
        ],
        "type": "Point"
      }
    },
    {
      "type": "Feature",
      "properties": {
        "name": "Przysucha"
      },
      "geometry": {
        "coordinates": [
          20.62889,
          51.35858
        ],
        "type": "Point"
      }
    },
    {
      "type": "Feature",
      "properties": {
        "name": "Przylek"
      },
      "geometry": {
        "coordinates": [
          21.74744,
          51.30856
        ],
        "type": "Point"
      }
    },
    {
      "type": "Feature",
      "properties": {
        "name": "Przybyszowka"
      },
      "geometry": {
        "coordinates": [
          21.92579,
          50.04788
        ],
        "type": "Point"
      }
    },
    {
      "type": "Feature",
      "properties": {
        "name": "Przyborow"
      },
      "geometry": {
        "coordinates": [
          20.66279,
          50.03035
        ],
        "type": "Point"
      }
    },
    {
      "type": "Feature",
      "properties": {
        "name": "Przeworsk"
      },
      "geometry": {
        "coordinates": [
          22.49408,
          50.05912
        ],
        "type": "Point"
      }
    },
    {
      "type": "Feature",
      "properties": {
        "name": "Przesmyki"
      },
      "geometry": {
        "coordinates": [
          22.58394,
          52.26816
        ],
        "type": "Point"
      }
    },
    {
      "type": "Feature",
      "properties": {
        "name": "Przemysl"
      },
      "geometry": {
        "coordinates": [
          22.76728,
          49.78498
        ],
        "type": "Point"
      }
    },
    {
      "type": "Feature",
      "properties": {
        "name": "Przedzel"
      },
      "geometry": {
        "coordinates": [
          22.21925,
          50.49465
        ],
        "type": "Point"
      }
    },
    {
      "type": "Feature",
      "properties": {
        "name": "Przedmiescie Dubieckie"
      },
      "geometry": {
        "coordinates": [
          22.37177,
          49.8371
        ],
        "type": "Point"
      }
    },
    {
      "type": "Feature",
      "properties": {
        "name": "Przeclaw"
      },
      "geometry": {
        "coordinates": [
          21.48007,
          50.19339
        ],
        "type": "Point"
      }
    },
    {
      "type": "Feature",
      "properties": {
        "name": "Przasnysz"
      },
      "geometry": {
        "coordinates": [
          20.88029,
          53.01907
        ],
        "type": "Point"
      }
    },
    {
      "type": "Feature",
      "properties": {
        "name": "Pruszkow"
      },
      "geometry": {
        "coordinates": [
          20.81214,
          52.17072
        ],
        "type": "Point"
      }
    },
    {
      "type": "Feature",
      "properties": {
        "name": "Pruchnik"
      },
      "geometry": {
        "coordinates": [
          22.51554,
          49.9062
        ],
        "type": "Point"
      }
    },
    {
      "type": "Feature",
      "properties": {
        "name": "Proszowice"
      },
      "geometry": {
        "coordinates": [
          20.28909,
          50.19275
        ],
        "type": "Point"
      }
    },
    {
      "type": "Feature",
      "properties": {
        "name": "Prostki"
      },
      "geometry": {
        "coordinates": [
          22.43183,
          53.69901
        ],
        "type": "Point"
      }
    },
    {
      "type": "Feature",
      "properties": {
        "name": "Promna"
      },
      "geometry": {
        "coordinates": [
          20.95917,
          51.68006
        ],
        "type": "Point"
      }
    },
    {
      "type": "Feature",
      "properties": {
        "name": "Prazmow"
      },
      "geometry": {
        "coordinates": [
          20.95479,
          51.9404
        ],
        "type": "Point"
      }
    },
    {
      "type": "Feature",
      "properties": {
        "name": "Pozezdrze"
      },
      "geometry": {
        "coordinates": [
          21.8597,
          54.14147
        ],
        "type": "Point"
      }
    },
    {
      "type": "Feature",
      "properties": {
        "name": "Potworow"
      },
      "geometry": {
        "coordinates": [
          20.72176,
          51.50874
        ],
        "type": "Point"
      }
    },
    {
      "type": "Feature",
      "properties": {
        "name": "Potok Wielki"
      },
      "geometry": {
        "coordinates": [
          22.21642,
          50.7915
        ],
        "type": "Point"
      }
    },
    {
      "type": "Feature",
      "properties": {
        "name": "Potok Gorny"
      },
      "geometry": {
        "coordinates": [
          22.56188,
          50.38477
        ],
        "type": "Point"
      }
    },
    {
      "type": "Feature",
      "properties": {
        "name": "Poswietne"
      },
      "geometry": {
        "coordinates": [
          21.42137,
          52.32967
        ],
        "type": "Point"
      }
    },
    {
      "type": "Feature",
      "properties": {
        "name": "Poswietne"
      },
      "geometry": {
        "coordinates": [
          20.36453,
          51.53203
        ],
        "type": "Point"
      }
    },
    {
      "type": "Feature",
      "properties": {
        "name": "Poronin"
      },
      "geometry": {
        "coordinates": [
          20.00291,
          49.33781
        ],
        "type": "Point"
      }
    },
    {
      "type": "Feature",
      "properties": {
        "name": "Poreba Spytkowska"
      },
      "geometry": {
        "coordinates": [
          20.55405,
          49.93995
        ],
        "type": "Point"
      }
    },
    {
      "type": "Feature",
      "properties": {
        "name": "Poreba"
      },
      "geometry": {
        "coordinates": [
          20.01718,
          49.79645
        ],
        "type": "Point"
      }
    },
    {
      "type": "Feature",
      "properties": {
        "name": "Poraz"
      },
      "geometry": {
        "coordinates": [
          22.225,
          49.48597
        ],
        "type": "Point"
      }
    },
    {
      "type": "Feature",
      "properties": {
        "name": "Porabka Uszewska"
      },
      "geometry": {
        "coordinates": [
          20.69052,
          49.9426
        ],
        "type": "Point"
      }
    },
    {
      "type": "Feature",
      "properties": {
        "name": "Poniatowa"
      },
      "geometry": {
        "coordinates": [
          22.13093,
          51.17983
        ],
        "type": "Point"
      }
    },
    {
      "type": "Feature",
      "properties": {
        "name": "Pomiechowek"
      },
      "geometry": {
        "coordinates": [
          20.72923,
          52.47138
        ],
        "type": "Point"
      }
    },
    {
      "type": "Feature",
      "properties": {
        "name": "Polomia"
      },
      "geometry": {
        "coordinates": [
          21.89198,
          49.90475
        ],
        "type": "Point"
      }
    },
    {
      "type": "Feature",
      "properties": {
        "name": "Policzna"
      },
      "geometry": {
        "coordinates": [
          21.62684,
          51.45545
        ],
        "type": "Point"
      }
    },
    {
      "type": "Feature",
      "properties": {
        "name": "Polaniec"
      },
      "geometry": {
        "coordinates": [
          21.2812,
          50.43324
        ],
        "type": "Point"
      }
    },
    {
      "type": "Feature",
      "properties": {
        "name": "Polanczyk"
      },
      "geometry": {
        "coordinates": [
          22.42112,
          49.36969
        ],
        "type": "Point"
      }
    },
    {
      "type": "Feature",
      "properties": {
        "name": "Pokrzywnica"
      },