{
  "type": "FeatureCollection",
  "features": [
    {
      "type": "Feature",
      "properties": {
        "name": "Dvur Kralove nad Labem"
      },
      "geometry": {
        "coordinates": [
          15.81402,
          50.43172
        ],
        "type": "Point"
      }
    },
    {
      "type": "Feature",
      "properties": {
        "name": "Zvole"
      },
      "geometry": {
        "coordinates": [
          14.41769,
          49.93466
        ],
        "type": "Point"
      }
    },
    {
      "type": "Feature",
      "properties": {
        "name": "Zulova"
      },
      "geometry": {
        "coordinates": [
          17.09871,
          50.30933
        ],
        "type": "Point"
      }
    },
    {
      "type": "Feature",
      "properties": {
        "name": "Zubri"
      },
      "geometry": {
        "coordinates": [
          18.09249,
          49.46603
        ],
        "type": "Point"
      }
    },
    {
      "type": "Feature",
      "properties": {
        "name": "Zruc nad Sazavou"
      },
      "geometry": {
        "coordinates": [
          15.10606,
          49.7401
        ],
        "type": "Point"
      }
    },
    {
      "type": "Feature",
      "properties": {
        "name": "Znojmo"
      },
      "geometry": {
        "coordinates": [
          16.0488,
          48.8555
        ],
        "type": "Point"
      }
    },
    {
      "type": "Feature",
      "properties": {
        "name": "Zlutice"
      },
      "geometry": {
        "coordinates": [
          13.16297,
          50.09192
        ],
        "type": "Point"
      }
    },
    {
      "type": "Feature",
      "properties": {
        "name": "Zlutava"
      },
      "geometry": {
        "coordinates": [
          17.49037,
          49.19976
        ],
        "type": "Point"
      }
    },
    {
      "type": "Feature",
      "properties": {
        "name": "Zlonice"
      },
      "geometry": {
        "coordinates": [
          14.09214,
          50.2875
        ],
        "type": "Point"
      }
    },
    {
      "type": "Feature",
      "properties": {
        "name": "Zliv"
      },
      "geometry": {
        "coordinates": [
          14.36613,
          49.06608
        ],
        "type": "Point"
      }
    },
    {
      "type": "Feature",
      "properties": {
        "name": "Zlin"
      },
      "geometry": {
        "coordinates": [
          17.67065,
          49.22645
        ],
        "type": "Point"
      }
    },
    {
      "type": "Feature",
      "properties": {
        "name": "Zlechov"
      },
      "geometry": {
        "coordinates": [
          17.37938,
          49.07396
        ],
        "type": "Point"
      }
    },
    {
      "type": "Feature",
      "properties": {
        "name": "Zleby"
      },
      "geometry": {
        "coordinates": [
          15.48853,
          49.88958
        ],
        "type": "Point"
      }
    },
    {
      "type": "Feature",
      "properties": {
        "name": "Zlate Hory"
      },
      "geometry": {
        "coordinates": [
          17.39602,
          50.2638
        ],
        "type": "Point"
      }
    },
    {
      "type": "Feature",
      "properties": {
        "name": "Zizelice"
      },
      "geometry": {
        "coordinates": [
          15.3932,
          50.13192
        ],
        "type": "Point"
      }
    },
    {
      "type": "Feature",
      "properties": {
        "name": "Zitenice"
      },
      "geometry": {
        "coordinates": [
          14.15665,
          50.55528
        ],
        "type": "Point"
      }
    },
    {
      "type": "Feature",
      "properties": {
        "name": "Zirovnice"
      },
      "geometry": {
        "coordinates": [
          15.18824,
          49.25318
        ],
        "type": "Point"
      }
    },
    {
      "type": "Feature",
      "properties": {
        "name": "Zihle"
      },
      "geometry": {
        "coordinates": [
          13.37502,
          50.04491
        ],
        "type": "Point"
      }
    },
    {
      "type": "Feature",
      "properties": {
        "name": "Zidlochovice"
      },
      "geometry": {
        "coordinates": [
          16.61881,
          49.03952
        ],
        "type": "Point"
      }
    },
    {
      "type": "Feature",
      "properties": {
        "name": "Zeravice"
      },
      "geometry": {
        "coordinates": [
          17.23726,
          49.02288
        ],
        "type": "Point"
      }
    },
    {
      "type": "Feature",
      "properties": {
        "name": "Zeliv"
      },
      "geometry": {
        "coordinates": [
          15.22181,
          49.52984
        ],
        "type": "Point"
      }
    },
    {
      "type": "Feature",
      "properties": {
        "name": "Zelezny Brod"
      },
      "geometry": {
        "coordinates": [
          15.25408,
          50.64274
        ],
        "type": "Point"
      }
    },
    {
      "type": "Feature",
      "properties": {
        "name": "Zeleznice"
      },
      "geometry": {
        "coordinates": [
          15.38459,
          50.47274
        ],
        "type": "Point"
      }
    },
    {
      "type": "Feature",
      "properties": {
        "name": "Zelezna Ruda"
      },
      "geometry": {
        "coordinates": [
          13.2352,
          49.13743
        ],
        "type": "Point"
      }
    },
    {
      "type": "Feature",
      "properties": {
        "name": "Zeletava"
      },
      "geometry": {
        "coordinates": [
          15.673,
          49.14187
        ],
        "type": "Point"
      }
    },
    {
      "type": "Feature",
      "properties": {
        "name": "Zelesice"
      },
      "geometry": {
        "coordinates": [
          16.58137,
          49.11689
        ],
        "type": "Point"
      }
    },
    {
      "type": "Feature",
      "properties": {
        "name": "Zelenec"
      },
      "geometry": {
        "coordinates": [
          14.6607,
          50.13362
        ],
        "type": "Point"
      }
    },
    {
      "type": "Feature",
      "properties": {
        "name": "Zebrak"
      },
      "geometry": {
        "coordinates": [
          13.89735,
          49.87574
        ],
        "type": "Point"
      }
    },
    {
      "type": "Feature",
      "properties": {
        "name": "Zdounky"
      },
      "geometry": {
        "coordinates": [
          17.31899,
          49.22771
        ],
        "type": "Point"
      }
    },
    {
      "type": "Feature",
      "properties": {
        "name": "Zdikov"
      },
      "geometry": {
        "coordinates": [
          13.69738,
          49.08456
        ],
        "type": "Point"
      }
    },
    {
      "type": "Feature",
      "properties": {
        "name": "Zdice"
      },
      "geometry": {
        "coordinates": [
          13.97747,
          49.91207
        ],
        "type": "Point"
      }
    },
    {
      "type": "Feature",
      "properties": {
        "name": "Zdiby"
      },
      "geometry": {
        "coordinates": [
          14.45118,
          50.16799
        ],
        "type": "Point"
      }
    },
    {
      "type": "Feature",
      "properties": {
        "name": "Zd'ar nad Sazavou Druhy"
      },
      "geometry": {
        "coordinates": [
          15.93215,
          49.58726
        ],
        "type": "Point"
      }
    },
    {
      "type": "Feature",
      "properties": {
        "name": "Zd'ar nad Sazavou"
      },
      "geometry": {
        "coordinates": [
          15.93924,
          49.56263
        ],
        "type": "Point"
      }
    },
    {
      "type": "Feature",
      "properties": {
        "name": "Zd'ar"
      },
      "geometry": {
        "coordinates": [
          15.08034,
          50.54366
        ],
        "type": "Point"
      }
    },
    {
      "type": "Feature",
      "properties": {
        "name": "Zdanice"
      },
      "geometry": {
        "coordinates": [
          17.02751,
          49.06729
        ],
        "type": "Point"
      }
    },
    {
      "type": "Feature",
      "properties": {
        "name": "Zbysov"
      },
      "geometry": {
        "coordinates": [
          16.34951,
          49.15524
        ],
        "type": "Point"
      }
    },
    {
      "type": "Feature",
      "properties": {
        "name": "Zbuch"
      },
      "geometry": {
        "coordinates": [
          13.22564,
          49.6784
        ],
        "type": "Point"
      }
    },
    {
      "type": "Feature",
      "properties": {
        "name": "Zbraslavice"
      },
      "geometry": {
        "coordinates": [
          15.18319,
          49.81179
        ],
        "type": "Point"
      }
    },
    {
      "type": "Feature",
      "properties": {
        "name": "Zbraslav"
      },
      "geometry": {
        "coordinates": [
          16.29415,
          49.22155
        ],
        "type": "Point"
      }
    },
    {
      "type": "Feature",
      "properties": {
        "name": "Zborovice"
      },
      "geometry": {
        "coordinates": [
          17.28464,
          49.24889
        ],
        "type": "Point"
      }
    },
    {
      "type": "Feature",
      "properties": {
        "name": "Zbiroh"
      },
      "geometry": {
        "coordinates": [
          13.77262,
          49.86024
        ],
        "type": "Point"
      }
    },
    {
      "type": "Feature",
      "properties": {
        "name": "Zator"
      },
      "geometry": {
        "coordinates": [
          17.59296,
          50.03413
        ],
        "type": "Point"
      }
    },
    {
      "type": "Feature",
      "properties": {
        "name": "Zatec"
      },
      "geometry": {
        "coordinates": [
          13.54577,
          50.32717
        ],
        "type": "Point"
      }
    },
    {
      "type": "Feature",
      "properties": {
        "name": "Zastavka"
      },
      "geometry": {
        "coordinates": [
          16.3631,
          49.188
        ],
        "type": "Point"
      }
    },
    {
      "type": "Feature",
      "properties": {
        "name": "Zasova"
      },
      "geometry": {
        "coordinates": [
          18.04436,
          49.4741
        ],
        "type": "Point"
      }
    },
    {
      "type": "Feature",
      "properties": {
        "name": "Zasmuky"
      },
      "geometry": {
        "coordinates": [
          15.03058,
          49.9547
        ],
        "type": "Point"
      }
    },
    {
      "type": "Feature",
      "properties": {
        "name": "Zandov"
      },
      "geometry": {
        "coordinates": [
          14.39623,
          50.71394
        ],
        "type": "Point"
      }
    },
    {
      "type": "Feature",
      "properties": {
        "name": "Zamberk"
      },
      "geometry": {
        "coordinates": [
          16.46738,
          50.08601
        ],
        "type": "Point"
      }
    },
    {
      "type": "Feature",
      "properties": {
        "name": "Zakupy"
      },
      "geometry": {
        "coordinates": [
          14.64522,
          50.68475
        ],
        "type": "Point"
      }
    },
    {
      "type": "Feature",
      "properties": {
        "name": "Zajecov"
      },
      "geometry": {
        "coordinates": [
          13.84072,
          49.77435
        ],
        "type": "Point"
      }
    },
    {
      "type": "Feature",
      "properties": {
        "name": "Zajeci"
      },
      "geometry": {
        "coordinates": [
          16.76646,
          48.87295
        ],
        "type": "Point"
      }
    },
    {
      "type": "Feature",
      "properties": {
        "name": "Zahorovice"
      },
      "geometry": {
        "coordinates": [
          17.77922,
          49.02266
        ],
        "type": "Point"
      }
    },
    {
      "type": "Feature",
      "properties": {
        "name": "Zadni Mostek"
      },
      "geometry": {
        "coordinates": [
          15.69804,
          50.4967
        ],
        "type": "Point"
      }
    },
    {
      "type": "Feature",
      "properties": {
        "name": "Zacler"
      },
      "geometry": {
        "coordinates": [
          15.91063,
          50.66329
        ],
        "type": "Point"
      }
    },
    {
      "type": "Feature",
      "properties": {
        "name": "Zabrusany"
      },
      "geometry": {
        "coordinates": [
          13.78748,
          50.60495
        ],
        "type": "Point"
      }
    },
    {
      "type": "Feature",
      "properties": {
        "name": "Zabreh"
      },
      "geometry": {
        "coordinates": [
          16.87223,
          49.8826
        ],
        "type": "Point"
      }
    },
    {
      "type": "Feature",
      "properties": {
        "name": "Zabcice"
      },
      "geometry": {
        "coordinates": [
          16.60257,
          49.0116
        ],
        "type": "Point"
      }
    },
    {
      "type": "Feature",
      "properties": {
        "name": "Vyssi Brod"
      },
      "geometry": {
        "coordinates": [
          14.31183,
          48.61598
        ],
        "type": "Point"
      }
    },
    {
      "type": "Feature",
      "properties": {
        "name": "Vysoke nad Jizerou"
      },
      "geometry": {
        "coordinates": [
          15.40152,
          50.68559
        ],
        "type": "Point"
      }
    },
    {
      "type": "Feature",
      "properties": {
        "name": "Vysoke Myto"
      },
      "geometry": {
        "coordinates": [
          16.16169,
          49.9532
        ],
        "type": "Point"
      }
    },
    {
      "type": "Feature",
      "properties": {
        "name": "Vysocany"
      },
      "geometry": {
        "coordinates": [
          14.51667,
          50.10938
        ],
        "type": "Point"
      }
    },
    {
      "type": "Feature",
      "properties": {
        "name": "Vyskov"
      },
      "geometry": {
        "coordinates": [
          16.99897,
          49.27747
        ],
        "type": "Point"
      }
    },
    {
      "type": "Feature",
      "properties": {
        "name": "Vsetin"
      },
      "geometry": {
        "coordinates": [
          17.99619,
          49.33871
        ],
        "type": "Point"
      }
    },
    {
      "type": "Feature",
      "properties": {
        "name": "Vsetaty"
      },
      "geometry": {
        "coordinates": [
          14.59297,
          50.28187
        ],
        "type": "Point"
      }
    },
    {
      "type": "Feature",
      "properties": {
        "name": "Vsestary"
      },
      "geometry": {
        "coordinates": [
          15.75983,
          50.2566
        ],
        "type": "Point"
      }
    },
    {
      "type": "Feature",
      "properties": {
        "name": "Vseruby"
      },
      "geometry": {
        "coordinates": [
          13.22943,
          49.84167
        ],
        "type": "Point"
      }
    },
    {
      "type": "Feature",
      "properties": {
        "name": "Vsenory"
      },
      "geometry": {
        "coordinates": [
          14.30392,
          49.92883
        ],
        "type": "Point"
      }
    },
    {
      "type": "Feature",
      "properties": {
        "name": "Vsemina"
      },
      "geometry": {
        "coordinates": [
          17.87682,
          49.281
        ],
        "type": "Point"
      }
    },
    {
      "type": "Feature",
      "properties": {
        "name": "Vroutek"
      },
      "geometry": {
        "coordinates": [
          13.37986,
          50.17999
        ],
        "type": "Point"
      }
    },
    {
      "type": "Feature",
      "properties": {
        "name": "Vresina"
      },
      "geometry": {
        "coordinates": [
          18.19005,
          49.94581
        ],
        "type": "Point"
      }
    },
    {
      "type": "Feature",
      "properties": {
        "name": "Vresina"
      },
      "geometry": {
        "coordinates": [
          18.12569,
          49.82418
        ],
        "type": "Point"
      }
    },
    {
      "type": "Feature",
      "properties": {
        "name": "Vrdy"
      },
      "geometry": {
        "coordinates": [
          15.47243,
          49.92153
        ],
        "type": "Point"
      }
    },
    {
      "type": "Feature",
      "properties": {
        "name": "Vrchlabi"
      },
      "geometry": {
        "coordinates": [
          15.60937,
          50.62697
        ],
        "type": "Point"
      }
    },
    {
      "type": "Feature",
      "properties": {
        "name": "Vrbovec"
      },
      "geometry": {
        "coordinates": [
          16.10061,
          48.79978
        ],
        "type": "Point"
      }
    },
    {
      "type": "Feature",
      "properties": {
        "name": "Vrbno pod Pradedem"
      },
      "geometry": {
        "coordinates": [
          17.38316,
          50.12095
        ],
        "type": "Point"
      }
    },
    {
      "type": "Feature",
      "properties": {
        "name": "Vrbice"
      },
      "geometry": {
        "coordinates": [
          16.89779,
          48.91508
        ],
        "type": "Point"
      }
    },
    {
      "type": "Feature",
      "properties": {
        "name": "Vrbatky"
      },
      "geometry": {
        "coordinates": [
          17.19994,
          49.50805
        ],
        "type": "Point"
      }
    },
    {
      "type": "Feature",
      "properties": {
        "name": "Vratimov"
      },
      "geometry": {
        "coordinates": [
          18.31015,
          49.76995
        ],
        "type": "Point"
      }
    },
    {
      "type": "Feature",
      "properties": {
        "name": "Vranovice"
      },
      "geometry": {
        "coordinates": [
          16.6066,
          48.966
        ],
        "type": "Point"
      }
    },
    {
      "type": "Feature",
      "properties": {
        "name": "Vrane nad Vltavou"
      },
      "geometry": {
        "coordinates": [
          14.37706,
          49.93585
        ],
        "type": "Point"
      }
    },
    {
      "type": "Feature",
      "properties": {
        "name": "Vracov"
      },
      "geometry": {
        "coordinates": [
          17.211,
          48.97523
        ],
        "type": "Point"
      }
    },
    {
      "type": "Feature",
      "properties": {
        "name": "Votice"
      },
      "geometry": {
        "coordinates": [
          14.63809,
          49.64013
        ],
        "type": "Point"
      }
    },
    {
      "type": "Feature",
      "properties": {
        "name": "Volyne"
      },
      "geometry": {
        "coordinates": [
          13.88624,
          49.16578
        ],
        "type": "Point"
      }
    },
    {
      "type": "Feature",
      "properties": {
        "name": "Volary"
      },
      "geometry": {
        "coordinates": [
          13.88657,
          48.90881
        ],
        "type": "Point"
      }
    },
    {
      "type": "Feature",
      "properties": {
        "name": "Vojkovice"
      },
      "geometry": {
        "coordinates": [
          16.6082,
          49.05138
        ],
        "type": "Point"
      }
    },
    {
      "type": "Feature",
      "properties": {
        "name": "Vodnany"
      },
      "geometry": {
        "coordinates": [
          14.17513,
          49.14789
        ],
        "type": "Point"
      }
    },
    {
      "type": "Feature",
      "properties": {
        "name": "Vnorovy"
      },
      "geometry": {
        "coordinates": [
          17.3505,
          48.93096
        ],
        "type": "Point"
      }
    },
    {
      "type": "Feature",
      "properties": {
        "name": "Vlkos"
      },
      "geometry": {
        "coordinates": [
          17.16356,
          48.9896
        ],
        "type": "Point"
      }
    },
    {
      "type": "Feature",
      "properties": {
        "name": "Vlcnov"
      },
      "geometry": {
        "coordinates": [
          17.95458,
          49.57866
        ],
        "type": "Point"
      }
    },
    {
      "type": "Feature",
      "properties": {
        "name": "Vlcnov"
      },
      "geometry": {
        "coordinates": [
          17.58183,
          49.0099
        ],
        "type": "Point"
      }
    },
    {
      "type": "Feature",
      "properties": {
        "name": "Vlasim"
      },
      "geometry": {
        "coordinates": [
          14.89881,
          49.70632
        ],
        "type": "Point"
      }
    },
    {
      "type": "Feature",
      "properties": {
        "name": "Vladislav"
      },
      "geometry": {
        "coordinates": [
          15.9883,
          49.21017
        ],
        "type": "Point"
      }
    },
    {
      "type": "Feature",
      "properties": {
        "name": "Vlachovo Brezi"
      },
      "geometry": {
        "coordinates": [
          13.95842,
          49.08135
        ],
        "type": "Point"
      }
    },
    {
      "type": "Feature",
      "properties": {
        "name": "Vlachovice"
      },
      "geometry": {
        "coordinates": [
          17.94001,
          49.12377
        ],
        "type": "Point"
      }
    },
    {
      "type": "Feature",
      "properties": {
        "name": "Vizovice"
      },
      "geometry": {
        "coordinates": [
          17.85455,
          49.22287
        ],
        "type": "Point"
      }
    },
    {
      "type": "Feature",
      "properties": {
        "name": "Vitkov"
      },
      "geometry": {
        "coordinates": [
          17.74941,
          49.77445
        ],
        "type": "Point"
      }
    },
    {
      "type": "Feature",
      "properties": {
        "name": "Visnove"
      },
      "geometry": {
        "coordinates": [
          16.15025,
          48.98241
        ],
        "type": "Point"
      }
    },
    {
      "type": "Feature",
      "properties": {
        "name": "Visnova"
      },
      "geometry": {
        "coordinates": [
          15.02495,
          50.96663
        ],
        "type": "Point"
      }
    },
    {
      "type": "Feature",
      "properties": {
        "name": "Vintirov"
      },
      "geometry": {
        "coordinates": [
          12.71748,
          50.23382
        ],
        "type": "Point"
      }
    },
    {
      "type": "Feature",
      "properties": {
        "name": "Vinicne Sumice"
      },
      "geometry": {
        "coordinates": [
          16.82541,
          49.21358
        ],
        "type": "Point"
      }
    },
    {
      "type": "Feature",
      "properties": {
        "name": "Vinarice"
      },
      "geometry": {
        "coordinates": [
          14.09106,
          50.17585
        ],
        "type": "Point"
      }
    },
    {
      "type": "Feature",
      "properties": {
        "name": "Vimperk"
      },
      "geometry": {
        "coordinates": [
          13.78286,
          49.05857
        ],
        "type": "Point"
      }
    },
    {
      "type": "Feature",
      "properties": {
        "name": "Vilemov"
      },
      "geometry": {
        "coordinates": [
          14.33531,
          50.99054
        ],
        "type": "Point"
      }
    },
    {
      "type": "Feature",
      "properties": {
        "name": "Vilemov"
      },
      "geometry": {
        "coordinates": [
          15.53584,
          49.81566
        ],
        "type": "Point"
      }
    },
    {
      "type": "Feature",
      "properties": {
        "name": "Vilemov"
      },
      "geometry": {
        "coordinates": [
          15.38347,
          49.53578
        ],
        "type": "Point"
      }
    },
    {
      "type": "Feature",
      "properties": {
        "name": "Vikyrovice"
      },
      "geometry": {
        "coordinates": [
          17.01234,
          49.97792
        ],
        "type": "Point"
      }
    },
    {
      "type": "Feature",
      "properties": {
        "name": "Vidnava"
      },
      "geometry": {
        "coordinates": [
          17.18626,
          50.37234
        ],
        "type": "Point"
      }
    },
    {
      "type": "Feature",
      "properties": {
        "name": "Vidce"
      },
      "geometry": {
        "coordinates": [
          18.09473,
          49.44151
        ],
        "type": "Point"
      }
    },
    {
      "type": "Feature",
      "properties": {
        "name": "Veverska Bityska"
      },
      "geometry": {
        "coordinates": [
          16.43686,
          49.27591
        ],
        "type": "Point"
      }
    },
    {
      "type": "Feature",
      "properties": {
        "name": "Vetrni"
      },
      "geometry": {
        "coordinates": [
          14.28616,
          48.77425
        ],
        "type": "Point"
      }
    },
    {
      "type": "Feature",
      "properties": {
        "name": "Vestec"
      },
      "geometry": {
        "coordinates": [
          14.50487,
          49.9805
        ],
        "type": "Point"
      }
    },
    {
      "type": "Feature",
      "properties": {
        "name": "Veseli nad Moravou"
      },
      "geometry": {
        "coordinates": [
          17.37648,
          48.95363
        ],
        "type": "Point"
      }
    },
    {
      "type": "Feature",
      "properties": {
        "name": "Veseli nad Luznici"
      },
      "geometry": {
        "coordinates": [
          14.69734,
          49.1843
        ],
        "type": "Point"
      }
    },
    {
      "type": "Feature",
      "properties": {
        "name": "Verovice"
      },
      "geometry": {
        "coordinates": [
          18.11425,
          49.53916
        ],
        "type": "Point"
      }
    },
    {
      "type": "Feature",
      "properties": {
        "name": "Verovany"
      },
      "geometry": {
        "coordinates": [
          17.28795,
          49.46109
        ],
        "type": "Point"
      }
    },
    {
      "type": "Feature",
      "properties": {
        "name": "Vernerice"
      },
      "geometry": {
        "coordinates": [
          14.30114,
          50.66114
        ],
        "type": "Point"
      }
    },
    {
      "type": "Feature",
      "properties": {
        "name": "Vendryne"
      },
      "geometry": {
        "coordinates": [
          18.71307,
          49.66662
        ],
        "type": "Point"
      }
    },
    {
      "type": "Feature",
      "properties": {
        "name": "Velvary"
      },
      "geometry": {
        "coordinates": [
          14.23616,
          50.28152
        ],
        "type": "Point"
      }
    },
    {
      "type": "Feature",
      "properties": {
        "name": "Veltrusy"
      },
      "geometry": {
        "coordinates": [
          14.32857,
          50.27046
        ],
        "type": "Point"
      }
    },
    {
      "type": "Feature",
      "properties": {
        "name": "Veltruby"
      },
      "geometry": {
        "coordinates": [
          15.18454,
          50.07059
        ],
        "type": "Point"
      }
    },
    {
      "type": "Feature",
      "properties": {
        "name": "Velky Ujezd"
      },
      "geometry": {
        "coordinates": [
          17.48347,
          49.57858
        ],
        "type": "Point"
      }
    },
    {
      "type": "Feature",
      "properties": {
        "name": "Velky Tynec"
      },
      "geometry": {
        "coordinates": [
          17.33359,
          49.54994
        ],
        "type": "Point"
      }
    },
    {
      "type": "Feature",
      "properties": {
        "name": "Velky Senov"
      },
      "geometry": {
        "coordinates": [
          14.37428,
          50.99078
        ],
        "type": "Point"
      }
    },
    {
      "type": "Feature",
      "properties": {
        "name": "Velky Osek"
      },
      "geometry": {
        "coordinates": [
          15.18629,
          50.09867
        ],
        "type": "Point"
      }
    },
    {
      "type": "Feature",
      "properties": {
        "name": "Velky Beranov"
      },
      "geometry": {
        "coordinates": [
          15.667,
          49.40504
        ],
        "type": "Point"
      }
    },
    {
      "type": "Feature",
      "properties": {
        "name": "Velke Svatonovice"
      },
      "geometry": {
        "coordinates": [
          16.02853,
          50.53164
        ],
        "type": "Point"
      }
    },
    {
      "type": "Feature",
      "properties": {
        "name": "Velke Prilepy"
      },
      "geometry": {
        "coordinates": [
          14.31447,
          50.1605
        ],
        "type": "Point"
      }
    },
    {
      "type": "Feature",
      "properties": {
        "name": "Velke Porici"
      },
      "geometry": {
        "coordinates": [
          16.18931,
          50.46177
        ],
        "type": "Point"
      }
    },
    {
      "type": "Feature",
      "properties": {
        "name": "Velke Popovice"
      },
      "geometry": {
        "coordinates": [
          14.63934,
          49.92252
        ],
        "type": "Point"
      }
    },
    {
      "type": "Feature",
      "properties": {
        "name": "Velke Pavlovice"
      },
      "geometry": {
        "coordinates": [
          16.81605,
          48.90469
        ],
        "type": "Point"
      }
    },
    {
      "type": "Feature",
      "properties": {
        "name": "Velke Opatovice"
      },
      "geometry": {
        "coordinates": [
          16.67947,
          49.61237
        ],
        "type": "Point"
      }
    },
    {
      "type": "Feature",
      "properties": {
        "name": "Velke Nemcice"
      },
      "geometry": {
        "coordinates": [
          16.67208,
          48.99168
        ],
        "type": "Point"
      }
    },
    {
      "type": "Feature",
      "properties": {
        "name": "Velke Mezirici"
      },
      "geometry": {
        "coordinates": [
          16.01224,
          49.35522
        ],
        "type": "Point"
      }
    },
    {
      "type": "Feature",
      "properties": {
        "name": "Velke Losiny"
      },
      "geometry": {
        "coordinates": [
          17.04058,
          50.03197
        ],
        "type": "Point"
      }
    },
    {
      "type": "Feature",
      "properties": {
        "name": "Velke Karlovice"
      },
      "geometry": {
        "coordinates": [
          18.28355,
          49.36064
        ],
        "type": "Point"
      }
    },
    {
      "type": "Feature",
      "properties": {
        "name": "Velke Hostice"
      },
      "geometry": {
        "coordinates": [
          17.9738,
          49.93609
        ],
        "type": "Point"
      }
    },
    {
      "type": "Feature",
      "properties": {
        "name": "Velke Heraltice"
      },
      "geometry": {
        "coordinates": [
          17.72879,
          49.97493
        ],
        "type": "Point"
      }
    },
    {
      "type": "Feature",
      "properties": {
        "name": "Velke Hamry"
      },
      "geometry": {
        "coordinates": [
          15.31539,
          50.71373
        ],
        "type": "Point"
      }
    },
    {
      "type": "Feature",
      "properties": {
        "name": "Velke Brezno"
      },
      "geometry": {
        "coordinates": [
          14.14174,
          50.6627
        ],
        "type": "Point"
      }
    },
    {
      "type": "Feature",
      "properties": {
        "name": "Velke Bilovice"
      },
      "geometry": {
        "coordinates": [
          16.89227,
          48.84929
        ],
        "type": "Point"
      }
    },
    {
      "type": "Feature",
      "properties": {
        "name": "Velka Polom"
      },
      "geometry": {
        "coordinates": [
          18.09331,
          49.86359
        ],
        "type": "Point"
      }
    },
    {
      "type": "Feature",
      "properties": {
        "name": "Velka nad Velickou"
      },
      "geometry": {
        "coordinates": [
          17.5206,
          48.88257
        ],
        "type": "Point"
      }
    },
    {
      "type": "Feature",
      "properties": {
        "name": "Velka Hled'sebe"
      },
      "geometry": {
        "coordinates": [
          12.66763,
          49.96151
        ],
        "type": "Point"
      }
    },
    {
      "type": "Feature",
      "properties": {
        "name": "Velka Dobra"
      },
      "geometry": {
        "coordinates": [
          14.0698,
          50.10964
        ],
        "type": "Point"
      }
    },
    {
      "type": "Feature",
      "properties": {
        "name": "Velka Bystrice"
      },
      "geometry": {
        "coordinates": [
          17.36544,
          49.5948
        ],
        "type": "Point"
      }
    },
    {
      "type": "Feature",
      "properties": {
        "name": "Velka Bites"
      },
      "geometry": {
        "coordinates": [
          16.22742,
          49.28838
        ],
        "type": "Point"
      }
    },
    {
      "type": "Feature",
      "properties": {
        "name": "Velim"
      },
      "geometry": {
        "coordinates": [
          15.10711,
          50.05965
        ],
        "type": "Point"
      }
    },
    {
      "type": "Feature",
      "properties": {
        "name": "Velesin"
      },
      "geometry": {
        "coordinates": [
          14.46252,
          48.82949
        ],
        "type": "Point"
      }
    },
    {
      "type": "Feature",
      "properties": {
        "name": "Velemin"
      },
      "geometry": {
        "coordinates": [
          13.97675,
          50.53898
        ],
        "type": "Point"
      }
    },
    {
      "type": "Feature",
      "properties": {
        "name": "Velehrad"
      },
      "geometry": {
        "coordinates": [
          17.39426,
          49.10543
        ],
        "type": "Point"
      }
    },
    {
      "type": "Feature",
      "properties": {
        "name": "Vejprty"
      },
      "geometry": {
        "coordinates": [
          13.03212,
          50.49232
        ],
        "type": "Point"
      }
    },
    {
      "type": "Feature",
      "properties": {
        "name": "Vejprnice"
      },
      "geometry": {
        "coordinates": [
          13.27628,
          49.72988
        ],
        "type": "Point"
      }
    },
    {
      "type": "Feature",
      "properties": {
        "name": "Vcelna"
      },
      "geometry": {
        "coordinates": [
          14.45383,
          48.92373
        ],
        "type": "Point"
      }
    },
    {
      "type": "Feature",
      "properties": {
        "name": "Varnsdorf"
      },
      "geometry": {
        "coordinates": [
          14.61824,
          50.91154
        ],
        "type": "Point"
      }
    },
    {
      "type": "Feature",
      "properties": {
        "name": "Vapenna"
      },
      "geometry": {
        "coordinates": [
          17.09762,
          50.28338
        ],
        "type": "Point"
      }
    },
    {
      "type": "Feature",
      "properties": {
        "name": "Vamberk"
      },
      "geometry": {
        "coordinates": [
          16.29067,
          50.11756
        ],
        "type": "Point"
      }
    },
    {
      "type": "Feature",
      "properties": {
        "name": "Valtice"
      },
      "geometry": {
        "coordinates": [
          16.75499,
          48.74069
        ],
        "type": "Point"
      }
    },
    {
      "type": "Feature",
      "properties": {
        "name": "Valdice"
      },
      "geometry": {
        "coordinates": [
          15.41248,
          50.5835
        ],
        "type": "Point"
      }
    },
    {
      "type": "Feature",
      "properties": {
        "name": "Valdice"
      },
      "geometry": {
        "coordinates": [
          15.38488,
          50.45501
        ],
        "type": "Point"
      }
    },
    {
      "type": "Feature",
      "properties": {
        "name": "Valasske Mezirici"
      },
      "geometry": {
        "coordinates": [
          17.97113,
          49.47181
        ],
        "type": "Point"
      }
    },
    {
      "type": "Feature",
      "properties": {
        "name": "Valasske Klobouky"
      },
      "geometry": {
        "coordinates": [
          18.0076,
          49.14064
        ],
        "type": "Point"
      }
    },
    {
      "type": "Feature",
      "properties": {
        "name": "Valasska Polanka"
      },
      "geometry": {
        "coordinates": [
          17.99667,
          49.26215
        ],
        "type": "Point"
      }
    },
    {
      "type": "Feature",
      "properties": {
        "name": "Valasska Bystrice"
      },
      "geometry": {
        "coordinates": [
          18.10977,
          49.41507
        ],
        "type": "Point"
      }
    },
    {
      "type": "Feature",
      "properties": {
        "name": "Vacov"
      },
      "geometry": {
        "coordinates": [
          13.72911,
          49.13686
        ],
        "type": "Point"
      }
    },
    {
      "type": "Feature",
      "properties": {
        "name": "Vaclavovice"
      },
      "geometry": {
        "coordinates": [
          18.3722,
          49.75531
        ],
        "type": "Point"
      }
    },
    {
      "type": "Feature",
      "properties": {
        "name": "Vacenovice"
      },
      "geometry": {
        "coordinates": [
          17.17404,
          48.9451
        ],
        "type": "Point"
      }
    },
    {
      "type": "Feature",
      "properties": {
        "name": "Uvaly"
      },
      "geometry": {
        "coordinates": [
          14.7308,
          50.07394
        ],
        "type": "Point"
      }
    },
    {
      "type": "Feature",
      "properties": {
        "name": "Usti nad Orlici"
      },
      "geometry": {
        "coordinates": [
          16.39361,
          49.97387
        ],
        "type": "Point"
      }
    },
    {
      "type": "Feature",
      "properties": {
        "name": "Usti nad Labem"
      },
      "geometry": {
        "coordinates": [
          14.03227,
          50.6607
        ],
        "type": "Point"
      }
    },
    {
      "type": "Feature",
      "properties": {
        "name": "Ustek"
      },
      "geometry": {
        "coordinates": [
          14.34332,
          50.58474
        ],
        "type": "Point"
      }
    },
    {
      "type": "Feature",
      "properties": {
        "name": "Usov"
      },
      "geometry": {
        "coordinates": [
          17.01055,
          49.79831
        ],
        "type": "Point"
      }
    },
    {
      "type": "Feature",
      "properties": {
        "name": "Urcice"
      },
      "geometry": {
        "coordinates": [
          17.07291,
          49.43045
        ],
        "type": "Point"
      }
    },
    {
      "type": "Feature",
      "properties": {
        "name": "Upice"
      },
      "geometry": {
        "coordinates": [
          16.01607,
          50.51237
        ],
        "type": "Point"
      }
    },
    {
      "type": "Feature",
      "properties": {
        "name": "Unicov"
      },
      "geometry": {
        "coordinates": [
          17.12144,
          49.77092
        ],
        "type": "Point"
      }
    },
    {
      "type": "Feature",
      "properties": {
        "name": "Unhost'"
      },
      "geometry": {
        "coordinates": [
          14.13007,
          50.08535
        ],
        "type": "Point"
      }
    },
    {
      "type": "Feature",
      "properties": {
        "name": "Unanov"
      },
      "geometry": {
        "coordinates": [
          16.06351,
          48.90082
        ],
        "type": "Point"
      }
    },
    {
      "type": "Feature",
      "properties": {
        "name": "Ujezd"
      },
      "geometry": {
        "coordinates": [
          17.1804,
          49.76397
        ],
        "type": "Point"
      }
    },
    {
      "type": "Feature",
      "properties": {
        "name": "Ujezd"
      },
      "geometry": {
        "coordinates": [
          17.9061,
          49.16809
        ],
        "type": "Point"
      }
    },
    {
      "type": "Feature",
      "properties": {
        "name": "Uhlirske Janovice"
      },
      "geometry": {
        "coordinates": [
          15.06481,
          49.88019
        ],
        "type": "Point"
      }
    },
    {
      "type": "Feature",
      "properties": {
        "name": "Uhersky Ostroh"
      },
      "geometry": {
        "coordinates": [
          17.38984,
          48.98556
        ],
        "type": "Point"
      }
    },
    {
      "type": "Feature",
      "properties": {
        "name": "Uhersky Brod"
      },
      "geometry": {
        "coordinates": [
          17.64715,
          49.02513
        ],
        "type": "Point"
      }
    },
    {
      "type": "Feature",
      "properties": {
        "name": "Uherske Hradiste"
      },
      "geometry": {
        "coordinates": [
          17.45969,
          49.06975
        ],
        "type": "Point"
      }
    },
    {
      "type": "Feature",
      "properties": {
        "name": "Udlice"
      },
      "geometry": {
        "coordinates": [
          13.45738,
          50.4406
        ],
        "type": "Point"
      }
    },
    {
      "type": "Feature",
      "properties": {
        "name": "Tyn nad Vltavou"
      },
      "geometry": {
        "coordinates": [
          14.42057,
          49.2234
        ],
        "type": "Point"
      }
    },
    {
      "type": "Feature",
      "properties": {
        "name": "Tyniste nad Orlici"
      },
      "geometry": {
        "coordinates": [
          16.0777,
          50.15136
        ],
        "type": "Point"
      }
    },
    {
      "type": "Feature",
      "properties": {
        "name": "Tynec nad Sazavou"
      },
      "geometry": {
        "coordinates": [
          14.58983,
          49.83348
        ],
        "type": "Point"
      }
    },
    {
      "type": "Feature",
      "properties": {
        "name": "Tynec nad Labem"
      },
      "geometry": {
        "coordinates": [
          15.35836,
          50.04202
        ],
        "type": "Point"
      }
    },
    {
      "type": "Feature",
      "properties": {
        "name": "Tynec"
      },
      "geometry": {
        "coordinates": [
          17.01322,
          48.77943
        ],
        "type": "Point"
      }
    },
    {
      "type": "Feature",
      "properties": {
        "name": "Tvrdonice"
      },
      "geometry": {
        "coordinates": [
          16.99446,
          48.76048
        ],
        "type": "Point"
      }
    },
    {
      "type": "Feature",
      "properties": {
        "name": "Tvarozna"
      },
      "geometry": {
        "coordinates": [
          16.77146,
          49.19177
        ],
        "type": "Point"
      }
    },
    {
      "type": "Feature",
      "properties": {
        "name": "Turnov"
      },
      "geometry": {
        "coordinates": [
          15.15186,
          50.58356
        ],
        "type": "Point"
      }
    },
    {
      "type": "Feature",
      "properties": {
        "name": "Tupesy"
      },
      "geometry": {
        "coordinates": [
          17.36983,
          49.08427
        ],
        "type": "Point"
      }
    },
    {
      "type": "Feature",
      "properties": {
        "name": "Tuchomerice"
      },
      "geometry": {
        "coordinates": [
          14.28218,
          50.13543
        ],
        "type": "Point"
      }
    },
    {
      "type": "Feature",
      "properties": {
        "name": "Tuchlovice"
      },
      "geometry": {
        "coordinates": [
          13.99115,
          50.13803
        ],
        "type": "Point"
      }
    },
    {
      "type": "Feature",
      "properties": {
        "name": "Trutnov"
      },
      "geometry": {
        "coordinates": [
          15.9127,
          50.56101
        ],
        "type": "Point"
      }
    },
    {
      "type": "Feature",
      "properties": {
        "name": "Trsice"
      },
      "geometry": {
        "coordinates": [
          17.42483,
          49.54237
        ],
        "type": "Point"
      }
    },
    {
      "type": "Feature",
      "properties": {
        "name": "Troubsko"
      },
      "geometry": {
        "coordinates": [
          16.51078,
          49.16951
        ],
        "type": "Point"
      }
    },
    {
      "type": "Feature",
      "properties": {
        "name": "Troubky"
      },
      "geometry": {
        "coordinates": [
          17.34914,
          49.43215
        ],
        "type": "Point"
      }
    },
    {
      "type": "Feature",
      "properties": {
        "name": "Troubelice"
      },
      "geometry": {
        "coordinates": [
          17.081,
          49.81731
        ],
        "type": "Point"
      }
    },
    {
      "type": "Feature",
      "properties": {
        "name": "Trojanovice"
      },
      "geometry": {
        "coordinates": [
          18.238,
          49.52039
        ],
        "type": "Point"
      }
    },
    {
      "type": "Feature",
      "properties": {
        "name": "Trnava"
      },
      "geometry": {
        "coordinates": [
          17.84191,
          49.29603
        ],
        "type": "Point"
      }
    },
    {
      "type": "Feature",
      "properties": {
        "name": "Trmice"
      },
      "geometry": {
        "coordinates": [
          13.99449,
          50.64286
        ],
        "type": "Point"
      }
    },
    {
      "type": "Feature",
      "properties": {
        "name": "Trinec"
      },
      "geometry": {
        "coordinates": [
          18.67078,
          49.67763
        ],
        "type": "Point"
      }
    },
    {
      "type": "Feature",
      "properties": {
        "name": "Trhovy Stepanov"
      },
      "geometry": {
        "coordinates": [
          15.01356,
          49.71147
        ],
        "type": "Point"
      }
    },
    {
      "type": "Feature",
      "properties": {
        "name": "Trhove Sviny"
      },
      "geometry": {
        "coordinates": [
          14.63924,
          48.84231
        ],
        "type": "Point"
      }
    },
    {
      "type": "Feature",
      "properties": {
        "name": "Trest'"
      },
      "geometry": {
        "coordinates": [
          15.48211,
          49.29092
        ],
        "type": "Point"
      }
    },
    {
      "type": "Feature",
      "properties": {
        "name": "Tremosnice"
      },
      "geometry": {
        "coordinates": [
          15.58002,
          49.86912
        ],
        "type": "Point"
      }
    },
    {
      "type": "Feature",
      "properties": {
        "name": "Tremosna"
      },
      "geometry": {
        "coordinates": [
          13.39499,
          49.81584
        ],
        "type": "Point"
      }
    },
    {
      "type": "Feature",
      "properties": {
        "name": "Trebotov"
      },
      "geometry": {
        "coordinates": [
          14.29127,
          49.97244
        ],
        "type": "Point"
      }
    },
    {
      "type": "Feature",
      "properties": {
        "name": "Trebon"
      },
      "geometry": {
        "coordinates": [
          14.77065,
          49.00364
        ],
        "type": "Point"
      }
    },
    {
      "type": "Feature",
      "properties": {
        "name": "Trebic"
      },
      "geometry": {
        "coordinates": [
          15.88166,
          49.21492
        ],
        "type": "Point"
      }
    },
    {
      "type": "Feature",
      "properties": {
        "name": "Trebenice"
      },
      "geometry": {
        "coordinates": [
          13.99005,
          50.47632
        ],
        "type": "Point"
      }
    },
    {
      "type": "Feature",
      "properties": {
        "name": "Trebechovice pod Orebem"
      },
      "geometry": {
        "coordinates": [
          15.99223,
          50.20097
        ],
        "type": "Point"
      }
    },
    {
      "type": "Feature",
      "properties": {
        "name": "Traplice"
      },
      "geometry": {
        "coordinates": [
          17.43622,
          49.13088
        ],
        "type": "Point"
      }
    },
    {
      "type": "Feature",
      "properties": {
        "name": "Tovacov"
      },
      "geometry": {
        "coordinates": [
          17.28795,
          49.43083
        ],
        "type": "Point"
      }
    },
    {
      "type": "Feature",
      "properties": {
        "name": "Touzim"
      },
      "geometry": {
        "coordinates": [
          12.98506,
          50.06049
        ],
        "type": "Point"
      }
    },
    {
      "type": "Feature",
      "properties": {
        "name": "Topolna"
      },
      "geometry": {
        "coordinates": [
          17.54434,
          49.12187
        ],
        "type": "Point"
      }
    },
    {
      "type": "Feature",
      "properties": {
        "name": "Tlumacov"
      },
      "geometry": {
        "coordinates": [
          17.49559,
          49.25351
        ],
        "type": "Point"
      }
    },
    {
      "type": "Feature",
      "properties": {
        "name": "Tlucna"
      },
      "geometry": {
        "coordinates": [
          13.23534,
          49.72425
        ],
        "type": "Point"
      }
    },
    {
      "type": "Feature",
      "properties": {
        "name": "Tisnov"
      },
      "geometry": {
        "coordinates": [
          16.42438,
          49.34872
        ],
        "type": "Point"
      }
    },
    {
      "type": "Feature",
      "properties": {
        "name": "Tisice"
      },
      "geometry": {
        "coordinates": [
          14.55411,
          50.2698
        ],
        "type": "Point"
      }
    },
    {
      "type": "Feature",
      "properties": {
        "name": "Ticha"
      },
      "geometry": {
        "coordinates": [
          18.22148,
          49.56999
        ],
        "type": "Point"
      }
    },
    {
      "type": "Feature",
      "properties": {
        "name": "Tesetice"
      },
      "geometry": {
        "coordinates": [
          17.12607,
          49.59317
        ],
        "type": "Point"
      }
    },
    {
      "type": "Feature",
      "properties": {
        "name": "Tesany"
      },
      "geometry": {
        "coordinates": [
          16.77003,
          49.03956
        ],
        "type": "Point"
      }
    },
    {
      "type": "Feature",
      "properties": {
        "name": "Terezin"
      },
      "geometry": {
        "coordinates": [
          14.15055,
          50.511
        ],
        "type": "Point"
      }
    },
    {
      "type": "Feature",
      "properties": {
        "name": "Teplice nad Metuji"
      },
      "geometry": {
        "coordinates": [
          16.17026,
          50.59332
        ],
        "type": "Point"
      }
    },
    {
      "type": "Feature",
      "properties": {
        "name": "Teplice"
      },
      "geometry": {
        "coordinates": [
          13.82451,
          50.6404
        ],
        "type": "Point"
      }
    },
    {
      "type": "Feature",
      "properties": {
        "name": "Telnice"
      },
      "geometry": {
        "coordinates": [
          16.71774,
          49.10187
        ],
        "type": "Point"
      }
    },
    {
      "type": "Feature",
      "properties": {
        "name": "Telc"
      },
      "geometry": {
        "coordinates": [
          15.45275,
          49.18418
        ],
        "type": "Point"
      }
    },
    {
      "type": "Feature",
      "properties": {
        "name": "Tecovice"
      },
      "geometry": {
        "coordinates": [
          17.58733,
          49.22107
        ],
        "type": "Point"
      }
    },
    {
      "type": "Feature",
      "properties": {
        "name": "Tasovice"
      },
      "geometry": {
        "coordinates": [
          16.15558,
          48.8361
        ],
        "type": "Point"
      }
    },
    {
      "type": "Feature",
      "properties": {
        "name": "Tanvald"
      },
      "geometry": {
        "coordinates": [
          15.30585,
          50.73735
        ],
        "type": "Point"
      }
    },
    {
      "type": "Feature",
      "properties": {
        "name": "Tachov"
      },
      "geometry": {
        "coordinates": [
          12.63365,
          49.79528
        ],
        "type": "Point"
      }
    },
    {
      "type": "Feature",
      "properties": {
        "name": "Tabor"
      },
      "geometry": {
        "coordinates": [
          14.6578,
          49.41441
        ],
        "type": "Point"
      }
    },
    {
      "type": "Feature",
      "properties": {
        "name": "Svratka"
      },
      "geometry": {
        "coordinates": [
          16.03214,
          49.71066
        ],
        "type": "Point"
      }
    },
    {
      "type": "Feature",
      "properties": {
        "name": "Svoboda nad Upou"
      },
      "geometry": {
        "coordinates": [
          15.81648,
          50.62596
        ],
        "type": "Point"
      }
    },
    {
      "type": "Feature",
      "properties": {
        "name": "Svitavy"
      },
      "geometry": {
        "coordinates": [
          16.46829,
          49.75594
        ],
        "type": "Point"
      }
    },
    {
      "type": "Feature",
      "properties": {
        "name": "Svitavka"
      },
      "geometry": {
        "coordinates": [
          16.59793,
          49.50178
        ],
        "type": "Point"
      }
    },
    {
      "type": "Feature",
      "properties": {
        "name": "Svihov"
      },
      "geometry": {
        "coordinates": [
          13.28417,
          49.48136
        ],
        "type": "Point"
      }
    },
    {
      "type": "Feature",
      "properties": {
        "name": "Sviadnov"
      },
      "geometry": {
        "coordinates": [
          18.32762,
          49.68926
        ],
        "type": "Point"
      }
    },
    {
      "type": "Feature",
      "properties": {
        "name": "Svetla nad Sazavou"
      },
      "geometry": {
        "coordinates": [
          15.40393,
          49.66801
        ],
        "type": "Point"
      }
    },
    {
      "type": "Feature",
      "properties": {
        "name": "Svatava"
      },
      "geometry": {
        "coordinates": [
          12.62524,
          50.19223
        ],
        "type": "Point"
      }
    },
    {
      "type": "Feature",
      "properties": {
        "name": "Susice"
      },
      "geometry": {
        "coordinates": [
          13.52018,
          49.23106
        ],
        "type": "Point"
      }
    },
    {
      "type": "Feature",
      "properties": {
        "name": "Sumperk"
      },
      "geometry": {
        "coordinates": [
          16.97061,
          49.96528
        ],
        "type": "Point"
      }
    },
    {
      "type": "Feature",
      "properties": {
        "name": "Sumice"
      },
      "geometry": {
        "coordinates": [
          17.72205,
          49.02858
        ],
        "type": "Point"
      }
    },
    {
      "type": "Feature",
      "properties": {
        "name": "Sudomerice"
      },
      "geometry": {
        "coordinates": [
          17.25676,
          48.86723
        ],
        "type": "Point"
      }
    },
    {
      "type": "Feature",
      "properties": {
        "name": "Sudkov"
      },
      "geometry": {
        "coordinates": [
          16.94516,
          49.91903
        ],
        "type": "Point"
      }
    },
    {
      "type": "Feature",
      "properties": {
        "name": "Suchohrdly"
      },
      "geometry": {
        "coordinates": [
          16.09471,
          48.86822
        ],
        "type": "Point"
      }
    },
    {
      "type": "Feature",
      "properties": {
        "name": "Suchdol nad Luznici"
      },
      "geometry": {
        "coordinates": [
          14.8772,
          48.89
        ],
        "type": "Point"
      }
    },
    {
      "type": "Feature",
      "properties": {
        "name": "Suchdol"
      },
      "geometry": {
        "coordinates": [
          15.16651,
          49.95247
        ],
        "type": "Point"
      }
    },
    {
      "type": "Feature",
      "properties": {
        "name": "Sucha Loz"
      },
      "geometry": {
        "coordinates": [
          17.71379,
          48.97001
        ],
        "type": "Point"
      }
    },
    {
      "type": "Feature",
      "properties": {
        "name": "Studenka"
      },
      "geometry": {
        "coordinates": [
          18.07853,
          49.72342
        ],
        "type": "Point"
      }
    },
    {
      "type": "Feature",
      "properties": {
        "name": "Studenec"
      },
      "geometry": {
        "coordinates": [
          15.54936,
          50.55344
        ],
        "type": "Point"
      }
    },
    {
      "type": "Feature",
      "properties": {
        "name": "Studena"
      },
      "geometry": {
        "coordinates": [
          15.28688,
          49.18516
        ],
        "type": "Point"
      }
    },
    {
      "type": "Feature",
      "properties": {
        "name": "Strunkovice nad Blanici"
      },
      "geometry": {
        "coordinates": [
          14.05522,
          49.08402
        ],
        "type": "Point"
      }
    },
    {
      "type": "Feature",
      "properties": {
        "name": "Strmilov"
      },
      "geometry": {
        "coordinates": [
          15.19934,
          49.15846
        ],
        "type": "Point"
      }
    },
    {
      "type": "Feature",
      "properties": {
        "name": "Strizkov"
      },
      "geometry": {
        "coordinates": [
          14.49363,
          50.12674
        ],
        "type": "Point"
      }
    },
    {
      "type": "Feature",
      "properties": {
        "name": "Stribro"
      },
      "geometry": {
        "coordinates": [
          12.997,
          49.75565
        ],
        "type": "Point"
      }
    },
    {
      "type": "Feature",
      "properties": {
        "name": "Strelice"
      },
      "geometry": {
        "coordinates": [
          16.50399,
          49.15221
        ],
        "type": "Point"
      }
    },
    {
      "type": "Feature",
      "properties": {
        "name": "Straz pod Ralskem"
      },
      "geometry": {
        "coordinates": [
          14.80102,
          50.7028
        ],
        "type": "Point"
      }
    },
    {
      "type": "Feature",
      "properties": {
        "name": "Strazov"
      },
      "geometry": {
        "coordinates": [
          13.24623,
          49.30326
        ],
        "type": "Point"
      }
    },
    {
      "type": "Feature",
      "properties": {
        "name": "Straznice"
      },
      "geometry": {
        "coordinates": [
          17.3168,
          48.90102
        ],
        "type": "Point"
      }
    },
    {
      "type": "Feature",
      "properties": {
        "name": "Straz nad Nisou"
      },
      "geometry": {
        "coordinates": [
          15.02683,
          50.79099
        ],
        "type": "Point"
      }
    },
    {
      "type": "Feature",
      "properties": {
        "name": "Strazna"
      },
      "geometry": {
        "coordinates": [
          17.13275,
          49.83104
        ],
        "type": "Point"
      }
    },
    {
      "type": "Feature",
      "properties": {
        "name": "Straz"
      },
      "geometry": {
        "coordinates": [
          12.77546,
          49.66878
        ],
        "type": "Point"
      }
    },
    {
      "type": "Feature",
      "properties": {
        "name": "Strasice"
      },
      "geometry": {
        "coordinates": [
          13.75755,
          49.73552
        ],
        "type": "Point"
      }
    },
    {
      "type": "Feature",
      "properties": {
        "name": "Strani"
      },
      "geometry": {
        "coordinates": [
          17.70671,
          48.90216
        ],
        "type": "Point"
      }
    },
    {
      "type": "Feature",
      "properties": {
        "name": "Strancice"
      },
      "geometry": {
        "coordinates": [
          14.67745,
          49.94811
        ],
        "type": "Point"
      }
    },
    {
      "type": "Feature",
      "properties": {
        "name": "Stramberk"
      },
      "geometry": {
        "coordinates": [
          18.11741,
          49.59181
        ],
        "type": "Point"
      }
    },
    {
      "type": "Feature",
      "properties": {
        "name": "Strakonice"
      },
      "geometry": {
        "coordinates": [
          13.90237,
          49.26141
        ],
        "type": "Point"
      }
    },
    {
      "type": "Feature",
      "properties": {
        "name": "Stonava"
      },
      "geometry": {
        "coordinates": [
          18.52518,
          49.81691
        ],
        "type": "Point"
      }
    },
    {
      "type": "Feature",
      "properties": {
        "name": "Stoky"
      },
      "geometry": {
        "coordinates": [
          15.58863,
          49.50249
        ],
        "type": "Point"
      }
    },
    {
      "type": "Feature",
      "properties": {
        "name": "Stod"
      },
      "geometry": {
        "coordinates": [
          13.16474,
          49.63909
        ],
        "type": "Point"
      }
    },
    {
      "type": "Feature",
      "properties": {
        "name": "Stochov"
      },
      "geometry": {
        "coordinates": [
          13.96345,
          50.14631
        ],
        "type": "Point"
      }
    },
    {
      "type": "Feature",
      "properties": {
        "name": "Stity"
      },
      "geometry": {
        "coordinates": [
          16.76576,
          49.96122
        ],
        "type": "Point"
      }
    },
    {
      "type": "Feature",
      "properties": {
        "name": "Stitna nad Vlari"
      },
      "geometry": {
        "coordinates": [
          17.98274,
          49.06881
        ],
        "type": "Point"
      }
    },
    {
      "type": "Feature",
      "properties": {
        "name": "Stitina"
      },
      "geometry": {
        "coordinates": [
          18.01245,
          49.91487
        ],
        "type": "Point"
      }
    },
    {
      "type": "Feature",
      "properties": {
        "name": "Stezery"
      },
      "geometry": {
        "coordinates": [
          15.74831,
          50.21572
        ],
        "type": "Point"
      }
    },
    {
      "type": "Feature",
      "properties": {
        "name": "Steti"
      },
      "geometry": {
        "coordinates": [
          14.37421,
          50.45298
        ],
        "type": "Point"
      }
    },
    {
      "type": "Feature",
      "properties": {
        "name": "Sternberk"
      },
      "geometry": {
        "coordinates": [
          17.29889,
          49.73044
        ],
        "type": "Point"
      }
    },
    {
      "type": "Feature",
      "properties": {
        "name": "Stepanov"
      },
      "geometry": {
        "coordinates": [
          16.91702,
          50.16238
        ],
        "type": "Point"
      }
    },
    {
      "type": "Feature",
      "properties": {
        "name": "Stepanov"
      },
      "geometry": {
        "coordinates": [
          17.22041,
          49.68404
        ],
        "type": "Point"
      }
    },
    {
      "type": "Feature",
      "properties": {
        "name": "Stepankovice"
      },
      "geometry": {
        "coordinates": [
          18.03741,
          49.95738
        ],
        "type": "Point"
      }
    },
    {
      "type": "Feature",
      "properties": {
        "name": "Stenovice"
      },
      "geometry": {
        "coordinates": [
          13.39963,
          49.67051
        ],
        "type": "Point"
      }
    },
    {
      "type": "Feature",
      "properties": {
        "name": "Stechovice"
      },
      "geometry": {
        "coordinates": [
          14.40543,
          49.85109
        ],
        "type": "Point"
      }
    },
    {
      "type": "Feature",
      "properties": {
        "name": "Steborice"
      },
      "geometry": {
        "coordinates": [
          17.80547,
          49.93708
        ],
        "type": "Point"
      }
    },
    {
      "type": "Feature",
      "properties": {
        "name": "Stary Plzenec"
      },
      "geometry": {
        "coordinates": [
          13.4735,
          49.69768
        ],
        "type": "Point"
      }
    },
    {
      "type": "Feature",
      "properties": {
        "name": "Stary Kolin"
      },
      "geometry": {
        "coordinates": [
          15.29388,
          50.00977
        ],
        "type": "Point"
      }
    },
    {
      "type": "Feature",
      "properties": {
        "name": "Stary Jicin"
      },
      "geometry": {
        "coordinates": [
          17.96169,
          49.57686
        ],
        "type": "Point"
      }
    },
    {
      "type": "Feature",
      "properties": {
        "name": "Stary Bohumin"
      },
      "geometry": {
        "coordinates": [
          18.33619,
          49.9169
        ],
        "type": "Point"
      }
    },
    {
      "type": "Feature",
      "properties": {
        "name": "Staric"
      },
      "geometry": {
        "coordinates": [
          18.27281,
          49.68594
        ],
        "type": "Point"
      }
    },
    {
      "type": "Feature",
      "properties": {
        "name": "Stare Nechanice"
      },
      "geometry": {
        "coordinates": [
          15.61787,
          50.24298
        ],
        "type": "Point"
      }
    },
    {
      "type": "Feature",
      "properties": {
        "name": "Stare Mesto"
      },
      "geometry": {
        "coordinates": [
          14.42024,
          50.087
        ],
        "type": "Point"
      }
    },
    {
      "type": "Feature",
      "properties": {
        "name": "Stare Mesto"
      },
      "geometry": {
        "coordinates": [
          16.94734,
          50.16174
        ],
        "type": "Point"
      }
    },
    {
      "type": "Feature",
      "properties": {
        "name": "Stare Mesto"
      },
      "geometry": {
        "coordinates": [
          18.36349,
          49.66992
        ],
        "type": "Point"
      }
    },
    {
      "type": "Feature",
      "properties": {
        "name": "Stare Mesto"
      },
      "geometry": {
        "coordinates": [
          17.43338,
          49.07515
        ],
        "type": "Point"
      }
    },
    {
      "type": "Feature",
      "properties": {
        "name": "Stare Krecany"
      },
      "geometry": {
        "coordinates": [
          14.49617,
          50.95044
        ],
        "type": "Point"
      }
    },
    {
      "type": "Feature",
      "properties": {
        "name": "Stare Hradiste"
      },
      "geometry": {
        "coordinates": [
          15.77885,
          50.0654
        ],
        "type": "Point"
      }
    },
    {
      "type": "Feature",
      "properties": {
        "name": "Starec"
      },
      "geometry": {
        "coordinates": [
          15.82791,
          49.19783
        ],
        "type": "Point"
      }
    },
    {
      "type": "Feature",
      "properties": {
        "name": "Stara Ves nad Ondrejnici"
      },
      "geometry": {
        "coordinates": [
          18.1885,
          49.72775
        ],
        "type": "Point"
      }
    },
    {
      "type": "Feature",
      "properties": {
        "name": "Stara Paka"
      },
      "geometry": {
        "coordinates": [
          15.49444,
          50.51032
        ],
        "type": "Point"
      }
    },
    {
      "type": "Feature",
      "properties": {
        "name": "Stara Hut'"
      },
      "geometry": {
        "coordinates": [
          14.19735,
          49.78225
        ],
        "type": "Point"
      }
    },
    {
      "type": "Feature",
      "properties": {
        "name": "Stankov"
      },
      "geometry": {
        "coordinates": [
          13.06976,
          49.55348
        ],
        "type": "Point"
      }
    },
    {
      "type": "Feature",
      "properties": {
        "name": "St'ahlavy"
      },
      "geometry": {
        "coordinates": [
          13.50394,
          49.67555
        ],
        "type": "Point"
      }
    },
    {
      "type": "Feature",
      "properties": {
        "name": "Stachy"
      },
      "geometry": {
        "coordinates": [
          13.66659,
          49.10179
        ],
        "type": "Point"
      }
    },
    {
      "type": "Feature",
      "properties": {
        "name": "Srubec"
      },
      "geometry": {
        "coordinates": [
          14.54131,
          48.94806
        ],
        "type": "Point"
      }
    },
    {
      "type": "Feature",
      "properties": {
        "name": "Spytihnev"
      },
      "geometry": {
        "coordinates": [
          17.49808,
          49.14115
        ],
        "type": "Point"
      }
    },
    {
      "type": "Feature",
      "properties": {
        "name": "Spindleruv Mlyn"
      },
      "geometry": {
        "coordinates": [
          15.60944,
          50.72615
        ],
        "type": "Point"
      }
    },
    {
      "type": "Feature",
      "properties": {
        "name": "Spalene Porici"
      },
      "geometry": {
        "coordinates": [
          13.60556,
          49.61371
        ],
        "type": "Point"
      }
    },
    {
      "type": "Feature",
      "properties": {
        "name": "Solnice"
      },
      "geometry": {
        "coordinates": [
          16.23762,
          50.20366
        ],
        "type": "Point"
      }
    },
    {
      "type": "Feature",
      "properties": {
        "name": "Sokolov"
      },
      "geometry": {
        "coordinates": [
          12.6401,
          50.1813
        ],
        "type": "Point"
      }
    },
    {
      "type": "Feature",
      "properties": {
        "name": "Sokolnice"
      },
      "geometry": {
        "coordinates": [
          16.72156,
          49.11392
        ],
        "type": "Point"
      }
    },
    {
      "type": "Feature",
      "properties": {
        "name": "Sobotka"
      },
      "geometry": {
        "coordinates": [
          15.17619,
          50.46741
        ],
        "type": "Point"
      }
    },
    {
      "type": "Feature",
      "properties": {
        "name": "Sobotin"
      },
      "geometry": {
        "coordinates": [
          17.09129,
          50.01039
        ],
        "type": "Point"
      }
    },
    {
      "type": "Feature",
      "properties": {
        "name": "Sobeslav"
      },
      "geometry": {
        "coordinates": [
          14.71861,
          49.25993
        ],
        "type": "Point"
      }
    },
    {
      "type": "Feature",
      "properties": {
        "name": "Smrzovka"
      },
      "geometry": {
        "coordinates": [
          15.24639,
          50.7382
        ],
        "type": "Point"
      }
    },
    {
      "type": "Feature",
      "properties": {
        "name": "Smrzice"
      },
      "geometry": {
        "coordinates": [
          17.10698,
          49.50569
        ],
        "type": "Point"
      }
    },
    {
      "type": "Feature",
      "properties": {
        "name": "Smirice"
      },
      "geometry": {
        "coordinates": [
          15.86508,
          50.29978
        ],
        "type": "Point"
      }
    },
    {
      "type": "Feature",
      "properties": {
        "name": "Smidary"
      },
      "geometry": {
        "coordinates": [
          15.47725,
          50.29146
        ],
        "type": "Point"
      }
    },
    {
      "type": "Feature",
      "properties": {
        "name": "Smecno"
      },
      "geometry": {
        "coordinates": [
          14.04037,
          50.18844
        ],
        "type": "Point"
      }
    },
    {
      "type": "Feature",
      "properties": {
        "name": "Slusovice"
      },
      "geometry": {
        "coordinates": [
          17.8015,
          49.24782
        ],
        "type": "Point"
      }
    },
    {
      "type": "Feature",
      "properties": {
        "name": "Sluknov"
      },
      "geometry": {
        "coordinates": [
          14.45258,
          51.00369
        ],
        "type": "Point"
      }
    },
    {
      "type": "Feature",
      "properties": {
        "name": "Slavonice"
      },
      "geometry": {
        "coordinates": [
          15.35154,
          48.99753
        ],
        "type": "Point"
      }
    },
    {
      "type": "Feature",
      "properties": {
        "name": "Slavkov u Brna"
      },
      "geometry": {
        "coordinates": [
          16.87649,
          49.15325
        ],
        "type": "Point"
      }
    },
    {
      "type": "Feature",
      "properties": {
        "name": "Slavkov"
      },
      "geometry": {
        "coordinates": [
          17.83641,
          49.9218
        ],
        "type": "Point"
      }
    },
    {
      "type": "Feature",
      "properties": {
        "name": "Slavicin"
      },
      "geometry": {
        "coordinates": [
          17.87349,
          49.08799
        ],
        "type": "Point"
      }
    },
    {
      "type": "Feature",
      "properties": {
        "name": "Slatinice"
      },
      "geometry": {
        "coordinates": [
          17.09992,
          49.56155
        ],
        "type": "Point"
      }
    },
    {
      "type": "Feature",
      "properties": {
        "name": "Slatinany"
      },
      "geometry": {
        "coordinates": [
          15.81377,
          49.9211
        ],
        "type": "Point"
      }
    },
    {
      "type": "Feature",
      "properties": {
        "name": "Slapanice"
      },
      "geometry": {
        "coordinates": [
          16.72731,
          49.16863
        ],
        "type": "Point"
      }
    },
    {
      "type": "Feature",
      "properties": {
        "name": "Slany"
      },
      "geometry": {
        "coordinates": [
          14.08693,
          50.23046
        ],
        "type": "Point"
      }
    },
    {
      "type": "Feature",
      "properties": {
        "name": "Skutec"
      },
      "geometry": {
        "coordinates": [
          15.99655,
          49.84347
        ],
        "type": "Point"
      }
    },
    {
      "type": "Feature",
      "properties": {
        "name": "Skuhrov nad Belou"
      },
      "geometry": {
        "coordinates": [
          16.2923,
          50.22946
        ],
        "type": "Point"
      }
    },
    {
      "type": "Feature",
      "properties": {
        "name": "Skrben"
      },
      "geometry": {
        "coordinates": [
          17.1765,
          49.64115
        ],
        "type": "Point"
      }
    },
    {
      "type": "Feature",
      "properties": {
        "name": "Skalna"
      },
      "geometry": {
        "coordinates": [
          12.36144,
          50.1703
        ],
        "type": "Point"
      }
    },
    {
      "type": "Feature",
      "properties": {
        "name": "Sitborice"
      },
      "geometry": {
        "coordinates": [
          16.77975,
          49.01433
        ],
        "type": "Point"
      }
    },
    {
      "type": "Feature",
      "properties": {
        "name": "Silherovice"
      },
      "geometry": {
        "coordinates": [
          18.27017,
          49.92602
        ],
        "type": "Point"
      }
    },
    {
      "type": "Feature",
      "properties": {
        "name": "Sezimovo Usti"
      },
      "geometry": {
        "coordinates": [
          14.6848,
          49.38519
        ],
        "type": "Point"
      }
    },
    {
      "type": "Feature",
      "properties": {
        "name": "Sezemice"
      },
      "geometry": {
        "coordinates": [
          15.8527,
          50.06651
        ],
        "type": "Point"
      }
    },
    {
      "type": "Feature",
      "properties": {
        "name": "Sevetin"
      },
      "geometry": {
        "coordinates": [
          14.5722,
          49.10005
        ],
        "type": "Point"
      }
    },
    {
      "type": "Feature",
      "properties": {
        "name": "Sestajovice"
      },
      "geometry": {
        "coordinates": [
          14.68013,
          50.10845
        ],
        "type": "Point"
      }
    },
    {
      "type": "Feature",
      "properties": {
        "name": "Sepekov"
      },
      "geometry": {
        "coordinates": [
          14.41815,
          49.42865
        ],
        "type": "Point"
      }
    },
    {
      "type": "Feature",
      "properties": {
        "name": "Senov"
      },
      "geometry": {
        "coordinates": [
          18.37607,
          49.79315
        ],
        "type": "Point"
      }
    },
    {
      "type": "Feature",
      "properties": {
        "name": "Senice na Hane"
      },
      "geometry": {
        "coordinates": [
          17.08578,
          49.62401
        ],
        "type": "Point"
      }
    },
    {
      "type": "Feature",
      "properties": {
        "name": "Semily"
      },
      "geometry": {
        "coordinates": [
          15.33552,
          50.60191
        ],
        "type": "Point"
      }
    },
    {
      "type": "Feature",
      "properties": {
        "name": "Sedlnice"
      },
      "geometry": {
        "coordinates": [
          18.0869,
          49.6577
        ],
        "type": "Point"
      }
    },
    {
      "type": "Feature",
      "properties": {
        "name": "Sedliste"
      },
      "geometry": {
        "coordinates": [
          18.36869,
          49.71836
        ],
        "type": "Point"
      }
    },
    {
      "type": "Feature",
      "properties": {
        "name": "Sedlice"
      },
      "geometry": {
        "coordinates": [
          13.93895,
          49.37715
        ],
        "type": "Point"
      }
    },
    {
      "type": "Feature",
      "properties": {
        "name": "Sedlice"
      },
      "geometry": {
        "coordinates": [
          14.39115,
          48.77401
        ],
        "type": "Point"
      }
    },
    {
      "type": "Feature",
      "properties": {
        "name": "Sedlec"
      },
      "geometry": {
        "coordinates": [
          15.28846,
          49.96391
        ],
        "type": "Point"
      }
    },
    {
      "type": "Feature",
      "properties": {
        "name": "Sedlcany"
      },
      "geometry": {
        "coordinates": [
          14.42664,
          49.66057
        ],
        "type": "Point"
      }
    },
    {
      "type": "Feature",
      "properties": {
        "name": "Sec"
      },
      "geometry": {
        "coordinates": [
          15.65643,
          49.84694
        ],
        "type": "Point"
      }
    },
    {
      "type": "Feature",
      "properties": {
        "name": "Sazava"
      },
      "geometry": {
        "coordinates": [
          14.89674,
          49.87164
        ],
        "type": "Point"
      }
    },
    {
      "type": "Feature",
      "properties": {
        "name": "Satov"
      },
      "geometry": {
        "coordinates": [
          16.00992,
          48.79317
        ],
        "type": "Point"
      }
    },
    {
      "type": "Feature",
      "properties": {
        "name": "Satalice"
      },
      "geometry": {
        "coordinates": [
          14.57191,
          50.12484
        ],
        "type": "Point"
      }
    },
    {
      "type": "Feature",
      "properties": {
        "name": "Sardice"
      },
      "geometry": {
        "coordinates": [
          17.02812,
          48.96403
        ],
        "type": "Point"
      }
    },
    {
      "type": "Feature",
      "properties": {
        "name": "Sanov"
      },
      "geometry": {
        "coordinates": [
          16.37858,
          48.80089
        ],
        "type": "Point"
      }
    },
    {
      "type": "Feature",
      "properties": {
        "name": "Samotisky"
      },
      "geometry": {
        "coordinates": [
          17.32807,
          49.63042
        ],
        "type": "Point"
      }
    },
    {
      "type": "Feature",
      "properties": {
        "name": "Sakvice"
      },
      "geometry": {
        "coordinates": [
          16.71424,
          48.89746
        ],
        "type": "Point"
      }
    },
    {
      "type": "Feature",
      "properties": {
        "name": "Sadska"
      },
      "geometry": {
        "coordinates": [
          14.98633,
          50.13596
        ],
        "type": "Point"
      }
    },
    {
      "type": "Feature",
      "properties": {
        "name": "Sadov"
      },
      "geometry": {
        "coordinates": [
          12.89708,
          50.26711
        ],
        "type": "Point"
      }
    },
    {
      "type": "Feature",
      "properties": {
        "name": "Rymarov"
      },
      "geometry": {
        "coordinates": [
          17.27177,
          49.93183
        ],
        "type": "Point"
      }
    },
    {
      "type": "Feature",
      "properties": {
        "name": "Rychvald"
      },
      "geometry": {
        "coordinates": [
          18.37626,
          49.86625
        ],
        "type": "Point"
      }
    },
    {
      "type": "Feature",
      "properties": {
        "name": "Rychnov nad Kneznou"
      },
      "geometry": {
        "coordinates": [
          16.27488,
          50.16284
        ],
        "type": "Point"
      }
    },
    {
      "type": "Feature",
      "properties": {
        "name": "Rybitvi"
      },
      "geometry": {
        "coordinates": [
          15.70472,
          50.06015
        ],
        "type": "Point"
      }
    },
    {
      "type": "Feature",
      "properties": {
        "name": "Rybi"
      },
      "geometry": {
        "coordinates": [
          18.07592,
          49.60073
        ],
        "type": "Point"
      }
    },
    {
      "type": "Feature",
      "properties": {
        "name": "Rumburk"
      },
      "geometry": {
        "coordinates": [
          14.55699,
          50.95151
        ],
        "type": "Point"
      }
    },
    {
      "type": "Feature",
      "properties": {
        "name": "Rudolfov"
      },
      "geometry": {
        "coordinates": [
          14.54179,
          48.99339
        ],
        "type": "Point"
      }
    },
    {
      "type": "Feature",
      "properties": {
        "name": "Rudnik"
      },
      "geometry": {
        "coordinates": [
          15.73362,
          50.59517
        ],
        "type": "Point"
      }
    },
    {
      "type": "Feature",
      "properties": {
        "name": "Rudna"
      },
      "geometry": {
        "coordinates": [
          14.23435,
          50.03502
        ],
        "type": "Point"
      }
    },
    {
      "type": "Feature",
      "properties": {
        "name": "Ruda nad Moravou"
      },
      "geometry": {
        "coordinates": [
          16.87782,
          49.981
        ],
        "type": "Point"
      }
    },
    {
      "type": "Feature",
      "properties": {
        "name": "Rtyne v Podkrkonosi"
      },
      "geometry": {
        "coordinates": [
          16.07187,
          50.50523
        ],
        "type": "Point"
      }
    },
    {
      "type": "Feature",
      "properties": {
        "name": "Roztoky"
      },
      "geometry": {
        "coordinates": [
          14.3976,
          50.15841
        ],
        "type": "Point"
      }
    },
    {
      "type": "Feature",
      "properties": {
        "name": "Roztoky"
      },
      "geometry": {
        "coordinates": [
          13.86787,
          50.02671
        ],
        "type": "Point"
      }
    },
    {
      "type": "Feature",
      "properties": {
        "name": "Roznov pod Radhostem"
      },
      "geometry": {
        "coordinates": [
          18.14302,
          49.45853
        ],
        "type": "Point"
      }
    },
    {
      "type": "Feature",
      "properties": {
        "name": "Rozmital pod Tremsinem"
      },
      "geometry": {
        "coordinates": [
          13.8643,
          49.60196
        ],
        "type": "Point"
      }
    },
    {
      "type": "Feature",
      "properties": {
        "name": "Rozd'alovice"
      },
      "geometry": {
        "coordinates": [
          15.16962,
          50.30476
        ],
        "type": "Point"
      }
    },
    {
      "type": "Feature",
      "properties": {
        "name": "Rovensko pod Troskami"
      },
      "geometry": {
        "coordinates": [
          15.25941,
          50.53532
        ],
        "type": "Point"
      }
    },
    {
      "type": "Feature",
      "properties": {
        "name": "Rousinov"
      },
      "geometry": {
        "coordinates": [
          16.88215,
          49.20128
        ],
        "type": "Point"
      }
    },
    {
      "type": "Feature",
      "properties": {
        "name": "Roudnice nad Labem"
      },
      "geometry": {
        "coordinates": [
          14.26175,
          50.42528
        ],
        "type": "Point"
      }
    },
    {
      "type": "Feature",
      "properties": {
        "name": "Rouchovany"
      },
      "geometry": {
        "coordinates": [
          16.1076,
          49.07036
        ],
        "type": "Point"
      }
    },
    {
      "type": "Feature",
      "properties": {
        "name": "Rotava"
      },
      "geometry": {
        "coordinates": [
          12.57341,
          50.29627
        ],
        "type": "Point"
      }
    },
    {
      "type": "Feature",
      "properties": {
        "name": "Rosice"
      },
      "geometry": {
        "coordinates": [
          15.95127,
          49.92226
        ],
        "type": "Point"
      }
    },
    {
      "type": "Feature",
      "properties": {
        "name": "Rosice"
      },
      "geometry": {
        "coordinates": [
          16.38787,
          49.18232
        ],
        "type": "Point"
      }
    },
    {
      "type": "Feature",
      "properties": {
        "name": "Ropice"
      },
      "geometry": {
        "coordinates": [
          18.61345,
          49.70536
        ],
        "type": "Point"
      }
    },
    {
      "type": "Feature",
      "properties": {
        "name": "Ronov nad Doubravou"
      },
      "geometry": {
        "coordinates": [
          15.53144,
          49.88825
        ],
        "type": "Point"
      }
    },
    {
      "type": "Feature",
      "properties": {
        "name": "Rokytnice v Orlickych Horach"
      },
      "geometry": {
        "coordinates": [
          16.46567,
          50.16473
        ],
        "type": "Point"
      }
    },
    {
      "type": "Feature",
      "properties": {
        "name": "Rokytnice nad Jizerou"
      },
      "geometry": {
        "coordinates": [
          15.43357,
          50.72561
        ],
        "type": "Point"
      }
    },
    {
      "type": "Feature",
      "properties": {
        "name": "Rokytnice"
      },
      "geometry": {
        "coordinates": [
          17.3912,
          49.46592
        ],
        "type": "Point"
      }
    },
    {
      "type": "Feature",
      "properties": {
        "name": "Rokycany"
      },
      "geometry": {
        "coordinates": [
          13.59459,
          49.7427
        ],
        "type": "Point"
      }
    },
    {
      "type": "Feature",
      "properties": {
        "name": "Rohatec"
      },
      "geometry": {
        "coordinates": [
          17.1833,
          48.8804
        ],
        "type": "Point"
      }
    },
    {
      "type": "Feature",
      "properties": {
        "name": "Ricany"
      },
      "geometry": {
        "coordinates": [
          14.65427,
          49.99168
        ],
        "type": "Point"
      }
    },
    {
      "type": "Feature",
      "properties": {
        "name": "Ricany"
      },
      "geometry": {
        "coordinates": [
          16.39362,
          49.21497
        ],
        "type": "Point"
      }
    },
    {
      "type": "Feature",
      "properties": {
        "name": "Rez"
      },
      "geometry": {
        "coordinates": [
          14.35733,
          50.17734
        ],
        "type": "Point"
      }
    },
    {
      "type": "Feature",
      "properties": {
        "name": "Revnicov"
      },
      "geometry": {
        "coordinates": [
          13.80823,
          50.18489
        ],
        "type": "Point"
      }
    },
    {
      "type": "Feature",
      "properties": {
        "name": "Revnice"
      },
      "geometry": {
        "coordinates": [
          14.23589,
          49.91395
        ],
        "type": "Point"
      }
    },
    {
      "type": "Feature",
      "properties": {
        "name": "Repiste"
      },
      "geometry": {
        "coordinates": [
          18.31707,
          49.73338
        ],
        "type": "Point"
      }
    },
    {
      "type": "Feature",
      "properties": {
        "name": "Rehlovice"
      },
      "geometry": {
        "coordinates": [
          13.95412,
          50.60712
        ],
        "type": "Point"
      }
    },
    {
      "type": "Feature",
      "properties": {
        "name": "Recany nad Labem"
      },
      "geometry": {
        "coordinates": [
          15.47735,
          50.03589
        ],
        "type": "Point"
      }
    },
    {
      "type": "Feature",
      "properties": {
        "name": "Ratiskovice"
      },
      "geometry": {
        "coordinates": [
          17.16561,
          48.92002
        ],
        "type": "Point"
      }
    },
    {
      "type": "Feature",
      "properties": {
        "name": "Ratibor"
      },
      "geometry": {
        "coordinates": [
          17.91499,
          49.36769
        ],
        "type": "Point"
      }
    },
    {
      "type": "Feature",
      "properties": {
        "name": "Rataje"
      },
      "geometry": {
        "coordinates": [
          17.33555,
          49.2713
        ],
        "type": "Point"
      }
    },
    {
      "type": "Feature",
      "properties": {
        "name": "Raspenava"
      },
      "geometry": {
        "coordinates": [
          15.11465,
          50.90415
        ],
        "type": "Point"
      }
    },
    {
      "type": "Feature",
      "properties": {
        "name": "Raskovice"
      },
      "geometry": {
        "coordinates": [
          18.47286,
          49.61975
        ],
        "type": "Point"
      }
    },
    {
      "type": "Feature",
      "properties": {
        "name": "Rapotin"
      },
      "geometry": {
        "coordinates": [
          17.03121,
          50.01094
        ],
        "type": "Point"
      }
    },
    {
      "type": "Feature",
      "properties": {
        "name": "Rakvice"
      },
      "geometry": {
        "coordinates": [
          16.8133,
          48.85811
        ],
        "type": "Point"
      }
    },
    {
      "type": "Feature",
      "properties": {
        "name": "Rakovnik"
      },
      "geometry": {
        "coordinates": [
          13.7334,
          50.1037
        ],
        "type": "Point"
      }
    },
    {
      "type": "Feature",
      "properties": {
        "name": "Rajhradice"
      },
      "geometry": {
        "coordinates": [
          16.62933,
          49.09203
        ],
        "type": "Point"
      }
    },
    {
      "type": "Feature",
      "properties": {
        "name": "Rajhrad"
      },
      "geometry": {
        "coordinates": [
          16.60388,
          49.09021
        ],
        "type": "Point"
      }
    },
    {
      "type": "Feature",
      "properties": {
        "name": "Rajecko"
      },
      "geometry": {
        "coordinates": [
          16.64497,
          49.39393
        ],
        "type": "Point"
      }
    },
    {
      "type": "Feature",
      "properties": {
        "name": "Rajec-Jestrebi"
      },
      "geometry": {
        "coordinates": [
          16.63902,
          49.41094
        ],
        "type": "Point"
      }
    },
    {
      "type": "Feature",
      "properties": {
        "name": "Radvanice"
      },
      "geometry": {
        "coordinates": [
          16.06172,
          50.56745
        ],
        "type": "Point"
      }
    },
    {
      "type": "Feature",
      "properties": {
        "name": "Radslavice"
      },
      "geometry": {
        "coordinates": [
          17.51656,
          49.47817
        ],
        "type": "Point"
      }
    },
    {
      "type": "Feature",
      "properties": {
        "name": "Radonice"
      },
      "geometry": {
        "coordinates": [
          13.28464,
          50.29803
        ],
        "type": "Point"
      }
    },
    {
      "type": "Feature",
      "properties": {
        "name": "Radomysl"
      },
      "geometry": {
        "coordinates": [
          13.93024,
          49.31634
        ],
        "type": "Point"
      }
    },
    {
      "type": "Feature",
      "properties": {
        "name": "Radnice"
      },
      "geometry": {
        "coordinates": [
          13.6057,
          49.85677
        ],
        "type": "Point"
      }
    },
    {
      "type": "Feature",
      "properties": {
        "name": "Radimer"
      },
      "geometry": {
        "coordinates": [
          16.4407,
          49.6985
        ],
        "type": "Point"
      }
    },
    {
      "type": "Feature",
      "properties": {
        "name": "Pysely"
      },
      "geometry": {
        "coordinates": [
          14.67713,
          49.87678
        ],
        "type": "Point"
      }
    },
    {
      "type": "Feature",
      "properties": {
        "name": "Pustimer"
      },
      "geometry": {
        "coordinates": [
          17.02792,
          49.32251
        ],
        "type": "Point"
      }
    },
    {
      "type": "Feature",
      "properties": {
        "name": "Pusta Polom"
      },
      "geometry": {
        "coordinates": [
          17.9979,
          49.84917
        ],
        "type": "Point"
      }
    },
    {
      "type": "Feature",
      "properties": {
        "name": "Pteni"
      },
      "geometry": {
        "coordinates": [
          16.9611,
          49.51163
        ],
        "type": "Point"
      }
    },
    {
      "type": "Feature",
      "properties": {
        "name": "Psary"
      },
      "geometry": {
        "coordinates": [
          14.51276,
          49.93622
        ],
        "type": "Point"
      }
    },
    {
      "type": "Feature",
      "properties": {
        "name": "Prusinovice"
      },
      "geometry": {
        "coordinates": [
          17.5871,
          49.37898
        ],
        "type": "Point"
      }
    },
    {
      "type": "Feature",
      "properties": {
        "name": "Prusanky"
      },
      "geometry": {
        "coordinates": [
          16.98068,
          48.8284
        ],
        "type": "Point"
      }
    },
    {
      "type": "Feature",
      "properties": {
        "name": "Pruhonice"
      },
      "geometry": {
        "coordinates": [
          14.55017,
          49.99962
        ],
        "type": "Point"
      }
    },
    {
      "type": "Feature",
      "properties": {
        "name": "Protivin"
      },
      "geometry": {
        "coordinates": [
          14.21717,
          49.19949
        ],
        "type": "Point"
      }
    },
    {
      "type": "Feature",
      "properties": {
        "name": "Protivanov"
      },
      "geometry": {
        "coordinates": [
          16.83594,
          49.48351
        ],
        "type": "Point"
      }
    },
    {
      "type": "Feature",
      "properties": {
        "name": "Prostredni Becva"
      },
      "geometry": {
        "coordinates": [
          18.252,
          49.43609
        ],
        "type": "Point"
      }
    },
    {
      "type": "Feature",
      "properties": {
        "name": "Prostejov"
      },
      "geometry": {
        "coordinates": [
          17.11184,
          49.47188
        ],
        "type": "Point"
      }
    },
    {
      "type": "Feature",
      "properties": {
        "name": "Prosek"
      },
      "geometry": {
        "coordinates": [
          14.50685,
          50.11525
        ],
        "type": "Point"
      }
    },
    {
      "type": "Feature",
      "properties": {
        "name": "Prosec"
      },
      "geometry": {
        "coordinates": [
          16.11621,
          49.8059
        ],
        "type": "Point"
      }
    },
    {
      "type": "Feature",
      "properties": {
        "name": "Probostov"
      },
      "geometry": {
        "coordinates": [
          13.83601,
          50.66773
        ],
        "type": "Point"
      }
    },
    {
      "type": "Feature",
      "properties": {
        "name": "Prisovice"
      },
      "geometry": {
        "coordinates": [
          15.0839,
          50.57813
        ],
        "type": "Point"
      }
    },
    {
      "type": "Feature",
      "properties": {
        "name": "Primda"
      },
      "geometry": {
        "coordinates": [
          12.67366,
          49.67488
        ],
        "type": "Point"
      }
    },
    {
      "type": "Feature",
      "properties": {
        "name": "Prikazy"
      },
      "geometry": {
        "coordinates": [
          17.14337,
          49.6436
        ],
        "type": "Point"
      }
    },
    {
      "type": "Feature",
      "properties": {
        "name": "Pribyslav"
      },
      "geometry": {
        "coordinates": [
          15.73855,
          49.57684
        ],
        "type": "Point"
      }
    },
    {
      "type": "Feature",
      "properties": {
        "name": "Pribram"
      },
      "geometry": {
        "coordinates": [
          14.01043,
          49.68988
        ],
        "type": "Point"
      }
    },
    {
      "type": "Feature",
      "properties": {
        "name": "Pribor"
      },
      "geometry": {
        "coordinates": [
          18.14499,
          49.64094
        ],
        "type": "Point"
      }
    },
    {
      "type": "Feature",
      "properties": {
        "name": "Prestice"
      },
      "geometry": {
        "coordinates": [
          13.3335,
          49.57298
        ],
        "type": "Point"
      }
    },
    {
      "type": "Feature",
      "properties": {
        "name": "Prerov nad Labem"
      },
      "geometry": {
        "coordinates": [
          14.82502,
          50.16027
        ],
        "type": "Point"
      }
    },
    {
      "type": "Feature",
      "properties": {
        "name": "Prerov"
      },
      "geometry": {
        "coordinates": [
          17.4509,
          49.45511
        ],
        "type": "Point"
      }
    },
    {
      "type": "Feature",
      "properties": {
        "name": "Premyslovice"
      },
      "geometry": {
        "coordinates": [
          16.95581,
          49.55637
        ],
        "type": "Point"
      }
    },
    {
      "type": "Feature",
      "properties": {
        "name": "Prelouc"
      },
      "geometry": {
        "coordinates": [
          15.56031,
          50.03985
        ],
        "type": "Point"
      }
    },
    {
      "type": "Feature",
      "properties": {
        "name": "Predmerice nad Labem"
      },
      "geometry": {
        "coordinates": [
          15.81556,
          50.25633
        ],
        "type": "Point"
      }
    },
    {
      "type": "Feature",
      "properties": {
        "name": "Predklasteri"
      },
      "geometry": {
        "coordinates": [
          16.40241,
          49.35253
        ],
        "type": "Point"
      }
    },
    {
      "type": "Feature",
      "properties": {
        "name": "Prazmo"
      },
      "geometry": {
        "coordinates": [
          18.48617,
          49.60876
        ],
        "type": "Point"
      }
    },
    {
      "type": "Feature",
      "properties": {
        "name": "Praslavice"
      },