{
  "type": "FeatureCollection",
  "features": [
    {
      "type": "Feature",
      "properties": {
        "name": "Zurgena"
      },
      "geometry": {
        "coordinates": [
          -2.03985,
          37.34218
        ],
        "type": "Point"
      }
    },
    {
      "type": "Feature",
      "properties": {
        "name": "Zujar"
      },
      "geometry": {
        "coordinates": [
          -2.84197,
          37.54285
        ],
        "type": "Point"
      }
    },
    {
      "type": "Feature",
      "properties": {
        "name": "Zuheros"
      },
      "geometry": {
        "coordinates": [
          -4.31531,
          37.54332
        ],
        "type": "Point"
      }
    },
    {
      "type": "Feature",
      "properties": {
        "name": "Zufre"
      },
      "geometry": {
        "coordinates": [
          -6.33333,
          37.83333
        ],
        "type": "Point"
      }
    },
    {
      "type": "Feature",
      "properties": {
        "name": "Zubia"
      },
      "geometry": {
        "coordinates": [
          -3.584,
          37.11906
        ],
        "type": "Point"
      }
    },
    {
      "type": "Feature",
      "properties": {
        "name": "Zorita"
      },
      "geometry": {
        "coordinates": [
          -5.69973,
          39.28522
        ],
        "type": "Point"
      }
    },
    {
      "type": "Feature",
      "properties": {
        "name": "Zarza la Mayor"
      },
      "geometry": {
        "coordinates": [
          -6.86211,
          39.87692
        ],
        "type": "Point"
      }
    },
    {
      "type": "Feature",
      "properties": {
        "name": "Zarza de Montanchez"
      },
      "geometry": {
        "coordinates": [
          -6.03248,
          39.25756
        ],
        "type": "Point"
      }
    },
    {
      "type": "Feature",
      "properties": {
        "name": "Zarza de Alange"
      },
      "geometry": {
        "coordinates": [
          -6.21756,
          38.81814
        ],
        "type": "Point"
      }
    },
    {
      "type": "Feature",
      "properties": {
        "name": "Zarra"
      },
      "geometry": {
        "coordinates": [
          -1.07532,
          39.09175
        ],
        "type": "Point"
      }
    },
    {
      "type": "Feature",
      "properties": {
        "name": "Zalamea la Real"
      },
      "geometry": {
        "coordinates": [
          -6.65977,
          37.68012
        ],
        "type": "Point"
      }
    },
    {
      "type": "Feature",
      "properties": {
        "name": "Zalamea de la Serena"
      },
      "geometry": {
        "coordinates": [
          -5.66063,
          38.65131
        ],
        "type": "Point"
      }
    },
    {
      "type": "Feature",
      "properties": {
        "name": "Zahinos"
      },
      "geometry": {
        "coordinates": [
          -6.95533,
          38.33135
        ],
        "type": "Point"
      }
    },
    {
      "type": "Feature",
      "properties": {
        "name": "Zahara de los Atunes"
      },
      "geometry": {
        "coordinates": [
          -5.84591,
          36.1369
        ],
        "type": "Point"
      }
    },
    {
      "type": "Feature",
      "properties": {
        "name": "Zahara"
      },
      "geometry": {
        "coordinates": [
          -5.39128,
          36.84055
        ],
        "type": "Point"
      }
    },
    {
      "type": "Feature",
      "properties": {
        "name": "Zagra"
      },
      "geometry": {
        "coordinates": [
          -4.16905,
          37.25561
        ],
        "type": "Point"
      }
    },
    {
      "type": "Feature",
      "properties": {
        "name": "Zafra de Zancara"
      },
      "geometry": {
        "coordinates": [
          -2.55786,
          39.89203
        ],
        "type": "Point"
      }
    },
    {
      "type": "Feature",
      "properties": {
        "name": "Zafra"
      },
      "geometry": {
        "coordinates": [
          -6.41667,
          38.41667
        ],
        "type": "Point"
      }
    },
    {
      "type": "Feature",
      "properties": {
        "name": "Zafarraya"
      },
      "geometry": {
        "coordinates": [
          -4.14442,
          36.97554
        ],
        "type": "Point"
      }
    },
    {
      "type": "Feature",
      "properties": {
        "name": "Yunquera"
      },
      "geometry": {
        "coordinates": [
          -4.92122,
          36.73252
        ],
        "type": "Point"
      }
    },
    {
      "type": "Feature",
      "properties": {
        "name": "Yeste"
      },
      "geometry": {
        "coordinates": [
          -2.31756,
          38.36852
        ],
        "type": "Point"
      }
    },
    {
      "type": "Feature",
      "properties": {
        "name": "Yepes"
      },
      "geometry": {
        "coordinates": [
          -3.62517,
          39.90199
        ],
        "type": "Point"
      }
    },
    {
      "type": "Feature",
      "properties": {
        "name": "Yemeda"
      },
      "geometry": {
        "coordinates": [
          -1.71667,
          39.76667
        ],
        "type": "Point"
      }
    },
    {
      "type": "Feature",
      "properties": {
        "name": "Yecla"
      },
      "geometry": {
        "coordinates": [
          -1.11468,
          38.61365
        ],
        "type": "Point"
      }
    },
    {
      "type": "Feature",
      "properties": {
        "name": "Yatova"
      },
      "geometry": {
        "coordinates": [
          -0.8,
          39.38333
        ],
        "type": "Point"
      }
    },
    {
      "type": "Feature",
      "properties": {
        "name": "Viznar"
      },
      "geometry": {
        "coordinates": [
          -3.55382,
          37.23149
        ],
        "type": "Point"
      }
    },
    {
      "type": "Feature",
      "properties": {
        "name": "Viveros"
      },
      "geometry": {
        "coordinates": [
          -2.57449,
          38.7726
        ],
        "type": "Point"
      }
    },
    {
      "type": "Feature",
      "properties": {
        "name": "Viver"
      },
      "geometry": {
        "coordinates": [
          -0.6,
          39.91667
        ],
        "type": "Point"
      }
    },
    {
      "type": "Feature",
      "properties": {
        "name": "Viso del Marques"
      },
      "geometry": {
        "coordinates": [
          -3.56348,
          38.52208
        ],
        "type": "Point"
      }
    },
    {
      "type": "Feature",
      "properties": {
        "name": "Vinuela"
      },
      "geometry": {
        "coordinates": [
          -4.14124,
          36.86307
        ],
        "type": "Point"
      }
    },
    {
      "type": "Feature",
      "properties": {
        "name": "Vinalesa"
      },
      "geometry": {
        "coordinates": [
          -0.36667,
          39.53333
        ],
        "type": "Point"
      }
    },
    {
      "type": "Feature",
      "properties": {
        "name": "Villena"
      },
      "geometry": {
        "coordinates": [
          -0.86568,
          38.6373
        ],
        "type": "Point"
      }
    },
    {
      "type": "Feature",
      "properties": {
        "name": "Villavieja"
      },
      "geometry": {
        "coordinates": [
          -0.18333,
          39.85
        ],
        "type": "Point"
      }
    },
    {
      "type": "Feature",
      "properties": {
        "name": "Villaviciosa de Cordoba"
      },
      "geometry": {
        "coordinates": [
          -5.01667,
          38.08333
        ],
        "type": "Point"
      }
    },
    {
      "type": "Feature",
      "properties": {
        "name": "Villaverde y Pasaconsol"
      },
      "geometry": {
        "coordinates": [
          -2.26552,
          39.77099
        ],
        "type": "Point"
      }
    },
    {
      "type": "Feature",
      "properties": {
        "name": "Villaverde del Rio"
      },
      "geometry": {
        "coordinates": [
          -5.87443,
          37.58919
        ],
        "type": "Point"
      }
    },
    {
      "type": "Feature",
      "properties": {
        "name": "Villaverde de Guadalimar"
      },
      "geometry": {
        "coordinates": [
          -2.51782,
          38.45525
        ],
        "type": "Point"
      }
    },
    {
      "type": "Feature",
      "properties": {
        "name": "Villavaliente"
      },
      "geometry": {
        "coordinates": [
          -1.45712,
          39.12646
        ],
        "type": "Point"
      }
    },
    {
      "type": "Feature",
      "properties": {
        "name": "Villatoya"
      },
      "geometry": {
        "coordinates": [
          -1.3,
          39.33333
        ],
        "type": "Point"
      }
    },
    {
      "type": "Feature",
      "properties": {
        "name": "Villatobas"
      },
      "geometry": {
        "coordinates": [
          -3.32386,
          39.90187
        ],
        "type": "Point"
      }
    },
    {
      "type": "Feature",
      "properties": {
        "name": "Villasequilla de Yepes"
      },
      "geometry": {
        "coordinates": [
          -3.7311,
          39.87582
        ],
        "type": "Point"
      }
    },
    {
      "type": "Feature",
      "properties": {
        "name": "Villaseca de la Sagra"
      },
      "geometry": {
        "coordinates": [
          -3.88291,
          39.96185
        ],
        "type": "Point"
      }
    },
    {
      "type": "Feature",
      "properties": {
        "name": "Villarta de San Juan"
      },
      "geometry": {
        "coordinates": [
          -3.42333,
          39.23785
        ],
        "type": "Point"
      }
    },
    {
      "type": "Feature",
      "properties": {
        "name": "Villarta de los Montes"
      },
      "geometry": {
        "coordinates": [
          -4.79227,
          39.21386
        ],
        "type": "Point"
      }
    },
    {
      "type": "Feature",
      "properties": {
        "name": "Villarta"
      },
      "geometry": {
        "coordinates": [
          -1.65,
          39.45
        ],
        "type": "Point"
      }
    },
    {
      "type": "Feature",
      "properties": {
        "name": "Villarrubio"
      },
      "geometry": {
        "coordinates": [
          -2.89431,
          39.94511
        ],
        "type": "Point"
      }
    },
    {
      "type": "Feature",
      "properties": {
        "name": "Villarrubia de Santiago"
      },
      "geometry": {
        "coordinates": [
          -3.36898,
          39.98555
        ],
        "type": "Point"
      }
    },
    {
      "type": "Feature",
      "properties": {
        "name": "Villarrubia de los Ojos"
      },
      "geometry": {
        "coordinates": [
          -3.60802,
          39.22085
        ],
        "type": "Point"
      }
    },
    {
      "type": "Feature",
      "properties": {
        "name": "Villarrubia"
      },
      "geometry": {
        "coordinates": [
          -4.9,
          37.85
        ],
        "type": "Point"
      }
    },
    {
      "type": "Feature",
      "properties": {
        "name": "Villarrobledo"
      },
      "geometry": {
        "coordinates": [
          -2.60119,
          39.26992
        ],
        "type": "Point"
      }
    },
    {
      "type": "Feature",
      "properties": {
        "name": "Villarrasa"
      },
      "geometry": {
        "coordinates": [
          -6.60641,
          37.38849
        ],
        "type": "Point"
      }
    },
    {
      "type": "Feature",
      "properties": {
        "name": "Villargordo del Cabriel"
      },
      "geometry": {
        "coordinates": [
          -1.43333,
          39.53333
        ],
        "type": "Point"
      }
    },
    {
      "type": "Feature",
      "properties": {
        "name": "Villares del Saz"
      },
      "geometry": {
        "coordinates": [
          -2.50427,
          39.84109
        ],
        "type": "Point"
      }
    },
    {
      "type": "Feature",
      "properties": {
        "name": "Villarejo-Periesteban"
      },
      "geometry": {
        "coordinates": [
          -2.44145,
          39.87231
        ],
        "type": "Point"
      }
    },
    {
      "type": "Feature",
      "properties": {
        "name": "Villarejo de Montalban"
      },
      "geometry": {
        "coordinates": [
          -4.57314,
          39.76913
        ],
        "type": "Point"
      }
    },
    {
      "type": "Feature",
      "properties": {
        "name": "Villarejo de Fuentes"
      },
      "geometry": {
        "coordinates": [
          -2.6968,
          39.78809
        ],
        "type": "Point"
      }
    },
    {
      "type": "Feature",
      "properties": {
        "name": "Vila-real"
      },
      "geometry": {
        "coordinates": [
          -0.10087,
          39.9383
        ],
        "type": "Point"
      }
    },
    {
      "type": "Feature",
      "properties": {
        "name": "Villardompardo"
      },
      "geometry": {
        "coordinates": [
          -4.00051,
          37.83735
        ],
        "type": "Point"
      }
    },
    {
      "type": "Feature",
      "properties": {
        "name": "Villar de Rena"
      },
      "geometry": {
        "coordinates": [
          -5.81074,
          39.07651
        ],
        "type": "Point"
      }
    },
    {
      "type": "Feature",
      "properties": {
        "name": "Villar del Rey"
      },
      "geometry": {
        "coordinates": [
          -6.84762,
          39.1331
        ],
        "type": "Point"
      }
    },
    {
      "type": "Feature",
      "properties": {
        "name": "Villar del Pozo"
      },
      "geometry": {
        "coordinates": [
          -3.96405,
          38.8501
        ],
        "type": "Point"
      }
    },
    {
      "type": "Feature",
      "properties": {
        "name": "Villar del Pedroso"
      },
      "geometry": {
        "coordinates": [
          -5.19583,
          39.70631
        ],
        "type": "Point"
      }
    },
    {
      "type": "Feature",
      "properties": {
        "name": "Villar del Humo"
      },
      "geometry": {
        "coordinates": [
          -1.63333,
          39.86667
        ],
        "type": "Point"
      }
    },
    {
      "type": "Feature",
      "properties": {
        "name": "Villar del Arzobispo"
      },
      "geometry": {
        "coordinates": [
          -0.81667,
          39.73333
        ],
        "type": "Point"
      }
    },
    {
      "type": "Feature",
      "properties": {
        "name": "Villar de la Encina"
      },
      "geometry": {
        "coordinates": [
          -2.52155,
          39.63725
        ],
        "type": "Point"
      }
    },
    {
      "type": "Feature",
      "properties": {
        "name": "Villar de Canas"
      },
      "geometry": {
        "coordinates": [
          -2.56428,
          39.7786
        ],
        "type": "Point"
      }
    },
    {
      "type": "Feature",
      "properties": {
        "name": "Villaralto"
      },
      "geometry": {
        "coordinates": [
          -4.98333,
          38.45
        ],
        "type": "Point"
      }
    },
    {
      "type": "Feature",
      "properties": {
        "name": "Villapalacios"
      },
      "geometry": {
        "coordinates": [
          -2.63384,
          38.575
        ],
        "type": "Point"
      }
    },
    {
      "type": "Feature",
      "properties": {
        "name": "Villanueva de Tapia"
      },
      "geometry": {
        "coordinates": [
          -4.33383,
          37.18276
        ],
        "type": "Point"
      }
    },
    {
      "type": "Feature",
      "properties": {
        "name": "Villanueva de San Juan"
      },
      "geometry": {
        "coordinates": [
          -5.1754,
          37.04955
        ],
        "type": "Point"
      }
    },
    {
      "type": "Feature",
      "properties": {
        "name": "Villanueva de San Carlos"
      },
      "geometry": {
        "coordinates": [
          -3.90903,
          38.62173
        ],
        "type": "Point"
      }
    },
    {
      "type": "Feature",
      "properties": {
        "name": "Villanueva de Mesia"
      },
      "geometry": {
        "coordinates": [
          -4.01404,
          37.21454
        ],
        "type": "Point"
      }
    },
    {
      "type": "Feature",
      "properties": {
        "name": "Villanueva del Trabuco"
      },
      "geometry": {
        "coordinates": [
          -4.33891,
          37.02832
        ],
        "type": "Point"
      }
    },
    {
      "type": "Feature",
      "properties": {
        "name": "Villanueva del Rosario"
      },
      "geometry": {
        "coordinates": [
          -4.36535,
          36.99679
        ],
        "type": "Point"
      }
    },
    {
      "type": "Feature",
      "properties": {
        "name": "Villanueva del Rio y Minas"
      },
      "geometry": {
        "coordinates": [
          -5.71369,
          37.65502
        ],
        "type": "Point"
      }
    },
    {
      "type": "Feature",
      "properties": {
        "name": "Villanueva de los Castillejos"
      },
      "geometry": {
        "coordinates": [
          -7.29118,
          37.4994
        ],
        "type": "Point"
      }
    },
    {
      "type": "Feature",
      "properties": {
        "name": "Villanueva del Fresno"
      },
      "geometry": {
        "coordinates": [
          -7.16753,
          38.376
        ],
        "type": "Point"
      }
    },
    {
      "type": "Feature",
      "properties": {
        "name": "Villanueva del Duque"
      },
      "geometry": {
        "coordinates": [
          -5.0,
          38.38333
        ],
        "type": "Point"
      }
    },
    {
      "type": "Feature",
      "properties": {
        "name": "Villanueva de las Torres"
      },
      "geometry": {
        "coordinates": [
          -3.08868,
          37.55719
        ],
        "type": "Point"
      }
    },
    {
      "type": "Feature",
      "properties": {
        "name": "Villanueva de la Serena"
      },
      "geometry": {
        "coordinates": [
          -5.7974,
          38.97655
        ],
        "type": "Point"
      }
    },
    {
      "type": "Feature",
      "properties": {
        "name": "Villanueva de las Cruces"
      },
      "geometry": {
        "coordinates": [
          -7.02359,
          37.62783
        ],
        "type": "Point"
      }
    },
    {
      "type": "Feature",
      "properties": {
        "name": "Villanueva del Arzobispo"
      },
      "geometry": {
        "coordinates": [
          -3.00742,
          38.16842
        ],
        "type": "Point"
      }
    },
    {
      "type": "Feature",
      "properties": {
        "name": "Villanueva del Ariscal"
      },
      "geometry": {
        "coordinates": [
          -6.14077,
          37.39623
        ],
        "type": "Point"
      }
    },
    {
      "type": "Feature",
      "properties": {
        "name": "Villanueva de la Reina"
      },
      "geometry": {
        "coordinates": [
          -3.91603,
          38.00432
        ],
        "type": "Point"
      }
    },
    {
      "type": "Feature",
      "properties": {
        "name": "Villanueva de la Jara"
      },
      "geometry": {
        "coordinates": [
          -1.93333,
          39.43333
        ],
        "type": "Point"
      }
    },
    {
      "type": "Feature",
      "properties": {
        "name": "Villanueva de la Fuente"
      },
      "geometry": {
        "coordinates": [
          -2.69637,
          38.69463
        ],
        "type": "Point"
      }
    },
    {
      "type": "Feature",
      "properties": {
        "name": "Villanueva de Cordoba"
      },
      "geometry": {
        "coordinates": [
          -4.62873,
          38.32277
        ],
        "type": "Point"
      }
    },
    {
      "type": "Feature",
      "properties": {
        "name": "Villanueva de Castellon"
      },
      "geometry": {
        "coordinates": [
          -0.51167,
          39.07741
        ],
        "type": "Point"
      }
    },
    {
      "type": "Feature",
      "properties": {
        "name": "Villanueva de Bogas"
      },
      "geometry": {
        "coordinates": [
          -3.65743,
          39.72347
        ],
        "type": "Point"
      }
    },
    {
      "type": "Feature",
      "properties": {
        "name": "Villanueva de Algaidas"
      },
      "geometry": {
        "coordinates": [
          -4.45032,
          37.1835
        ],
        "type": "Point"
      }
    },
    {
      "type": "Feature",
      "properties": {
        "name": "Villanueva de Alcardete"
      },
      "geometry": {
        "coordinates": [
          -3.01445,
          39.67321
        ],
        "type": "Point"
      }
    },
    {
      "type": "Feature",
      "properties": {
        "name": "Villamuelas"
      },
      "geometry": {
        "coordinates": [
          -3.73461,
          39.81784
        ],
        "type": "Point"
      }
    },
    {
      "type": "Feature",
      "properties": {
        "name": "Villaminaya"
      },
      "geometry": {
        "coordinates": [
          -3.87055,
          39.71197
        ],
        "type": "Point"
      }
    },
    {
      "type": "Feature",
      "properties": {
        "name": "Villamiel de Toledo"
      },
      "geometry": {
        "coordinates": [
          -4.12627,
          39.96482
        ],
        "type": "Point"
      }
    },
    {
      "type": "Feature",
      "properties": {
        "name": "Villamesias"
      },
      "geometry": {
        "coordinates": [
          -5.87307,
          39.24568
        ],
        "type": "Point"
      }
    },
    {
      "type": "Feature",
      "properties": {
        "name": "Villamayor de Santiago"
      },
      "geometry": {
        "coordinates": [
          -2.92357,
          39.73072
        ],
        "type": "Point"
      }
    },
    {
      "type": "Feature",
      "properties": {
        "name": "Villamayor de Calatrava"
      },
      "geometry": {
        "coordinates": [
          -4.13774,
          38.78763
        ],
        "type": "Point"
      }
    },
    {
      "type": "Feature",
      "properties": {
        "name": "Villamartin"
      },
      "geometry": {
        "coordinates": [
          -5.64485,
          36.85979
        ],
        "type": "Point"
      }
    },
    {
      "type": "Feature",
      "properties": {
        "name": "Vilamarxant"
      },
      "geometry": {
        "coordinates": [
          -0.62453,
          39.56916
        ],
        "type": "Point"
      }
    },
    {
      "type": "Feature",
      "properties": {
        "name": "Villamanrique de la Condesa"
      },
      "geometry": {
        "coordinates": [
          -6.30665,
          37.24481
        ],
        "type": "Point"
      }
    },
    {
      "type": "Feature",
      "properties": {
        "name": "Villamanrique"
      },
      "geometry": {
        "coordinates": [
          -2.99729,
          38.54636
        ],
        "type": "Point"
      }
    },
    {
      "type": "Feature",
      "properties": {
        "name": "Villamalur"
      },
      "geometry": {
        "coordinates": [
          -0.4,
          39.96667
        ],
        "type": "Point"
      }
    },
    {
      "type": "Feature",
      "properties": {
        "name": "Villamalea"
      },
      "geometry": {
        "coordinates": [
          -1.58333,
          39.36667
        ],
        "type": "Point"
      }
    },
    {
      "type": "Feature",
      "properties": {
        "name": "Villaluenga del Rosario"
      },
      "geometry": {
        "coordinates": [
          -5.38601,
          36.69644
        ],
        "type": "Point"
      }
    },
    {
      "type": "Feature",
      "properties": {
        "name": "Villalpardo"
      },
      "geometry": {
        "coordinates": [
          -1.63333,
          39.46667
        ],
        "type": "Point"
      }
    },
    {
      "type": "Feature",
      "properties": {
        "name": "Villalonga"
      },
      "geometry": {
        "coordinates": [
          -0.20795,
          38.88566
        ],
        "type": "Point"
      }
    },
    {
      "type": "Feature",
      "properties": {
        "name": "Villalgordo del Marquesado"
      },
      "geometry": {
        "coordinates": [
          -2.50885,
          39.68245
        ],
        "type": "Point"
      }
    },
    {
      "type": "Feature",
      "properties": {
        "name": "Villalba de los Barros"
      },
      "geometry": {
        "coordinates": [
          -6.50914,
          38.61294
        ],
        "type": "Point"
      }
    },
    {
      "type": "Feature",
      "properties": {
        "name": "Villalba del Alcor"
      },
      "geometry": {
        "coordinates": [
          -6.47461,
          37.39731
        ],
        "type": "Point"
      }
    },
    {
      "type": "Feature",
      "properties": {
        "name": "Villajoyosa"
      },
      "geometry": {
        "coordinates": [
          -0.23346,
          38.50754
        ],
        "type": "Point"
      }
    },
    {
      "type": "Feature",
      "properties": {
        "name": "Villahermosa"
      },
      "geometry": {
        "coordinates": [
          -2.87066,
          38.75023
        ],
        "type": "Point"
      }
    },
    {
      "type": "Feature",
      "properties": {
        "name": "Villaharta"
      },
      "geometry": {
        "coordinates": [
          -4.9,
          38.13333
        ],
        "type": "Point"
      }
    },
    {
      "type": "Feature",
      "properties": {
        "name": "Villagonzalo"
      },
      "geometry": {
        "coordinates": [
          -6.19665,
          38.86329
        ],
        "type": "Point"
      }
    },
    {
      "type": "Feature",
      "properties": {
        "name": "Villagarcia del Llano"
      },
      "geometry": {
        "coordinates": [
          -1.83333,
          39.31667
        ],
        "type": "Point"
      }
    },
    {
      "type": "Feature",
      "properties": {
        "name": "Villagarcia de la Torre"
      },
      "geometry": {
        "coordinates": [
          -6.08333,
          38.3
        ],
        "type": "Point"
      }
    },
    {
      "type": "Feature",
      "properties": {
        "name": "Villafranca de los Caballeros"
      },
      "geometry": {
        "coordinates": [
          -3.36079,
          39.42824
        ],
        "type": "Point"
      }
    },
    {
      "type": "Feature",
      "properties": {
        "name": "Villafranca de los Barros"
      },
      "geometry": {
        "coordinates": [
          -6.3381,
          38.56144
        ],
        "type": "Point"
      }
    },
    {
      "type": "Feature",
      "properties": {
        "name": "Villafranca de Cordoba"
      },
      "geometry": {
        "coordinates": [
          -4.54547,
          37.96257
        ],
        "type": "Point"
      }
    },
    {
      "type": "Feature",
      "properties": {
        "name": "Vilafranca de Bonany"
      },
      "geometry": {
        "coordinates": [
          3.08815,
          39.56894
        ],
        "type": "Point"
      }
    },
    {
      "type": "Feature",
      "properties": {
        "name": "Villa de Ves"
      },
      "geometry": {
        "coordinates": [
          -1.23333,
          39.2
        ],
        "type": "Point"
      }
    },
    {
      "type": "Feature",
      "properties": {
        "name": "Villa del Rio"
      },
      "geometry": {
        "coordinates": [
          -4.29003,
          37.98108
        ],
        "type": "Point"
      }
    },
    {
      "type": "Feature",
      "properties": {
        "name": "Villa del Rey"
      },
      "geometry": {
        "coordinates": [
          -6.82122,
          39.65955
        ],
        "type": "Point"
      }
    },
    {
      "type": "Feature",
      "properties": {
        "name": "Villa de Don Fadrique"
      },
      "geometry": {
        "coordinates": [
          -3.21915,
          39.61505
        ],
        "type": "Point"
      }
    },
    {
      "type": "Feature",
      "properties": {
        "name": "Villacarrillo"
      },
      "geometry": {
        "coordinates": [
          -3.0848,
          38.1156
        ],
        "type": "Point"
      }
    },
    {
      "type": "Feature",
      "properties": {
        "name": "Es Castell"
      },
      "geometry": {
        "coordinates": [
          4.2899,
          39.8776
        ],
        "type": "Point"
      }
    },
    {
      "type": "Feature",
      "properties": {
        "name": "Villacanas"
      },
      "geometry": {
        "coordinates": [
          -3.33813,
          39.62367
        ],
        "type": "Point"
      }
    },
    {
      "type": "Feature",
      "properties": {
        "name": "Villablanca"
      },
      "geometry": {
        "coordinates": [
          -7.34413,
          37.30239
        ],
        "type": "Point"
      }
    },
    {
      "type": "Feature",
      "properties": {
        "name": "Vilches"
      },
      "geometry": {
        "coordinates": [
          -3.51025,
          38.20695
        ],
        "type": "Point"
      }
    },
    {
      "type": "Feature",
      "properties": {
        "name": "Vicar"
      },
      "geometry": {
        "coordinates": [
          -2.64273,
          36.83155
        ],
        "type": "Point"
      }
    },
    {
      "type": "Feature",
      "properties": {
        "name": "Viator"
      },
      "geometry": {
        "coordinates": [
          -2.42695,
          36.89006
        ],
        "type": "Point"
      }
    },
    {
      "type": "Feature",
      "properties": {
        "name": "Vergel"
      },
      "geometry": {
        "coordinates": [
          0.01034,
          38.84709
        ],
        "type": "Point"
      }
    },
    {
      "type": "Feature",
      "properties": {
        "name": "Vera"
      },
      "geometry": {
        "coordinates": [
          -1.85905,
          37.24345
        ],
        "type": "Point"
      }
    },
    {
      "type": "Feature",
      "properties": {
        "name": "Ventas de Huelma"
      },
      "geometry": {
        "coordinates": [
          -3.81983,
          37.0684
        ],
        "type": "Point"
      }
    },
    {
      "type": "Feature",
      "properties": {
        "name": "Ventas con Pena Aguilera"
      },
      "geometry": {
        "coordinates": [
          -4.23128,
          39.61033
        ],
        "type": "Point"
      }
    },
    {
      "type": "Feature",
      "properties": {
        "name": "Venta del Moro"
      },
      "geometry": {
        "coordinates": [
          -1.35,
          39.48333
        ],
        "type": "Point"
      }
    },
    {
      "type": "Feature",
      "properties": {
        "name": "Velez Rubio"
      },
      "geometry": {
        "coordinates": [
          -2.07686,
          37.64844
        ],
        "type": "Point"
      }
    },
    {
      "type": "Feature",
      "properties": {
        "name": "Velez-Malaga"
      },
      "geometry": {
        "coordinates": [
          -4.10266,
          36.78107
        ],
        "type": "Point"
      }
    },
    {
      "type": "Feature",
      "properties": {
        "name": "Velez de Benaudalla"
      },
      "geometry": {
        "coordinates": [
          -3.51539,
          36.83244
        ],
        "type": "Point"
      }
    },
    {
      "type": "Feature",
      "properties": {
        "name": "Velez-Blanco"
      },
      "geometry": {
        "coordinates": [
          -2.09587,
          37.69178
        ],
        "type": "Point"
      }
    },
    {
      "type": "Feature",
      "properties": {
        "name": "Velefique"
      },
      "geometry": {
        "coordinates": [
          -2.40155,
          37.19407
        ],
        "type": "Point"
      }
    },
    {
      "type": "Feature",
      "properties": {
        "name": "Velada"
      },
      "geometry": {
        "coordinates": [
          -4.97641,
          39.97687
        ],
        "type": "Point"
      }
    },
    {
      "type": "Feature",
      "properties": {
        "name": "Vejer de la Frontera"
      },
      "geometry": {
        "coordinates": [
          -5.96953,
          36.24456
        ],
        "type": "Point"
      }
    },
    {
      "type": "Feature",
      "properties": {
        "name": "Vara de Rey"
      },
      "geometry": {
        "coordinates": [
          -2.29404,
          39.42595
        ],
        "type": "Point"
      }
    },
    {
      "type": "Feature",
      "properties": {
        "name": "Valverdejo"
      },
      "geometry": {
        "coordinates": [
          -2.01667,
          39.61667
        ],
        "type": "Point"
      }
    },
    {
      "type": "Feature",
      "properties": {
        "name": "Valverde de Merida"
      },
      "geometry": {
        "coordinates": [
          -6.21999,
          38.91122
        ],
        "type": "Point"
      }
    },
    {
      "type": "Feature",
      "properties": {
        "name": "Valverde de Llerena"
      },
      "geometry": {
        "coordinates": [
          -5.81667,
          38.21667
        ],
        "type": "Point"
      }
    },
    {
      "type": "Feature",
      "properties": {
        "name": "Valverde de Leganes"
      },
      "geometry": {
        "coordinates": [
          -6.98036,
          38.67059
        ],
        "type": "Point"
      }
    },
    {
      "type": "Feature",
      "properties": {
        "name": "Valverde del Camino"
      },
      "geometry": {
        "coordinates": [
          -6.75432,
          37.57511
        ],
        "type": "Point"
      }
    },
    {
      "type": "Feature",
      "properties": {
        "name": "Valverde de Jucar"
      },
      "geometry": {
        "coordinates": [
          -2.22135,
          39.71866
        ],
        "type": "Point"
      }
    },
    {
      "type": "Feature",
      "properties": {
        "name": "Valverde de Burguillos"
      },
      "geometry": {
        "coordinates": [
          -6.53648,
          38.3271
        ],
        "type": "Point"
      }
    },
    {
      "type": "Feature",
      "properties": {
        "name": "Valor"
      },
      "geometry": {
        "coordinates": [
          -3.08287,
          36.99618
        ],
        "type": "Point"
      }
    },
    {
      "type": "Feature",
      "properties": {
        "name": "Valles"
      },
      "geometry": {
        "coordinates": [
          -0.55696,
          38.98518
        ],
        "type": "Point"
      }
    },
    {
      "type": "Feature",
      "properties": {
        "name": "Valle de Santa Ana"
      },
      "geometry": {
        "coordinates": [
          -6.7886,
          38.36637
        ],
        "type": "Point"
      }
    },
    {
      "type": "Feature",
      "properties": {
        "name": "Valle de Matamoros"
      },
      "geometry": {
        "coordinates": [
          -6.80371,
          38.37889
        ],
        "type": "Point"
      }
    },
    {
      "type": "Feature",
      "properties": {
        "name": "Valle de la Serena"
      },
      "geometry": {
        "coordinates": [
          -5.79847,
          38.7101
        ],
        "type": "Point"
      }
    },
    {
      "type": "Feature",
      "properties": {
        "name": "Valldemossa"
      },
      "geometry": {
        "coordinates": [
          2.6223,
          39.71042
        ],
        "type": "Point"
      }
    },
    {
      "type": "Feature",
      "properties": {
        "name": "Vall de Ebo"
      },
      "geometry": {
        "coordinates": [
          -0.1589,
          38.80561
        ],
        "type": "Point"
      }
    },
    {
      "type": "Feature",
      "properties": {
        "name": "Vall de Almonacid"
      },
      "geometry": {
        "coordinates": [
          -0.45,
          39.9
        ],
        "type": "Point"
      }
    },
    {
      "type": "Feature",
      "properties": {
        "name": "Vallada"
      },
      "geometry": {
        "coordinates": [
          -0.69104,
          38.89575
        ],
        "type": "Point"
      }
    },
    {
      "type": "Feature",
      "properties": {
        "name": "Valhermoso de la Fuente"
      },
      "geometry": {
        "coordinates": [
          -2.01667,
          39.56667
        ],
        "type": "Point"
      }
    },
    {
      "type": "Feature",
      "properties": {
        "name": "Valenzuela de Calatrava"
      },
      "geometry": {
        "coordinates": [
          -3.7721,
          38.85254
        ],
        "type": "Point"
      }
    },
    {
      "type": "Feature",
      "properties": {
        "name": "Valenzuela"
      },
      "geometry": {
        "coordinates": [
          -4.22038,
          37.7756
        ],
        "type": "Point"
      }
    },
    {
      "type": "Feature",
      "properties": {
        "name": "Valencina de la Concepcion"
      },
      "geometry": {
        "coordinates": [
          -6.07422,
          37.41618
        ],
        "type": "Point"
      }
    },
    {
      "type": "Feature",
      "properties": {
        "name": "Valencia del Ventoso"
      },
      "geometry": {
        "coordinates": [
          -6.46667,
          38.26667
        ],
        "type": "Point"
      }
    },
    {
      "type": "Feature",
      "properties": {
        "name": "Valencia del Mombuey"
      },
      "geometry": {
        "coordinates": [
          -7.11965,
          38.24243
        ],
        "type": "Point"
      }
    },
    {
      "type": "Feature",
      "properties": {
        "name": "Valencia de las Torres"
      },
      "geometry": {
        "coordinates": [
          -6.00403,
          38.40518
        ],
        "type": "Point"
      }
    },
    {
      "type": "Feature",
      "properties": {
        "name": "Valencia de Alcantara"
      },
      "geometry": {
        "coordinates": [
          -7.24435,
          39.41148
        ],
        "type": "Point"
      }
    },
    {
      "type": "Feature",
      "properties": {
        "name": "Valencia"
      },
      "geometry": {
        "coordinates": [
          -0.37739,
          39.46975
        ],
        "type": "Point"
      }
    },
    {
      "type": "Feature",
      "properties": {
        "name": "Valdeverdeja"
      },
      "geometry": {
        "coordinates": [
          -5.24544,
          39.79635
        ],
        "type": "Point"
      }
    },
    {
      "type": "Feature",
      "properties": {
        "name": "Valdetorres"
      },
      "geometry": {
        "coordinates": [
          -6.06765,
          38.91542
        ],
        "type": "Point"
      }
    },
    {
      "type": "Feature",
      "properties": {
        "name": "Valdes"
      },
      "geometry": {
        "coordinates": [
          -4.24235,
          36.75835
        ],
        "type": "Point"
      }
    },
    {
      "type": "Feature",
      "properties": {
        "name": "Valderrubio"
      },
      "geometry": {
        "coordinates": [
          -3.82005,
          37.23378
        ],
        "type": "Point"
      }
    },
    {
      "type": "Feature",
      "properties": {
        "name": "Valdepenas de Jaen"
      },
      "geometry": {
        "coordinates": [
          -3.8145,
          37.58903
        ],
        "type": "Point"
      }
    },
    {
      "type": "Feature",
      "properties": {
        "name": "Valdepenas"
      },
      "geometry": {
        "coordinates": [
          -3.38483,
          38.76211
        ],
        "type": "Point"
      }
    },
    {
      "type": "Feature",
      "properties": {
        "name": "Valdemorales"
      },
      "geometry": {
        "coordinates": [
          -6.06622,
          39.20588
        ],
        "type": "Point"
      }
    },
    {
      "type": "Feature",
      "properties": {
        "name": "Valdemanco del Esteras"
      },
      "geometry": {
        "coordinates": [
          -4.8292,
          38.93858
        ],
        "type": "Point"
      }
    },
    {
      "type": "Feature",
      "properties": {
        "name": "Valdelarco"
      },
      "geometry": {
        "coordinates": [
          -6.68202,
          37.94877
        ],
        "type": "Point"
      }
    },
    {
      "type": "Feature",
      "properties": {
        "name": "Valdelacasa de Tajo"
      },
      "geometry": {
        "coordinates": [
          -5.28296,
          39.72588
        ],
        "type": "Point"
      }
    },
    {
      "type": "Feature",
      "properties": {
        "name": "Valdehuncar"
      },
      "geometry": {
        "coordinates": [
          -5.52307,
          39.83659
        ],
        "type": "Point"
      }
    },
    {
      "type": "Feature",
      "properties": {
        "name": "Valdeganga"
      },
      "geometry": {
        "coordinates": [
          -1.67703,
          39.13514
        ],
        "type": "Point"
      }
    },
    {
      "type": "Feature",
      "properties": {
        "name": "Valdefuentes"
      },
      "geometry": {
        "coordinates": [
          -6.12183,
          39.27433
        ],
        "type": "Point"
      }
    },
    {
      "type": "Feature",
      "properties": {
        "name": "Valdecanas de Tajo"
      },
      "geometry": {
        "coordinates": [
          -5.61951,
          39.75919
        ],
        "type": "Point"
      }
    },
    {
      "type": "Feature",
      "properties": {
        "name": "Valdecaballeros"
      },
      "geometry": {
        "coordinates": [
          -5.19,
          39.24289
        ],
        "type": "Point"
      }
    },
    {
      "type": "Feature",
      "properties": {
        "name": "Utrera"
      },
      "geometry": {
        "coordinates": [
          -5.78093,
          37.18516
        ],
        "type": "Point"
      }
    },
    {
      "type": "Feature",
      "properties": {
        "name": "Utiel"
      },
      "geometry": {
        "coordinates": [
          -1.2,
          39.56667
        ],
        "type": "Point"
      }
    },
    {
      "type": "Feature",
      "properties": {
        "name": "Usagre"
      },
      "geometry": {
        "coordinates": [
          -6.16667,
          38.35
        ],
        "type": "Point"
      }
    },
    {
      "type": "Feature",
      "properties": {
        "name": "Urracal"
      },
      "geometry": {
        "coordinates": [
          -2.36485,
          37.3974
        ],
        "type": "Point"
      }
    },
    {
      "type": "Feature",
      "properties": {
        "name": "Urda"
      },
      "geometry": {
        "coordinates": [
          -3.71493,
          39.41179
        ],
        "type": "Point"
      }
    },
    {
      "type": "Feature",
      "properties": {
        "name": "Umbrete"
      },
      "geometry": {
        "coordinates": [
          -6.15847,
          37.36881
        ],
        "type": "Point"
      }
    },
    {
      "type": "Feature",
      "properties": {
        "name": "Uleila del Campo"
      },
      "geometry": {
        "coordinates": [
          -2.20491,
          37.1846
        ],
        "type": "Point"
      }
    },
    {
      "type": "Feature",
      "properties": {
        "name": "Ulea"
      },
      "geometry": {
        "coordinates": [
          -1.33007,
          38.14045
        ],
        "type": "Point"
      }
    },
    {
      "type": "Feature",
      "properties": {
        "name": "Ugijar"
      },
      "geometry": {
        "coordinates": [
          -3.05523,
          36.96087
        ],
        "type": "Point"
      }
    },
    {
      "type": "Feature",
      "properties": {
        "name": "Ucles"
      },
      "geometry": {
        "coordinates": [
          -2.86143,
          39.97938
        ],
        "type": "Point"
      }
    },
    {
      "type": "Feature",
      "properties": {
        "name": "Ubrique"
      },
      "geometry": {
        "coordinates": [
          -5.446,
          36.67777
        ],
        "type": "Point"
      }
    },
    {
      "type": "Feature",
      "properties": {
        "name": "Ubeda"
      },
      "geometry": {
        "coordinates": [
          -3.3705,
          38.01328
        ],
        "type": "Point"
      }
    },
    {
      "type": "Feature",
      "properties": {
        "name": "Turrillas"
      },
      "geometry": {
        "coordinates": [
          -2.26607,
          37.02948
        ],
        "type": "Point"
      }
    },
    {
      "type": "Feature",
      "properties": {
        "name": "Turre"
      },
      "geometry": {
        "coordinates": [
          -1.89497,
          37.15224
        ],
        "type": "Point"
      }
    },
    {
      "type": "Feature",
      "properties": {
        "name": "Turleque"
      },
      "geometry": {
        "coordinates": [
          -3.61404,
          39.60138
        ],
        "type": "Point"
      }
    },
    {
      "type": "Feature",
      "properties": {
        "name": "Turis"
      },
      "geometry": {
        "coordinates": [
          -0.7,
          39.38333
        ],
        "type": "Point"
      }
    },
    {
      "type": "Feature",
      "properties": {
        "name": "Tuejar"
      },
      "geometry": {
        "coordinates": [
          -1.03333,
          39.76667
        ],
        "type": "Point"
      }
    },
    {
      "type": "Feature",
      "properties": {
        "name": "Trujillo"
      },
      "geometry": {
        "coordinates": [
          -5.88203,
          39.45786
        ],
        "type": "Point"
      }
    },
    {
      "type": "Feature",
      "properties": {
        "name": "Trujillanos"
      },
      "geometry": {
        "coordinates": [
          -6.25759,
          38.95233
        ],
        "type": "Point"
      }
    },
    {
      "type": "Feature",
      "properties": {
        "name": "Trigueros"
      },
      "geometry": {
        "coordinates": [
          -6.8268,
          37.38606
        ],
        "type": "Point"
      }
    },
    {
      "type": "Feature",
      "properties": {
        "name": "Tribaldos"
      },
      "geometry": {
        "coordinates": [
          -2.89809,
          39.97264
        ],
        "type": "Point"
      }
    },
    {
      "type": "Feature",
      "properties": {
        "name": "Trevelez"
      },
      "geometry": {
        "coordinates": [
          -3.26545,
          37.00037
        ],
        "type": "Point"
      }
    },
    {
      "type": "Feature",
      "properties": {
        "name": "Tresjuncos"
      },
      "geometry": {
        "coordinates": [
          -2.75502,
          39.70087
        ],
        "type": "Point"
      }
    },
    {
      "type": "Feature",
      "properties": {
        "name": "Trebujena"
      },
      "geometry": {
        "coordinates": [
          -6.17586,
          36.87075
        ],
        "type": "Point"
      }
    },
    {
      "type": "Feature",
      "properties": {
        "name": "Trasierra"
      },
      "geometry": {
        "coordinates": [
          -6.0,
          38.18333
        ],
        "type": "Point"
      }
    },
    {
      "type": "Feature",
      "properties": {
        "name": "Tous"
      },
      "geometry": {
        "coordinates": [
          -0.58777,
          39.13951
        ],
        "type": "Point"
      }
    },
    {
      "type": "Feature",
      "properties": {
        "name": "Totanes"
      },
      "geometry": {
        "coordinates": [
          -4.22655,
          39.71057
        ],
        "type": "Point"
      }
    },
    {
      "type": "Feature",
      "properties": {
        "name": "Totana"
      },
      "geometry": {
        "coordinates": [
          -1.50229,
          37.7688
        ],
        "type": "Point"
      }
    },
    {
      "type": "Feature",
      "properties": {
        "name": "Torrubia del Castillo"
      },
      "geometry": {
        "coordinates": [
          -2.31171,
          39.65852
        ],
        "type": "Point"
      }
    },
    {
      "type": "Feature",
      "properties": {
        "name": "Torrubia del Campo"
      },
      "geometry": {
        "coordinates": [
          -2.96133,
          39.89749
        ],
        "type": "Point"
      }
    },
    {
      "type": "Feature",
      "properties": {
        "name": "Torrox"
      },
      "geometry": {
        "coordinates": [
          -3.95233,
          36.75793
        ],
        "type": "Point"
      }
    },
    {
      "type": "Feature",
      "properties": {
        "name": "Torrijos"
      },
      "geometry": {
        "coordinates": [
          -4.28349,
          39.98195
        ],
        "type": "Point"
      }
    },
    {
      "type": "Feature",
      "properties": {
        "name": "Torrico"
      },
      "geometry": {
        "coordinates": [
          -5.22581,
          39.82918
        ],
        "type": "Point"
      }
    },
    {
      "type": "Feature",
      "properties": {
        "name": "Torrevieja"
      },
      "geometry": {
        "coordinates": [
          -0.68222,
          37.97872
        ],
        "type": "Point"
      }
    },
    {
      "type": "Feature",
      "properties": {
        "name": "Torres"
      },
      "geometry": {
        "coordinates": [
          -3.50902,
          37.78537
        ],
        "type": "Point"
      }
    },
    {
      "type": "Feature",
      "properties": {
        "name": "Torrequemada"
      },
      "geometry": {
        "coordinates": [
          -6.22052,
          39.36664
        ],
        "type": "Point"
      }
    },
    {
      "type": "Feature",
      "properties": {
        "name": "Torreperogil"
      },
      "geometry": {
        "coordinates": [
          -3.28998,
          38.0354
        ],
        "type": "Point"
      }
    },
    {
      "type": "Feature",
      "properties": {
        "name": "Torre-Pacheco"
      },
      "geometry": {
        "coordinates": [
          -0.95396,
          37.74293
        ],
        "type": "Point"
      }
    },
    {
      "type": "Feature",
      "properties": {
        "name": "Torreorgaz"
      },
      "geometry": {
        "coordinates": [
          -6.24941,
          39.3831
        ],
        "type": "Point"
      }
    },
    {
      "type": "Feature",
      "properties": {
        "name": "Torrenueva"
      },
      "geometry": {
        "coordinates": [
          -3.36259,
          38.6396
        ],
        "type": "Point"
      }
    },
    {
      "type": "Feature",
      "properties": {
        "name": "Torrent"
      },
      "geometry": {
        "coordinates": [
          -0.46546,
          39.43705
        ],
        "type": "Point"
      }
    },
    {
      "type": "Feature",
      "properties": {
        "name": "Torremolinos"
      },
      "geometry": {
        "coordinates": [
          -4.49976,
          36.62035
        ],
        "type": "Point"
      }
    },
    {
      "type": "Feature",
      "properties": {
        "name": "Torremocha"
      },
      "geometry": {
        "coordinates": [
          -6.17335,
          39.34565
        ],
        "type": "Point"
      }
    },
    {
      "type": "Feature",
      "properties": {
        "name": "Torremayor"
      },
      "geometry": {
        "coordinates": [
          -6.53858,
          38.9014
        ],
        "type": "Point"
      }
    },
    {
      "type": "Feature",
      "properties": {
        "name": "Torrella"
      },
      "geometry": {
        "coordinates": [
          -0.56727,
          38.98446
        ],
        "type": "Point"
      }
    },
    {
      "type": "Feature",
      "properties": {
        "name": "Torrejon el Rubio"
      },
      "geometry": {
        "coordinates": [
          -6.0126,
          39.77068
        ],
        "type": "Point"
      }
    },
    {
      "type": "Feature",
      "properties": {
        "name": "Torrejoncillo del Rey"
      },
      "geometry": {
        "coordinates": [
          -2.57107,
          40.0084
        ],
        "type": "Point"
      }
    },
    {
      "type": "Feature",
      "properties": {
        "name": "Torrejoncillo"
      },
      "geometry": {
        "coordinates": [
          -6.46712,
          39.89675
        ],
        "type": "Point"
      }
    },
    {
      "type": "Feature",
      "properties": {
        "name": "Torredonjimeno"
      },
      "geometry": {
        "coordinates": [
          -3.95776,
          37.76748
        ],
        "type": "Point"
      }
    },
    {
      "type": "Feature",
      "properties": {
        "name": "Torre de Santa Maria"
      },
      "geometry": {
        "coordinates": [
          -6.1161,
          39.25441
        ],
        "type": "Point"
      }
    },
    {
      "type": "Feature",
      "properties": {
        "name": "Torre de Miguel Sesmero"
      },
      "geometry": {
        "coordinates": [
          -6.7958,
          38.61913
        ],
        "type": "Point"
      }
    },
    {
      "type": "Feature",
      "properties": {
        "name": "Torre del Campo"
      },
      "geometry": {
        "coordinates": [
          -3.89731,
          37.77051
        ],
        "type": "Point"
      }
    },
    {
      "type": "Feature",
      "properties": {
        "name": "Torre de la Horadada"
      },
      "geometry": {
        "coordinates": [
          -0.7584,
          37.8697
        ],
        "type": "Point"
      }
    },
    {
      "type": "Feature",
      "properties": {
        "name": "Torre de Juan Abad"
      },
      "geometry": {
        "coordinates": [
          -3.05994,
          38.58417
        ],
        "type": "Point"
      }
    },
    {
      "type": "Feature",
      "properties": {
        "name": "Torrecillas de la Tiesa"
      },
      "geometry": {
        "coordinates": [
          -5.74238,
          39.56837
        ],
        "type": "Point"
      }
    },
    {
      "type": "Feature",
      "properties": {
        "name": "Torrecilla de la Jara"
      },
      "geometry": {
        "coordinates": [
          -4.77186,
          39.70425
        ],
        "type": "Point"
      }
    },
    {
      "type": "Feature",
      "properties": {
        "name": "Torre-Cardela"
      },
      "geometry": {
        "coordinates": [
          -3.35609,
          37.50456
        ],
        "type": "Point"
      }
    },
    {
      "type": "Feature",
      "properties": {
        "name": "Torrecampo"
      },
      "geometry": {
        "coordinates": [
          -4.66667,
          38.46667
        ],
        "type": "Point"
      }
    },
    {
      "type": "Feature",
      "properties": {
        "name": "Torreblascopedro"
      },
      "geometry": {
        "coordinates": [
          -3.6378,
          37.9975
        ],
        "type": "Point"
      }
    },
    {
      "type": "Feature",
      "properties": {
        "name": "Torre Alhaquime"
      },
      "geometry": {
        "coordinates": [
          -5.23381,
          36.91588
        ],
        "type": "Point"
      }
    },
    {
      "type": "Feature",
      "properties": {
        "name": "Torralba de Oropesa"
      },
      "geometry": {
        "coordinates": [
          -5.15404,
          39.93384
        ],
        "type": "Point"
      }
    },
    {
      "type": "Feature",
      "properties": {
        "name": "Torralba del Pinar"
      },
      "geometry": {
        "coordinates": [
          -0.43333,
          39.98333
        ],
        "type": "Point"
      }
    },
    {
      "type": "Feature",
      "properties": {
        "name": "Torralba de Calatrava"
      },
      "geometry": {
        "coordinates": [
          -3.75105,
          39.01785
        ],
        "type": "Point"
      }
    },
    {
      "type": "Feature",
      "properties": {
        "name": "Tormos"
      },
      "geometry": {
        "coordinates": [
          -0.0716,
          38.80143
        ],
        "type": "Point"
      }
    },
    {
      "type": "Feature",
      "properties": {
        "name": "Toril"
      },
      "geometry": {
        "coordinates": [
          -5.7795,
          39.89749
        ],
        "type": "Point"
      }
    },
    {
      "type": "Feature",
      "properties": {
        "name": "Toras"
      },
      "geometry": {
        "coordinates": [
          -0.68333,
          39.91667
        ],
        "type": "Point"
      }
    },
    {
      "type": "Feature",
      "properties": {
        "name": "Tomelloso"
      },
      "geometry": {
        "coordinates": [
          -3.02156,
          39.15759
        ],
        "type": "Point"
      }
    },
    {
      "type": "Feature",
      "properties": {
        "name": "Tomares"
      },
      "geometry": {
        "coordinates": [
          -6.04589,
          37.37281
        ],
        "type": "Point"
      }
    },
    {
      "type": "Feature",
      "properties": {
        "name": "Tolox"
      },
      "geometry": {
        "coordinates": [
          -4.90511,
          36.68721
        ],
        "type": "Point"
      }
    },
    {
      "type": "Feature",
      "properties": {
        "name": "Tollos"
      },
      "geometry": {
        "coordinates": [
          -0.27466,
          38.75629
        ],
        "type": "Point"
      }
    },
    {
      "type": "Feature",
      "properties": {
        "name": "Toledo"
      },
      "geometry": {
        "coordinates": [
          -4.02263,
          39.8581
        ],
        "type": "Point"
      }
    },
    {
      "type": "Feature",
      "properties": {
        "name": "Tocina"
      },
      "geometry": {
        "coordinates": [
          -5.73403,
          37.60904
        ],
        "type": "Point"
      }
    },
    {
      "type": "Feature",
      "properties": {
        "name": "Tobarra"
      },
      "geometry": {
        "coordinates": [
          -1.69191,
          38.59213
        ],
        "type": "Point"
      }
    },
    {
      "type": "Feature",
      "properties": {
        "name": "Titaguas"
      },
      "geometry": {
        "coordinates": [
          -1.08333,
          39.86667
        ],
        "type": "Point"
      }
    },
    {
      "type": "Feature",
      "properties": {
        "name": "Tijola"
      },
      "geometry": {
        "coordinates": [
          -2.43326,
          37.34606
        ],
        "type": "Point"
      }
    },
    {
      "type": "Feature",
      "properties": {
        "name": "Tibi"
      },
      "geometry": {
        "coordinates": [
          -0.57776,
          38.53072
        ],
        "type": "Point"
      }
    },
    {
      "type": "Feature",
      "properties": {
        "name": "Teulada"
      },
      "geometry": {
        "coordinates": [
          0.10383,
          38.7294
        ],
        "type": "Point"
      }
    },
    {
      "type": "Feature",
      "properties": {
        "name": "Terrinches"
      },
      "geometry": {
        "coordinates": [
          -2.84215,
          38.61057
        ],
        "type": "Point"
      }
    },
    {
      "type": "Feature",
      "properties": {
        "name": "Terrateig"
      },
      "geometry": {
        "coordinates": [
          -0.31993,
          38.89453
        ],
        "type": "Point"
      }
    },
    {
      "type": "Feature",
      "properties": {
        "name": "Terque"
      },
      "geometry": {
        "coordinates": [
          -2.59679,
          36.98393
        ],
        "type": "Point"
      }
    },
    {
      "type": "Feature",
      "properties": {
        "name": "Tembleque"
      },
      "geometry": {
        "coordinates": [
          -3.50429,
          39.69541
        ],
        "type": "Point"
      }
    },
    {
      "type": "Feature",
      "properties": {
        "name": "Tebar"
      },
      "geometry": {
        "coordinates": [
          -2.16667,
          39.5
        ],
        "type": "Point"
      }
    },
    {
      "type": "Feature",
      "properties": {
        "name": "Teba"
      },
      "geometry": {
        "coordinates": [
          -4.91913,
          36.98358
        ],
        "type": "Point"
      }
    },
    {
      "type": "Feature",
      "properties": {
        "name": "Tarifa"
      },
      "geometry": {
        "coordinates": [
          -5.60695,
          36.01393
        ],
        "type": "Point"
      }
    },
    {
      "type": "Feature",
      "properties": {
        "name": "Tarazona de la Mancha"
      },
      "geometry": {
        "coordinates": [
          -1.91667,
          39.25
        ],
        "type": "Point"
      }
    },
    {
      "type": "Feature",
      "properties": {
        "name": "Tamurejo"
      },
      "geometry": {
        "coordinates": [
          -4.93333,
          38.98333
        ],
        "type": "Point"
      }
    },
    {
      "type": "Feature",
      "properties": {
        "name": "Taliga"
      },
      "geometry": {
        "coordinates": [
          -7.01713,
          38.52861
        ],
        "type": "Point"
      }
    },
    {
      "type": "Feature",
      "properties": {
        "name": "Tales"
      },
      "geometry": {
        "coordinates": [
          -0.30719,
          39.94844
        ],
        "type": "Point"
      }
    },
    {
      "type": "Feature",
      "properties": {
        "name": "Talayuelas"
      },
      "geometry": {
        "coordinates": [
          -1.28333,
          39.85
        ],
        "type": "Point"
      }
    },
    {
      "type": "Feature",
      "properties": {
        "name": "Talayuela"
      },
      "geometry": {
        "coordinates": [
          -5.60982,
          39.98701
        ],
        "type": "Point"
      }
    },
    {
      "type": "Feature",
      "properties": {
        "name": "Talavera La Real"
      },
      "geometry": {
        "coordinates": [
          -6.76856,
          38.87794
        ],
        "type": "Point"
      }
    },
    {
      "type": "Feature",
      "properties": {
        "name": "Talavera de la Reina"
      },
      "geometry": {
        "coordinates": [
          -4.83076,
          39.96348
        ],
        "type": "Point"
      }
    },
    {
      "type": "Feature",
      "properties": {
        "name": "Talavan"
      },
      "geometry": {
        "coordinates": [
          -6.28146,
          39.71715
        ],
        "type": "Point"
      }
    },
    {
      "type": "Feature",
      "properties": {
        "name": "Talarrubias"
      },
      "geometry": {
        "coordinates": [
          -5.23423,
          39.03697
        ],
        "type": "Point"
      }
    },
    {
      "type": "Feature",
      "properties": {
        "name": "Tahal"
      },
      "geometry": {
        "coordinates": [
          -2.2847,
          37.22797
        ],
        "type": "Point"
      }
    },
    {
      "type": "Feature",
      "properties": {
        "name": "Tavernes de la Valldigna"
      },
      "geometry": {
        "coordinates": [
          -0.26623,
          39.07195
        ],
        "type": "Point"
      }
    },
    {
      "type": "Feature",
      "properties": {
        "name": "Tavernes Blanques"
      },
      "geometry": {
        "coordinates": [
          -0.36667,
          39.5
        ],
        "type": "Point"
      }
    },
    {
      "type": "Feature",
      "properties": {
        "name": "Tabernas"
      },
      "geometry": {
        "coordinates": [
          -2.39084,
          37.04992
        ],
        "type": "Point"
      }
    },
    {
      "type": "Feature",
      "properties": {
        "name": "Sumacarcer"
      },
      "geometry": {
        "coordinates": [
          -0.63333,
          39.1
        ],
        "type": "Point"
      }
    },
    {
      "type": "Feature",
      "properties": {
        "name": "Sufli"
      },
      "geometry": {
        "coordinates": [
          -2.38817,
          37.33866
        ],
        "type": "Point"
      }
    },
    {
      "type": "Feature",
      "properties": {
        "name": "Sueca"
      },
      "geometry": {
        "coordinates": [
          -0.31114,
          39.2026
        ],
        "type": "Point"
      }
    },
    {
      "type": "Feature",
      "properties": {
        "name": "Sot de Ferrer"
      },
      "geometry": {
        "coordinates": [
          -0.4,
          39.8
        ],
        "type": "Point"
      }
    },
    {
      "type": "Feature",
      "properties": {
        "name": "Sot de Chera"
      },
      "geometry": {
        "coordinates": [
          -0.9,
          39.63333
        ],
        "type": "Point"
      }
    },
    {
      "type": "Feature",
      "properties": {
        "name": "Sorvilan"
      },
      "geometry": {
        "coordinates": [
          -3.26769,
          36.79505
        ],
        "type": "Point"
      }
    },
    {
      "type": "Feature",
      "properties": {
        "name": "Sorihuela del Guadalimar"
      },
      "geometry": {
        "coordinates": [
          -3.0536,
          38.24062
        ],
        "type": "Point"
      }
    },
    {
      "type": "Feature",
      "properties": {
        "name": "Sorbas"
      },
      "geometry": {
        "coordinates": [
          -2.12349,
          37.09761
        ],
        "type": "Point"
      }
    },
    {
      "type": "Feature",
      "properties": {
        "name": "Soportujar"
      },
      "geometry": {
        "coordinates": [
          -3.40542,
          36.92863
        ],
        "type": "Point"
      }
    },
    {
      "type": "Feature",
      "properties": {
        "name": "Son Servera"
      },
      "geometry": {
        "coordinates": [
          3.36008,
          39.62073
        ],
        "type": "Point"
      }
    },
    {
      "type": "Feature",
      "properties": {
        "name": "Sonseca"
      },
      "geometry": {
        "coordinates": [
          -3.97448,
          39.67747
        ],
        "type": "Point"
      }
    },
    {
      "type": "Feature",
      "properties": {
        "name": "Soneja"
      },
      "geometry": {
        "coordinates": [
          -0.41667,
          39.81667
        ],
        "type": "Point"
      }
    },
    {
      "type": "Feature",
      "properties": {
        "name": "Somontin"
      },
      "geometry": {
        "coordinates": [
          -2.38828,
          37.39176
        ],
        "type": "Point"
      }
    },
    {
      "type": "Feature",
      "properties": {
        "name": "Soller"
      },
      "geometry": {
        "coordinates": [
          2.71521,
          39.76623
        ],
        "type": "Point"
      }
    },
    {
      "type": "Feature",
      "properties": {
        "name": "Sollana"
      },
      "geometry": {
        "coordinates": [
          -0.36667,
          39.28333
        ],
        "type": "Point"
      }
    },
    {
      "type": "Feature",
      "properties": {
        "name": "Solana de los Barros"
      },
      "geometry": {
        "coordinates": [
          -6.53899,
          38.72527
        ],
        "type": "Point"
      }
    },
    {
      "type": "Feature",
      "properties": {
        "name": "Socuellamos"
      },
      "geometry": {
        "coordinates": [
          -2.79205,
          39.28581
        ],
        "type": "Point"
      }
    },
    {
      "type": "Feature",
      "properties": {
        "name": "Socovos"
      },
      "geometry": {
        "coordinates": [
          -1.98485,
          38.33232
        ],
        "type": "Point"
      }
    },
    {
      "type": "Feature",
      "properties": {
        "name": "Sisante"
      },
      "geometry": {
        "coordinates": [
          -2.20173,
          39.40849
        ],
        "type": "Point"
      }
    },
    {
      "type": "Feature",
      "properties": {
        "name": "Siruela"
      },
      "geometry": {
        "coordinates": [
          -5.04969,
          38.97718
        ],
        "type": "Point"
      }
    },
    {
      "type": "Feature",
      "properties": {
        "name": "Sineu"
      },
      "geometry": {
        "coordinates": [
          3.01034,
          39.64254
        ],
        "type": "Point"
      }
    },
    {
      "type": "Feature",
      "properties": {
        "name": "Sinarcas"
      },
      "geometry": {
        "coordinates": [
          -1.23333,
          39.73333
        ],
        "type": "Point"
      }
    },
    {
      "type": "Feature",
      "properties": {
        "name": "Simat de la Valldigna"
      },
      "geometry": {
        "coordinates": [
          -0.31667,
          39.03333
        ],
        "type": "Point"
      }
    },
    {
      "type": "Feature",
      "properties": {
        "name": "Silla"
      },
      "geometry": {
        "coordinates": [
          -0.41169,
          39.36257
        ],
        "type": "Point"
      }
    },
    {
      "type": "Feature",
      "properties": {
        "name": "Siles"
      },
      "geometry": {
        "coordinates": [
          -2.5819,
          38.38983
        ],
        "type": "Point"
      }
    },
    {
      "type": "Feature",
      "properties": {
        "name": "Siete Aguas"
      },
      "geometry": {
        "coordinates": [
          -0.91667,
          39.46667
        ],
        "type": "Point"
      }
    },
    {
      "type": "Feature",
      "properties": {
        "name": "Sierro"
      },
      "geometry": {
        "coordinates": [
          -2.39844,
          37.32237
        ],
        "type": "Point"
      }
    },
    {
      "type": "Feature",
      "properties": {
        "name": "Sierra de Yeguas"
      },
      "geometry": {
        "coordinates": [
          -4.86773,
          37.1242
        ],
        "type": "Point"
      }
    },
    {
      "type": "Feature",
      "properties": {
        "name": "Sierra de Fuentes"
      },
      "geometry": {
        "coordinates": [
          -6.27242,
          39.43997
        ],
        "type": "Point"
      }
    },
    {
      "type": "Feature",
      "properties": {
        "name": "Sevilleja de la Jara"
      },
      "geometry": {
        "coordinates": [
          -4.96387,
          39.57488
        ],
        "type": "Point"
      }
    },
    {
      "type": "Feature",
      "properties": {
        "name": "Sevilla"
      },
      "geometry": {
        "coordinates": [
          -5.97317,
          37.38283
        ],
        "type": "Point"
      }
    },
    {
      "type": "Feature",
      "properties": {
        "name": "Setenil de las Bodegas"
      },
      "geometry": {
        "coordinates": [
          -5.18177,
          36.86397
        ],
        "type": "Point"
      }
    },
    {
      "type": "Feature",
      "properties": {
        "name": "Ses Salines"
      },
      "geometry": {
        "coordinates": [
          3.05274,
          39.33831
        ],
        "type": "Point"
      }
    },
    {
      "type": "Feature",
      "properties": {
        "name": "Serrejon"
      },
      "geometry": {
        "coordinates": [
          -5.80263,
          39.81735
        ],
        "type": "Point"
      }
    },
    {
      "type": "Feature",
      "properties": {
        "name": "Serrato"
      },
      "geometry": {
        "coordinates": [
          -4.98147,
          36.88541
        ],
        "type": "Point"
      }
    },
    {
      "type": "Feature",
      "properties": {
        "name": "Serradilla"
      },
      "geometry": {
        "coordinates": [
          -6.14034,
          39.8292
        ],
        "type": "Point"
      }
    },
    {
      "type": "Feature",
      "properties": {
        "name": "Serra"
      },
      "geometry": {
        "coordinates": [
          -0.43333,
          39.68333
        ],
        "type": "Point"
      }
    },
    {
      "type": "Feature",
      "properties": {
        "name": "Seron"
      },
      "geometry": {
        "coordinates": [
          -2.50913,
          37.34485
        ],
        "type": "Point"
      }
    },
    {
      "type": "Feature",
      "properties": {
        "name": "Senija"
      },
      "geometry": {
        "coordinates": [
          0.04176,
          38.72804
        ],
        "type": "Point"
      }
    },
    {
      "type": "Feature",
      "properties": {
        "name": "Senyera"
      },
      "geometry": {
        "coordinates": [
          -0.5,
          39.06667
        ],
        "type": "Point"
      }
    },
    {
      "type": "Feature",
      "properties": {
        "name": "Sempere"
      },
      "geometry": {
        "coordinates": [
          -0.4814,
          38.92014
        ],
        "type": "Point"
      }
    },
    {
      "type": "Feature",
      "properties": {
        "name": "Selva"
      },
      "geometry": {
        "coordinates": [
          2.90069,
          39.75504
        ],
        "type": "Point"
      }
    },
    {
      "type": "Feature",
      "properties": {
        "name": "Sellent"
      },
      "geometry": {
        "coordinates": [
          -0.58784,
          39.03221
        ],
        "type": "Point"
      }
    },
    {
      "type": "Feature",
      "properties": {
        "name": "Sella"
      },
      "geometry": {
        "coordinates": [
          -0.27305,
          38.60926
        ],
        "type": "Point"
      }
    },
    {
      "type": "Feature",
      "properties": {
        "name": "Segura de Leon"
      },
      "geometry": {
        "coordinates": [
          -6.51667,
          38.11667
        ],
        "type": "Point"
      }
    },
    {
      "type": "Feature",
      "properties": {
        "name": "Segura de la Sierra"
      },
      "geometry": {
        "coordinates": [
          -2.65229,
          38.29777
        ],
        "type": "Point"
      }
    },
    {
      "type": "Feature",
      "properties": {
        "name": "Segorbe"
      },
      "geometry": {
        "coordinates": [
          -0.48333,
          39.85
        ],
        "type": "Point"
      }
    },
    {
      "type": "Feature",
      "properties": {
        "name": "Segart"
      },
      "geometry": {
        "coordinates": [
          -0.36667,
          39.68333
        ],
        "type": "Point"
      }
    },
    {
      "type": "Feature",
      "properties": {
        "name": "Sedavi"
      },
      "geometry": {
        "coordinates": [
          -0.38333,
          39.43333
        ],
        "type": "Point"
      }
    },
    {
      "type": "Feature",
      "properties": {
        "name": "Sayalonga"
      },
      "geometry": {
        "coordinates": [
          -4.01325,
          36.79819
        ],
        "type": "Point"
      }
    },
    {
      "type": "Feature",
      "properties": {
        "name": "Sax"
      },
      "geometry": {
        "coordinates": [
          -0.81779,
          38.53729
        ],
        "type": "Point"
      }
    },
    {
      "type": "Feature",
      "properties": {
        "name": "Saucedilla"
      },
      "geometry": {
        "coordinates": [
          -5.67781,
          39.85284
        ],
        "type": "Point"
      }
    },
    {
      "type": "Feature",
      "properties": {
        "name": "San Vicent del Raspeig"
      },
      "geometry": {
        "coordinates": [
          -0.5255,
          38.3964
        ],
        "type": "Point"
      }
    },
    {
      "type": "Feature",
      "properties": {
        "name": "San Vicente de Alcantara"
      },
      "geometry": {
        "coordinates": [
          -7.13766,
          39.36132
        ],
        "type": "Point"
      }
    },
    {
      "type": "Feature",
      "properties": {
        "name": "Santo Tome"
      },
      "geometry": {
        "coordinates": [
          -3.10092,
          38.02861
        ],
        "type": "Point"
      }
    },
    {
      "type": "Feature",
      "properties": {
        "name": "Santomera"
      },
      "geometry": {
        "coordinates": [
          -1.04877,
          38.06147
        ],
        "type": "Point"
      }
    },
    {
      "type": "Feature",
      "properties": {
        "name": "Santisteban del Puerto"
      },
      "geometry": {
        "coordinates": [
          -3.20762,
          38.24829
        ],
        "type": "Point"
      }
    },
    {
      "type": "Feature",
      "properties": {
        "name": "Santiponce"
      },
      "geometry": {
        "coordinates": [
          -6.04106,
          37.43553
        ],
        "type": "Point"
      }
    },
    {
      "type": "Feature",
      "properties": {
        "name": "Santiago del Campo"
      },
      "geometry": {
        "coordinates": [
          -6.36362,
          39.6284
        ],
        "type": "Point"
      }
    },
    {
      "type": "Feature",
      "properties": {
        "name": "Santiago de la Ribera"
      },
      "geometry": {
        "coordinates": [
          -0.80544,
          37.79681
        ],
        "type": "Point"
      }
    },
    {
      "type": "Feature",
      "properties": {
        "name": "Santiago de Calatrava"
      },
      "geometry": {
        "coordinates": [
          -4.17093,
          37.75382
        ],
        "type": "Point"
      }
    },
    {
      "type": "Feature",
      "properties": {
        "name": "Es Migjorn Gran"
      },
      "geometry": {
        "coordinates": [
          4.05121,
          39.94657
        ],
        "type": "Point"
      }
    },
    {
      "type": "Feature",
      "properties": {
        "name": "Santa Pola"
      },
      "geometry": {
        "coordinates": [
          -0.5658,
          38.19165
        ],
        "type": "Point"
      }
    },
    {
      "type": "Feature",
      "properties": {
        "name": "Santa Olalla del Cala"
      },
      "geometry": {
        "coordinates": [
          -6.21667,
          37.9
        ],
        "type": "Point"
      }
    },
    {
      "type": "Feature",
      "properties": {
        "name": "Santanyi"
      },
      "geometry": {
        "coordinates": [
          3.12907,
          39.35461
        ],
        "type": "Point"
      }
    },
    {
      "type": "Feature",
      "properties": {
        "name": "Santa Marta de Magasca"
      },
      "geometry": {
        "coordinates": [
          -6.09881,
          39.5115
        ],
        "type": "Point"
      }
    },
    {
      "type": "Feature",
      "properties": {
        "name": "Santa Marta"
      },
      "geometry": {
        "coordinates": [
          -6.62799,
          38.61421
        ],
        "type": "Point"
      }
    },
    {
      "type": "Feature",
      "properties": {
        "name": "Santa Maria del Campo Rus"
      },
      "geometry": {
        "coordinates": [
          -2.42306,
          39.55942
        ],
        "type": "Point"
      }
    },
    {
      "type": "Feature",
      "properties": {
        "name": "Santa Maria del Cami"
      },
      "geometry": {
        "coordinates": [
          2.77317,
          39.65111
        ],
        "type": "Point"
      }
    },
    {
      "type": "Feature",
      "properties": {
        "name": "Santa Margalida"
      },
      "geometry": {
        "coordinates": [
          3.10215,
          39.70143
        ],
        "type": "Point"
      }
    },
    {
      "type": "Feature",
      "properties": {
        "name": "Santa Fe de Mondujar"
      },
      "geometry": {
        "coordinates": [
          -2.53126,
          36.97479
        ],
        "type": "Point"
      }
    },
    {
      "type": "Feature",
      "properties": {
        "name": "Santafe"
      },
      "geometry": {
        "coordinates": [
          -3.71887,
          37.18856
        ],
        "type": "Point"
      }
    },
    {
      "type": "Feature",
      "properties": {
        "name": "Santa Eularia des Riu"
      },
      "geometry": {
        "coordinates": [
          1.53409,
          38.98457
        ],
        "type": "Point"
      }
    },
    {
      "type": "Feature",
      "properties": {
        "name": "Santa Eugenia"
      },
      "geometry": {
        "coordinates": [
          2.83864,
          39.62361
        ],
        "type": "Point"
      }
    },
    {
      "type": "Feature",
      "properties": {
        "name": "Santa Eufemia"
      },
      "geometry": {
        "coordinates": [
          -4.9,
          38.6
        ],
        "type": "Point"
      }
    },
    {
      "type": "Feature",
      "properties": {
        "name": "Santaella"
      },
      "geometry": {
        "coordinates": [
          -4.84362,
          37.56294
        ],
        "type": "Point"
      }
    },
    {
      "type": "Feature",
      "properties": {
        "name": "Santa Elena"
      },
      "geometry": {
        "coordinates": [
          -3.53953,
          38.34162
        ],
        "type": "Point"
      }
    },
    {
      "type": "Feature",
      "properties": {
        "name": "Santa Cruz de Mudela"
      },
      "geometry": {
        "coordinates": [
          -3.4665,
          38.64241
        ],
        "type": "Point"
      }
    },
    {
      "type": "Feature",
      "properties": {
        "name": "Santa Cruz de Moya"
      },
      "geometry": {
        "coordinates": [
          -1.26667,
          39.95
        ],
        "type": "Point"
      }
    },
    {
      "type": "Feature",
      "properties": {
        "name": "Santa Cruz de los Canamos"
      },
      "geometry": {
        "coordinates": [
          -2.86618,
          38.63759
        ],
        "type": "Point"
      }
    },
    {
      "type": "Feature",
      "properties": {
        "name": "Santa Cruz de la Zarza"
      },
      "geometry": {
        "coordinates": [
          -3.18787,
          39.98104
        ],
        "type": "Point"
      }
    },
    {
      "type": "Feature",
      "properties": {
        "name": "Santa Cruz de la Sierra"
      },
      "geometry": {
        "coordinates": [
          -5.84561,
          39.33635
        ],
        "type": "Point"
      }
    },
    {
      "type": "Feature",
      "properties": {
        "name": "Santa Barbara de Casa"
      },
      "geometry": {
        "coordinates": [
          -7.18735,
          37.79665
        ],
        "type": "Point"
      }
    },
    {
      "type": "Feature",
      "properties": {
        "name": "Santa Ana la Real"
      },
      "geometry": {
        "coordinates": [
          -6.72385,
          37.86245
        ],
        "type": "Point"
      }
    },
    {
      "type": "Feature",
      "properties": {
        "name": "Santa Ana de Pusa"
      },
      "geometry": {
        "coordinates": [
          -4.70904,
          39.76238
        ],
        "type": "Point"
      }
    },
    {
      "type": "Feature",
      "properties": {
        "name": "Santa Ana"
      },
      "geometry": {
        "coordinates": [
          -5.99027,
          39.30823
        ],
        "type": "Point"
      }
    },
    {
      "type": "Feature",
      "properties": {
        "name": "Santa Amalia"
      },
      "geometry": {
        "coordinates": [
          -6.01158,
          39.01118
        ],
        "type": "Point"
      }
    },
    {
      "type": "Feature",
      "properties": {
        "name": "San Silvestre de Guzman"
      },
      "geometry": {
        "coordinates": [
          -7.34908,
          37.3877
        ],
        "type": "Point"
      }
    },
    {
      "type": "Feature",
      "properties": {
        "name": "San Sebastian de los Ballesteros"
      },
      "geometry": {
        "coordinates": [
          -4.82409,
          37.65376
        ],
        "type": "Point"
      }
    },
    {
      "type": "Feature",
      "properties": {
        "name": "San Roque"
      },
      "geometry": {
        "coordinates": [
          -5.38415,
          36.21067
        ],
        "type": "Point"
      }
    },
    {
      "type": "Feature",
      "properties": {
        "name": "San Pedro de Merida"
      },
      "geometry": {
        "coordinates": [
          -6.18645,
          38.95007
        ],
        "type": "Point"
      }
    },
    {
      "type": "Feature",
      "properties": {
        "name": "San Pedro del Pinatar"
      },
      "geometry": {
        "coordinates": [
          -0.79102,
          37.83568
        ],
        "type": "Point"
      }
    },
    {
      "type": "Feature",
      "properties": {
        "name": "San Pedro de Alcantara"
      },
      "geometry": {
        "coordinates": [
          -4.99123,
          36.48839
        ],
        "type": "Point"
      }
    },
    {
      "type": "Feature",
      "properties": {
        "name": "San Pedro"
      },
      "geometry": {
        "coordinates": [
          -2.18276,
          38.82493
        ],
        "type": "Point"
      }
    },
    {
      "type": "Feature",
      "properties": {
        "name": "San Nicolas del Puerto"
      },
      "geometry": {
        "coordinates": [
          -5.65,
          38.0
        ],
        "type": "Point"
      }
    },
    {
      "type": "Feature",
      "properties": {
        "name": "San Miguel de Salinas"
      },
      "geometry": {
        "coordinates": [
          -0.78904,
          37.97972
        ],
        "type": "Point"
      }
    },
    {
      "type": "Feature",
      "properties": {
        "name": "San Martin de Pusa"
      },
      "geometry": {
        "coordinates": [
          -4.63252,
          39.78404
        ],
        "type": "Point"
      }
    },
    {
      "type": "Feature",
      "properties": {
        "name": "San Martin de Montalban"
      },
      "geometry": {
        "coordinates": [
          -4.38796,
          39.70186
        ],
        "type": "Point"
      }
    },
    {
      "type": "Feature",
      "properties": {
        "name": "San Martin de Boniches"
      },
      "geometry": {
        "coordinates": [
          -1.56667,
          39.9
        ],
        "type": "Point"
      }
    },
    {
      "type": "Feature",
      "properties": {
        "name": "Sant Lluis"
      },
      "geometry": {
        "coordinates": [
          4.25819,
          39.84939
        ],
        "type": "Point"
      }
    },
    {
      "type": "Feature",
      "properties": {
        "name": "Sanlucar la Mayor"
      },
      "geometry": {
        "coordinates": [
          -6.20346,
          37.38758
        ],
        "type": "Point"
      }
    },
    {
      "type": "Feature",
      "properties": {
        "name": "Sanlucar de Barrameda"
      },
      "geometry": {
        "coordinates": [
          -6.3515,
          36.77808
        ],
        "type": "Point"
      }
    },
    {
      "type": "Feature",
      "properties": {
        "name": "San Lorenzo de la Parrilla"
      },
      "geometry": {
        "coordinates": [
          -2.36079,
          39.85129
        ],
        "type": "Point"
      }
    },
    {
      "type": "Feature",
      "properties": {
        "name": "Sant Llorenc des Cardassar"
      },
      "geometry": {
        "coordinates": [
          3.2838,
          39.61009
        ],
        "type": "Point"
      }
    },
    {
      "type": "Feature",
      "properties": {
        "name": "San Lorenzo de Calatrava"
      },
      "geometry": {
        "coordinates": [
          -3.82605,
          38.47681
        ],
        "type": "Point"
      }
    },
    {
      "type": "Feature",
      "properties": {
        "name": "San Juan del Puerto"
      },
      "geometry": {
        "coordinates": [
          -6.84139,
          37.31667
        ],
        "type": "Point"
      }
    },
    {
      "type": "Feature",
      "properties": {
        "name": "San Juan de Enova"
      },
      "geometry": {
        "coordinates": [
          -0.48705,
          39.07104
        ],
        "type": "Point"
      }
    },
    {
      "type": "Feature",
      "properties": {
        "name": "San Juan de Aznalfarache"
      },
      "geometry": {
        "coordinates": [
          -6.03731,
          37.35813
        ],
        "type": "Point"
      }
    },
    {
      "type": "Feature",
      "properties": {
        "name": "San Juan de Alicante"
      },
      "geometry": {
        "coordinates": [
          -0.43623,
          38.40148
        ],
        "type": "Point"
      }
    },
    {
      "type": "Feature",
      "properties": {
        "name": "Sant Joan de Labritja"
      },
      "geometry": {
        "coordinates": [
          1.51397,
          39.07891
        ],
        "type": "Point"
      }
    },
    {
      "type": "Feature",
      "properties": {
        "name": "Sant Joan"
      },
      "geometry": {
        "coordinates": [
          3.0392,
          39.59621
        ],
        "type": "Point"
      }
    },
    {
      "type": "Feature",
      "properties": {
        "name": "Sant Josep de sa Talaia"
      },
      "geometry": {
        "coordinates": [
          1.29437,
          38.92239
        ],
        "type": "Point"
      }
    },
    {
      "type": "Feature",
      "properties": {
        "name": "San Jose"
      },
      "geometry": {
        "coordinates": [
          -2.10912,
          36.76048
        ],
        "type": "Point"
      }
    },
    {
      "type": "Feature",
      "properties": {
        "name": "San Javier"
      },
      "geometry": {
        "coordinates": [
          -0.83736,
          37.80626
        ],
        "type": "Point"
      }
    },
    {
      "type": "Feature",
      "properties": {
        "name": "Sant Francesc de Formentera"
      },
      "geometry": {
        "coordinates": [
          1.42893,
          38.70566
        ],
        "type": "Point"
      }
    },
    {
      "type": "Feature",
      "properties": {
        "name": "San Fernando"
      },
      "geometry": {
        "coordinates": [
          -6.19817,
          36.4759
        ],
        "type": "Point"
      }
    },
    {
      "type": "Feature",
      "properties": {
        "name": "Sanet y Negrals"
      },
      "geometry": {
        "coordinates": [
          -0.03406,
          38.81967
        ],
        "type": "Point"
      }
    },
    {
      "type": "Feature",
      "properties": {
        "name": "San Clemente"
      },
      "geometry": {
        "coordinates": [
          -2.42819,
          39.4041
        ],
        "type": "Point"
      }
    },
    {
      "type": "Feature",
      "properties": {
        "name": "Sencelles"
      },
      "geometry": {
        "coordinates": [
          2.89769,
          39.64598
        ],
        "type": "Point"
      }
    },
    {
      "type": "Feature",
      "properties": {
        "name": "San Carlos del Valle"
      },
      "geometry": {
        "coordinates": [
          -3.24148,
          38.84399
        ],
        "type": "Point"
      }
    },
    {
      "type": "Feature",
      "properties": {
        "name": "San Bartolome de la Torre"
      },
      "geometry": {
        "coordinates": [
          -7.10597,
          37.44515
        ],
        "type": "Point"
      }
    },
    {
      "type": "Feature",
      "properties": {
        "name": "San Bartolome de las Abiertas"
      },
      "geometry": {
        "coordinates": [
          -4.71901,
          39.82972
        ],
        "type": "Point"
      }
    },
    {
      "type": "Feature",
      "properties": {
        "name": "Sant Antoni de Portmany"
      },
      "geometry": {
        "coordinates": [
          1.30362,
          38.98068
        ],
        "type": "Point"
      }
    },
    {
      "type": "Feature",
      "properties": {
        "name": "Salvatierra de Santiago"
      },
      "geometry": {
        "coordinates": [
          -6.03206,
          39.30363
        ],
        "type": "Point"
      }
    },
    {
      "type": "Feature",
      "properties": {
        "name": "Salvatierra de los Barros"
      },
      "geometry": {
        "coordinates": [
          -6.68423,
          38.49091
        ],
        "type": "Point"
      }
    },
    {
      "type": "Feature",
      "properties": {
        "name": "Salvaleon"
      },
      "geometry": {
        "coordinates": [
          -6.78627,
          38.5102
        ],
        "type": "Point"
      }
    },
    {
      "type": "Feature",
      "properties": {
        "name": "Salteras"
      },
      "geometry": {
        "coordinates": [
          -6.11049,
          37.4206
        ],
        "type": "Point"
      }
    },
    {
      "type": "Feature",
      "properties": {
        "name": "Salorino"
      },
      "geometry": {
        "coordinates": [
          -7.00758,
          39.48018
        ],
        "type": "Point"
      }
    },
    {
      "type": "Feature",
      "properties": {
        "name": "Salobrena"
      },
      "geometry": {
        "coordinates": [
          -3.58717,
          36.74277
        ],
        "type": "Point"
      }
    },
    {
      "type": "Feature",
      "properties": {
        "name": "Salobre"
      },
      "geometry": {
        "coordinates": [
          -2.55038,
          38.59297
        ],
        "type": "Point"
      }
    },
    {
      "type": "Feature",
      "properties": {
        "name": "Salinas"
      },
      "geometry": {
        "coordinates": [
          -0.91202,
          38.52025
        ],
        "type": "Point"
      }
    },
    {
      "type": "Feature",
      "properties": {
        "name": "Salares"
      },
      "geometry": {
        "coordinates": [
          -4.02434,
          36.85463
        ],
        "type": "Point"
      }
    },
    {
      "type": "Feature",
      "properties": {
        "name": "Salar"
      },
      "geometry": {
        "coordinates": [
          -4.06576,
          37.15036
        ],
        "type": "Point"
      }
    },
    {
      "type": "Feature",
      "properties": {
        "name": "Sagunto"
      },
      "geometry": {
        "coordinates": [
          -0.26667,
          39.68333
        ],
        "type": "Point"
      }
    },
    {
      "type": "Feature",
      "properties": {
        "name": "Sagra"
      },
      "geometry": {
        "coordinates": [
          -0.06559,
          38.81102
        ],
        "type": "Point"
      }
    },
    {
      "type": "Feature",
      "properties": {
        "name": "Saelices"
      },
      "geometry": {
        "coordinates": [
          -2.80502,
          39.92061
        ],
        "type": "Point"
      }
    },
    {
      "type": "Feature",
      "properties": {
        "name": "Saceruela"
      },
      "geometry": {
        "coordinates": [
          -4.60768,
          38.94382
        ],
        "type": "Point"
      }
    },
    {
      "type": "Feature",
      "properties": {
        "name": "Sacanet"
      },
      "geometry": {
        "coordinates": [
          -0.71667,
          39.86667
        ],
        "type": "Point"
      }
    },
    {
      "type": "Feature",
      "properties": {
        "name": "Sabiote"
      },
      "geometry": {
        "coordinates": [
          -3.31448,
          38.06916
        ],
        "type": "Point"
      }
    },
    {
      "type": "Feature",
      "properties": {
        "name": "Rute"
      },
      "geometry": {
        "coordinates": [
          -4.36827,
          37.3269
        ],
        "type": "Point"
      }
    },
    {
      "type": "Feature",
      "properties": {
        "name": "Rus"
      },
      "geometry": {
        "coordinates": [
          -3.46254,
          38.04759
        ],
        "type": "Point"
      }
    },
    {
      "type": "Feature",
      "properties": {
        "name": "Ruidera"
      },
      "geometry": {
        "coordinates": [
          -2.88321,
          38.97775
        ],
        "type": "Point"
      }
    },
    {
      "type": "Feature",
      "properties": {
        "name": "Rugat"
      },
      "geometry": {
        "coordinates": [
          -0.36115,
          38.87933
        ],
        "type": "Point"
      }
    },
    {
      "type": "Feature",
      "properties": {
        "name": "Rubite"
      },
      "geometry": {
        "coordinates": [
          -3.34816,
          36.80947
        ],
        "type": "Point"
      }
    },
    {
      "type": "Feature",
      "properties": {
        "name": "Ruanes"
      },
      "geometry": {
        "coordinates": [
          -6.01347,
          39.32814
        ],
        "type": "Point"
      }
    },
    {
      "type": "Feature",
      "properties": {
        "name": "Rozalen del Monte"
      },
      "geometry": {
        "coordinates": [
          -2.80525,
          39.99083
        ],
        "type": "Point"
      }
    },
    {
      "type": "Feature",
      "properties": {
        "name": "Rotova"
      },
      "geometry": {
        "coordinates": [
          -0.25765,
          38.93205
        ],
        "type": "Point"
      }
    },
    {
      "type": "Feature",
      "properties": {
        "name": "Rotgla y Corbera"
      },
      "geometry": {
        "coordinates": [
          -0.56482,
          39.00465
        ],
        "type": "Point"
      }
    },
    {
      "type": "Feature",
      "properties": {
        "name": "Rota"
      },
      "geometry": {
        "coordinates": [
          -6.3622,
          36.62545
        ],
        "type": "Point"
      }
    },
    {
      "type": "Feature",
      "properties": {
        "name": "Rosalejo"
      },
      "geometry": {
        "coordinates": [
          -4.90821,
          39.4366
        ],
        "type": "Point"
      }
    },
    {
      "type": "Feature",
      "properties": {
        "name": "Rosal de la Frontera"
      },
      "geometry": {
        "coordinates": [
          -7.21889,
          37.96754
        ],
        "type": "Point"
      }
    },
    {
      "type": "Feature",
      "properties": {
        "name": "Roquetas de Mar"
      },
      "geometry": {
        "coordinates": [
          -2.61475,
          36.76419
        ],
        "type": "Point"
      }
    },
    {
      "type": "Feature",
      "properties": {
        "name": "Ronda"
      },
      "geometry": {
        "coordinates": [
          -5.16709,
          36.74231
        ],
        "type": "Point"
      }
    },
    {
      "type": "Feature",
      "properties": {
        "name": "Romangordo"
      },
      "geometry": {
        "coordinates": [
          -5.70081,
          39.74199
        ],
        "type": "Point"
      }
    },
    {
      "type": "Feature",
      "properties": {
        "name": "Rojales"
      },
      "geometry": {
        "coordinates": [
          -0.72544,
          38.08799
        ],
        "type": "Point"
      }
    },
    {
      "type": "Feature",
      "properties": {
        "name": "Rocafort"
      },
      "geometry": {
        "coordinates": [
          -0.4,
          39.53333
        ],
        "type": "Point"
      }
    },
    {
      "type": "Feature",
      "properties": {
        "name": "Robledollano"
      },
      "geometry": {
        "coordinates": [
          -5.50855,
          39.60962
        ],
        "type": "Point"
      }
    },
    {
      "type": "Feature",
      "properties": {
        "name": "Robledo"
      },