{
  "type": "FeatureCollection",
  "features": [
    {
      "type": "Feature",
      "properties": {
        "name": "Beloslav"
      },
      "geometry": {
        "coordinates": [
          27.7,
          43.18333
        ],
        "type": "Point"
      }
    },
    {
      "type": "Feature",
      "properties": {
        "name": "Zlatograd"
      },
      "geometry": {
        "coordinates": [
          25.09605,
          41.3795
        ],
        "type": "Point"
      }
    },
    {
      "type": "Feature",
      "properties": {
        "name": "Zlatitsa"
      },
      "geometry": {
        "coordinates": [
          24.13333,
          42.71667
        ],
        "type": "Point"
      }
    },
    {
      "type": "Feature",
      "properties": {
        "name": "Zlataritsa"
      },
      "geometry": {
        "coordinates": [
          25.9,
          43.05
        ],
        "type": "Point"
      }
    },
    {
      "type": "Feature",
      "properties": {
        "name": "Zemen"
      },
      "geometry": {
        "coordinates": [
          22.74917,
          42.47889
        ],
        "type": "Point"
      }
    },
    {
      "type": "Feature",
      "properties": {
        "name": "Zelenikovo"
      },
      "geometry": {
        "coordinates": [
          25.08333,
          42.4
        ],
        "type": "Point"
      }
    },
    {
      "type": "Feature",
      "properties": {
        "name": "Zavet"
      },
      "geometry": {
        "coordinates": [
          26.66667,
          43.76667
        ],
        "type": "Point"
      }
    },
    {
      "type": "Feature",
      "properties": {
        "name": "Yambol"
      },
      "geometry": {
        "coordinates": [
          26.5,
          42.48333
        ],
        "type": "Point"
      }
    },
    {
      "type": "Feature",
      "properties": {
        "name": "Yakoruda"
      },
      "geometry": {
        "coordinates": [
          23.68417,
          42.02528
        ],
        "type": "Point"
      }
    },
    {
      "type": "Feature",
      "properties": {
        "name": "Yakimovo"
      },
      "geometry": {
        "coordinates": [
          23.36778,
          43.64306
        ],
        "type": "Point"
      }
    },
    {
      "type": "Feature",
      "properties": {
        "name": "Yablanitsa"
      },
      "geometry": {
        "coordinates": [
          24.11278,
          43.03139
        ],
        "type": "Point"
      }
    },
    {
      "type": "Feature",
      "properties": {
        "name": "Varshets"
      },
      "geometry": {
        "coordinates": [
          23.28611,
          43.19528
        ],
        "type": "Point"
      }
    },
    {
      "type": "Feature",
      "properties": {
        "name": "Varbitsa"
      },
      "geometry": {
        "coordinates": [
          26.63333,
          43.0
        ],
        "type": "Point"
      }
    },
    {
      "type": "Feature",
      "properties": {
        "name": "Valchidol"
      },
      "geometry": {
        "coordinates": [
          27.55,
          43.4
        ],
        "type": "Point"
      }
    },
    {
      "type": "Feature",
      "properties": {
        "name": "Valchedram"
      },
      "geometry": {
        "coordinates": [
          23.44472,
          43.69639
        ],
        "type": "Point"
      }
    },
    {
      "type": "Feature",
      "properties": {
        "name": "Vratsa"
      },
      "geometry": {
        "coordinates": [
          23.5625,
          43.21
        ],
        "type": "Point"
      }
    },
    {
      "type": "Feature",
      "properties": {
        "name": "Sveti Vlas"
      },
      "geometry": {
        "coordinates": [
          27.75867,
          42.7136
        ],
        "type": "Point"
      }
    },
    {
      "type": "Feature",
      "properties": {
        "name": "Vidin"
      },
      "geometry": {
        "coordinates": [
          22.8725,
          43.99
        ],
        "type": "Point"
      }
    },
    {
      "type": "Feature",
      "properties": {
        "name": "Vetrino"
      },
      "geometry": {
        "coordinates": [
          27.43333,
          43.31667
        ],
        "type": "Point"
      }
    },
    {
      "type": "Feature",
      "properties": {
        "name": "Vetovo"
      },
      "geometry": {
        "coordinates": [
          26.26667,
          43.7
        ],
        "type": "Point"
      }
    },
    {
      "type": "Feature",
      "properties": {
        "name": "Venets"
      },
      "geometry": {
        "coordinates": [
          26.93333,
          43.55
        ],
        "type": "Point"
      }
    },
    {
      "type": "Feature",
      "properties": {
        "name": "Velingrad"
      },
      "geometry": {
        "coordinates": [
          23.99155,
          42.02754
        ],
        "type": "Point"
      }
    },
    {
      "type": "Feature",
      "properties": {
        "name": "Veliko Turnovo"
      },
      "geometry": {
        "coordinates": [
          25.62904,
          43.08124
        ],
        "type": "Point"
      }
    },
    {
      "type": "Feature",
      "properties": {
        "name": "Varna"
      },
      "geometry": {
        "coordinates": [
          27.91667,
          43.21667
        ],
        "type": "Point"
      }
    },
    {
      "type": "Feature",
      "properties": {
        "name": "Ugarchin"
      },
      "geometry": {
        "coordinates": [
          24.41667,
          43.1
        ],
        "type": "Point"
      }
    },
    {
      "type": "Feature",
      "properties": {
        "name": "Tvarditsa"
      },
      "geometry": {
        "coordinates": [
          25.9,
          42.7
        ],
        "type": "Point"
      }
    },
    {
      "type": "Feature",
      "properties": {
        "name": "Tutrakan"
      },
      "geometry": {
        "coordinates": [
          26.61667,
          44.05
        ],
        "type": "Point"
      }
    },
    {
      "type": "Feature",
      "properties": {
        "name": "Targovishte"
      },
      "geometry": {
        "coordinates": [
          26.57215,
          43.2512
        ],
        "type": "Point"
      }
    },
    {
      "type": "Feature",
      "properties": {
        "name": "Tsenovo"
      },
      "geometry": {
        "coordinates": [
          25.65764,
          43.53588
        ],
        "type": "Point"
      }
    },
    {
      "type": "Feature",
      "properties": {
        "name": "Tryavna"
      },
      "geometry": {
        "coordinates": [
          25.5,
          42.86667
        ],
        "type": "Point"
      }
    },
    {
      "type": "Feature",
      "properties": {
        "name": "Tran"
      },
      "geometry": {
        "coordinates": [
          22.65167,
          42.83528
        ],
        "type": "Point"
      }
    },
    {
      "type": "Feature",
      "properties": {
        "name": "Troyan"
      },
      "geometry": {
        "coordinates": [
          24.71589,
          42.89427
        ],
        "type": "Point"
      }
    },
    {
      "type": "Feature",
      "properties": {
        "name": "Topolovo"
      },
      "geometry": {
        "coordinates": [
          25.0,
          41.9
        ],
        "type": "Point"
      }
    },
    {
      "type": "Feature",
      "properties": {
        "name": "Topolovgrad"
      },
      "geometry": {
        "coordinates": [
          26.33333,
          42.08333
        ],
        "type": "Point"
      }
    },
    {
      "type": "Feature",
      "properties": {
        "name": "Dobrich"
      },
      "geometry": {
        "coordinates": [
          27.83333,
          43.56667
        ],
        "type": "Point"
      }
    },
    {
      "type": "Feature",
      "properties": {
        "name": "Tochilari"
      },
      "geometry": {
        "coordinates": [
          26.46667,
          43.85
        ],
        "type": "Point"
      }
    },
    {
      "type": "Feature",
      "properties": {
        "name": "Teteven"
      },
      "geometry": {
        "coordinates": [
          24.26667,
          42.91667
        ],
        "type": "Point"
      }
    },
    {
      "type": "Feature",
      "properties": {
        "name": "Tervel"
      },
      "geometry": {
        "coordinates": [
          27.4,
          43.75
        ],
        "type": "Point"
      }
    },
    {
      "type": "Feature",
      "properties": {
        "name": "Batanovtsi"
      },
      "geometry": {
        "coordinates": [
          22.95056,
          42.59972
        ],
        "type": "Point"
      }
    },
    {
      "type": "Feature",
      "properties": {
        "name": "Svoge"
      },
      "geometry": {
        "coordinates": [
          23.35,
          42.96667
        ],
        "type": "Point"
      }
    },
    {
      "type": "Feature",
      "properties": {
        "name": "Svishtov"
      },
      "geometry": {
        "coordinates": [
          25.35044,
          43.61959
        ],
        "type": "Point"
      }
    },
    {
      "type": "Feature",
      "properties": {
        "name": "Svilengrad"
      },
      "geometry": {
        "coordinates": [
          26.2,
          41.76667
        ],
        "type": "Point"
      }
    },
    {
      "type": "Feature",
      "properties": {
        "name": "Suvorovo"
      },
      "geometry": {
        "coordinates": [
          27.6,
          43.33333
        ],
        "type": "Point"
      }
    },
    {
      "type": "Feature",
      "properties": {
        "name": "Sarnitsa"
      },
      "geometry": {
        "coordinates": [
          24.02435,
          41.73835
        ],
        "type": "Point"
      }
    },
    {
      "type": "Feature",
      "properties": {
        "name": "Sungurlare"
      },
      "geometry": {
        "coordinates": [
          26.78333,
          42.76667
        ],
        "type": "Point"
      }
    },
    {
      "type": "Feature",
      "properties": {
        "name": "Suhindol"
      },
      "geometry": {
        "coordinates": [
          25.18111,
          43.19167
        ],
        "type": "Point"
      }
    },
    {
      "type": "Feature",
      "properties": {
        "name": "Saedinenie"
      },
      "geometry": {
        "coordinates": [
          24.55,
          42.26667
        ],
        "type": "Point"
      }
    },
    {
      "type": "Feature",
      "properties": {
        "name": "Strumyani"
      },
      "geometry": {
        "coordinates": [
          23.2,
          41.63333
        ],
        "type": "Point"
      }
    },
    {
      "type": "Feature",
      "properties": {
        "name": "Strelcha"
      },
      "geometry": {
        "coordinates": [
          24.31667,
          42.5
        ],
        "type": "Point"
      }
    },
    {
      "type": "Feature",
      "properties": {
        "name": "Strazhitsa"
      },
      "geometry": {
        "coordinates": [
          25.96667,
          43.23333
        ],
        "type": "Point"
      }
    },
    {
      "type": "Feature",
      "properties": {
        "name": "Straldzha"
      },
      "geometry": {
        "coordinates": [
          26.68333,
          42.6
        ],
        "type": "Point"
      }
    },
    {
      "type": "Feature",
      "properties": {
        "name": "Stara Zagora"
      },
      "geometry": {
        "coordinates": [
          25.64194,
          42.43278
        ],
        "type": "Point"
      }
    },
    {
      "type": "Feature",
      "properties": {
        "name": "Stara Kresna"
      },
      "geometry": {
        "coordinates": [
          23.18333,
          41.8
        ],
        "type": "Point"
      }
    },
    {
      "type": "Feature",
      "properties": {
        "name": "Dupnitsa"
      },
      "geometry": {
        "coordinates": [
          23.11667,
          42.26667
        ],
        "type": "Point"
      }
    },
    {
      "type": "Feature",
      "properties": {
        "name": "Stamboliyski"
      },
      "geometry": {
        "coordinates": [
          24.53333,
          42.13333
        ],
        "type": "Point"
      }
    },
    {
      "type": "Feature",
      "properties": {
        "name": "Spasovo"
      },
      "geometry": {
        "coordinates": [
          28.30399,
          43.70168
        ],
        "type": "Point"
      }
    },
    {
      "type": "Feature",
      "properties": {
        "name": "Sozopol"
      },
      "geometry": {
        "coordinates": [
          27.7,
          42.41667
        ],
        "type": "Point"
      }
    },
    {
      "type": "Feature",
      "properties": {
        "name": "Sofia"
      },
      "geometry": {
        "coordinates": [
          23.32415,
          42.69751
        ],
        "type": "Point"
      }
    },
    {
      "type": "Feature",
      "properties": {
        "name": "Smyadovo"
      },
      "geometry": {
        "coordinates": [
          27.01667,
          43.06667
        ],
        "type": "Point"
      }
    },
    {
      "type": "Feature",
      "properties": {
        "name": "Smolyan"
      },
      "geometry": {
        "coordinates": [
          24.69194,
          41.58528
        ],
        "type": "Point"
      }
    },
    {
      "type": "Feature",
      "properties": {
        "name": "Slivo Pole"
      },
      "geometry": {
        "coordinates": [
          26.20464,
          43.94248
        ],
        "type": "Point"
      }
    },
    {
      "type": "Feature",
      "properties": {
        "name": "Slivnitsa"
      },
      "geometry": {
        "coordinates": [
          23.03792,
          42.85182
        ],
        "type": "Point"
      }
    },
    {
      "type": "Feature",
      "properties": {
        "name": "Sliven"
      },
      "geometry": {
        "coordinates": [
          26.32917,
          42.68583
        ],
        "type": "Point"
      }
    },
    {
      "type": "Feature",
      "properties": {
        "name": "Slavyanovo"
      },
      "geometry": {
        "coordinates": [
          24.86667,
          43.46667
        ],
        "type": "Point"
      }
    },
    {
      "type": "Feature",
      "properties": {
        "name": "Sitovo"
      },
      "geometry": {
        "coordinates": [
          27.01982,
          44.0273
        ],
        "type": "Point"
      }
    },
    {
      "type": "Feature",
      "properties": {
        "name": "Simitli"
      },
      "geometry": {
        "coordinates": [
          23.11667,
          41.88333
        ],
        "type": "Point"
      }
    },
    {
      "type": "Feature",
      "properties": {
        "name": "Simeonovgrad"
      },
      "geometry": {
        "coordinates": [
          25.83333,
          42.03333
        ],
        "type": "Point"
      }
    },
    {
      "type": "Feature",
      "properties": {
        "name": "Silistra"
      },
      "geometry": {
        "coordinates": [
          27.26667,
          44.11667
        ],
        "type": "Point"
      }
    },
    {
      "type": "Feature",
      "properties": {
        "name": "Shumen"
      },
      "geometry": {
        "coordinates": [
          26.92286,
          43.27064
        ],
        "type": "Point"
      }
    },
    {
      "type": "Feature",
      "properties": {
        "name": "Shipka"
      },
      "geometry": {
        "coordinates": [
          25.33333,
          42.71667
        ],
        "type": "Point"
      }
    },
    {
      "type": "Feature",
      "properties": {
        "name": "Shabla"
      },
      "geometry": {
        "coordinates": [
          28.53333,
          43.53333
        ],
        "type": "Point"
      }
    },
    {
      "type": "Feature",
      "properties": {
        "name": "Sevlievo"
      },
      "geometry": {
        "coordinates": [
          25.11361,
          43.02583
        ],
        "type": "Point"
      }
    },
    {
      "type": "Feature",
      "properties": {
        "name": "Septemvri"
      },
      "geometry": {
        "coordinates": [
          24.1,
          42.21667
        ],
        "type": "Point"
      }
    },
    {
      "type": "Feature",
      "properties": {
        "name": "Senovo"
      },
      "geometry": {
        "coordinates": [
          26.36667,
          43.65
        ],
        "type": "Point"
      }
    },
    {
      "type": "Feature",
      "properties": {
        "name": "Satovcha"
      },
      "geometry": {
        "coordinates": [
          23.98333,
          41.61667
        ],
        "type": "Point"
      }
    },
    {
      "type": "Feature",
      "properties": {
        "name": "Sarafovo"
      },
      "geometry": {
        "coordinates": [
          27.52195,
          42.56079
        ],
        "type": "Point"
      }
    },
    {
      "type": "Feature",
      "properties": {
        "name": "Sapareva Banya"
      },
      "geometry": {
        "coordinates": [
          23.26667,
          42.28333
        ],
        "type": "Point"
      }
    },
    {
      "type": "Feature",
      "properties": {
        "name": "Sandanski"
      },
      "geometry": {
        "coordinates": [
          23.28333,
          41.56667
        ],
        "type": "Point"
      }
    },
    {
      "type": "Feature",
      "properties": {
        "name": "Samuil"
      },
      "geometry": {
        "coordinates": [
          26.75,
          43.51667
        ],
        "type": "Point"
      }
    },
    {
      "type": "Feature",
      "properties": {
        "name": "Samokov"
      },
      "geometry": {
        "coordinates": [
          23.5528,
          42.337
        ],
        "type": "Point"
      }
    },
    {
      "type": "Feature",
      "properties": {
        "name": "Sadovo"
      },
      "geometry": {
        "coordinates": [
          24.93999,
          42.13178
        ],
        "type": "Point"
      }
    },
    {
      "type": "Feature",
      "properties": {
        "name": "Ruzhintsi"
      },
      "geometry": {
        "coordinates": [
          22.83083,
          43.62333
        ],
        "type": "Point"
      }
    },
    {
      "type": "Feature",
      "properties": {
        "name": "Ruse"
      },
      "geometry": {
        "coordinates": [
          25.97083,
          43.85639
        ],
        "type": "Point"
      }
    },
    {
      "type": "Feature",
      "properties": {
        "name": "Ruen"
      },
      "geometry": {
        "coordinates": [
          27.28333,
          42.8
        ],
        "type": "Point"
      }
    },
    {
      "type": "Feature",
      "properties": {
        "name": "Rudozem"
      },
      "geometry": {
        "coordinates": [
          24.84945,
          41.48751
        ],
        "type": "Point"
      }
    },
    {
      "type": "Feature",
      "properties": {
        "name": "Roman"
      },
      "geometry": {
        "coordinates": [
          23.91667,
          43.15
        ],
        "type": "Point"
      }
    },
    {
      "type": "Feature",
      "properties": {
        "name": "Rila"
      },
      "geometry": {
        "coordinates": [
          23.13333,
          42.13333
        ],
        "type": "Point"
      }
    },
    {
      "type": "Feature",
      "properties": {
        "name": "Razlog"
      },
      "geometry": {
        "coordinates": [
          23.46714,
          41.8863
        ],
        "type": "Point"
      }
    },
    {
      "type": "Feature",
      "properties": {
        "name": "Razgrad"
      },
      "geometry": {
        "coordinates": [
          26.51667,
          43.53333
        ],
        "type": "Point"
      }
    },
    {
      "type": "Feature",
      "properties": {
        "name": "Ravda"
      },
      "geometry": {
        "coordinates": [
          27.67681,
          42.64507
        ],
        "type": "Point"
      }
    },
    {
      "type": "Feature",
      "properties": {
        "name": "Rakovski"
      },
      "geometry": {
        "coordinates": [
          24.96667,
          42.3
        ],
        "type": "Point"
      }
    },
    {
      "type": "Feature",
      "properties": {
        "name": "Rakitovo"
      },
      "geometry": {
        "coordinates": [
          24.08333,
          41.98333
        ],
        "type": "Point"
      }
    },
    {
      "type": "Feature",
      "properties": {
        "name": "Radomir"
      },
      "geometry": {
        "coordinates": [
          22.95778,
          42.54444
        ],
        "type": "Point"
      }
    },
    {
      "type": "Feature",
      "properties": {
        "name": "Radnevo"
      },
      "geometry": {
        "coordinates": [
          25.93333,
          42.3
        ],
        "type": "Point"
      }
    },
    {
      "type": "Feature",
      "properties": {
        "name": "Parvomaytsi"
      },
      "geometry": {
        "coordinates": [
          25.65,
          43.15
        ],
        "type": "Point"
      }
    },
    {
      "type": "Feature",
      "properties": {
        "name": "Provadia"
      },
      "geometry": {
        "coordinates": [
          27.43333,
          43.18333
        ],
        "type": "Point"
      }
    },
    {
      "type": "Feature",
      "properties": {
        "name": "Primorsko"
      },
      "geometry": {
        "coordinates": [
          27.76667,
          42.26667
        ],
        "type": "Point"
      }
    },
    {
      "type": "Feature",
      "properties": {
        "name": "Veliki Preslav"
      },
      "geometry": {
        "coordinates": [
          26.81667,
          43.16667
        ],
        "type": "Point"
      }
    },
    {
      "type": "Feature",
      "properties": {
        "name": "Pravets"
      },
      "geometry": {
        "coordinates": [
          23.91667,
          42.88333
        ],
        "type": "Point"
      }
    },
    {
      "type": "Feature",
      "properties": {
        "name": "Pordim"
      },
      "geometry": {
        "coordinates": [
          24.85,
          43.38333
        ],
        "type": "Point"
      }
    },
    {
      "type": "Feature",
      "properties": {
        "name": "Popovo"
      },
      "geometry": {
        "coordinates": [
          26.23333,
          43.35
        ],
        "type": "Point"
      }
    },
    {
      "type": "Feature",
      "properties": {
        "name": "Pomorie"
      },
      "geometry": {
        "coordinates": [
          27.64393,
          42.55882
        ],
        "type": "Point"
      }
    },
    {
      "type": "Feature",
      "properties": {
        "name": "Polski Trambesh"
      },
      "geometry": {
        "coordinates": [
          25.64972,
          43.38361
        ],
        "type": "Point"
      }
    },
    {
      "type": "Feature",
      "properties": {
        "name": "Plovdiv"
      },
      "geometry": {
        "coordinates": [
          24.75,
          42.15
        ],
        "type": "Point"
      }
    },
    {
      "type": "Feature",
      "properties": {
        "name": "Pliska"
      },
      "geometry": {
        "coordinates": [
          27.11667,
          43.36667
        ],
        "type": "Point"
      }
    },
    {
      "type": "Feature",
      "properties": {
        "name": "Pleven"
      },
      "geometry": {
        "coordinates": [
          24.61667,
          43.41667
        ],
        "type": "Point"
      }
    },
    {
      "type": "Feature",
      "properties": {
        "name": "Pirdop"
      },
      "geometry": {
        "coordinates": [
          24.18333,
          42.7
        ],
        "type": "Point"
      }
    },
    {
      "type": "Feature",
      "properties": {
        "name": "Petrich"
      },
      "geometry": {
        "coordinates": [
          23.20702,
          41.39846
        ],
        "type": "Point"
      }
    },
    {
      "type": "Feature",
      "properties": {
        "name": "Peshtera"
      },
      "geometry": {
        "coordinates": [
          24.3,
          42.03333
        ],
        "type": "Point"
      }
    },
    {
      "type": "Feature",
      "properties": {
        "name": "Perushtitsa"
      },
      "geometry": {
        "coordinates": [
          24.55,
          42.05
        ],
        "type": "Point"
      }
    },
    {
      "type": "Feature",
      "properties": {
        "name": "Pernik"
      },
      "geometry": {
        "coordinates": [
          23.03333,
          42.6
        ],
        "type": "Point"
      }
    },
    {
      "type": "Feature",
      "properties": {
        "name": "Iskar"
      },
      "geometry": {
        "coordinates": [
          24.26667,
          43.45
        ],
        "type": "Point"
      }
    },
    {
      "type": "Feature",
      "properties": {
        "name": "Pazardzhik"
      },
      "geometry": {
        "coordinates": [
          24.33333,
          42.2
        ],
        "type": "Point"
      }
    },
    {
      "type": "Feature",
      "properties": {
        "name": "Pavlikeni"
      },
      "geometry": {
        "coordinates": [
          25.32194,
          43.24278
        ],
        "type": "Point"
      }
    },
    {
      "type": "Feature",
      "properties": {
        "name": "Pavel Banya"
      },
      "geometry": {
        "coordinates": [
          25.2,
          42.6
        ],
        "type": "Point"
      }
    },
    {
      "type": "Feature",
      "properties": {
        "name": "Panagyurishte"
      },
      "geometry": {
        "coordinates": [
          24.18333,
          42.5
        ],
        "type": "Point"
      }
    },
    {
      "type": "Feature",
      "properties": {
        "name": "Oryahovo"
      },
      "geometry": {
        "coordinates": [
          23.95792,
          43.73504
        ],
        "type": "Point"
      }
    },
    {
      "type": "Feature",
      "properties": {
        "name": "Opaka"
      },
      "geometry": {
        "coordinates": [
          26.16667,
          43.45
        ],
        "type": "Point"
      }
    },
    {
      "type": "Feature",
      "properties": {
        "name": "Omurtag"
      },
      "geometry": {
        "coordinates": [
          26.41667,
          43.1
        ],
        "type": "Point"
      }
    },
    {
      "type": "Feature",
      "properties": {
        "name": "Obzor"
      },
      "geometry": {
        "coordinates": [
          27.88333,
          42.81667
        ],
        "type": "Point"
      }
    },
    {
      "type": "Feature",
      "properties": {
        "name": "Novo Selo"
      },
      "geometry": {
        "coordinates": [
          22.78667,
          44.15861
        ],
        "type": "Point"
      }
    },
    {
      "type": "Feature",
      "properties": {
        "name": "Novi Pazar"
      },
      "geometry": {
        "coordinates": [
          27.2,
          43.35
        ],
        "type": "Point"
      }
    },
    {
      "type": "Feature",
      "properties": {
        "name": "Nova Zagora"
      },
      "geometry": {
        "coordinates": [
          26.01667,
          42.48333
        ],
        "type": "Point"
      }
    },
    {
      "type": "Feature",
      "properties": {
        "name": "Nikopol"
      },
      "geometry": {
        "coordinates": [
          24.89645,
          43.70255
        ],
        "type": "Point"
      }
    },
    {
      "type": "Feature",
      "properties": {
        "name": "Nikolaevo"
      },
      "geometry": {
        "coordinates": [
          25.8,
          42.63333
        ],
        "type": "Point"
      }
    },
    {
      "type": "Feature",
      "properties": {
        "name": "Nesebar"
      },
      "geometry": {
        "coordinates": [
          27.73602,
          42.65921
        ],
        "type": "Point"
      }
    },
    {
      "type": "Feature",
      "properties": {
        "name": "Nedelino"
      },
      "geometry": {
        "coordinates": [
          25.08008,
          41.45602
        ],
        "type": "Point"
      }
    },
    {
      "type": "Feature",
      "properties": {
        "name": "Maglizh"
      },
      "geometry": {
        "coordinates": [
          25.55,
          42.6
        ],
        "type": "Point"
      }
    },
    {
      "type": "Feature",
      "properties": {
        "name": "Mizia"
      },
      "geometry": {
        "coordinates": [
          23.85371,
          43.68623
        ],
        "type": "Point"
      }
    },
    {
      "type": "Feature",
      "properties": {
        "name": "Mirkovo"
      },
      "geometry": {
        "coordinates": [
          23.98333,
          42.7
        ],
        "type": "Point"
      }
    },
    {
      "type": "Feature",
      "properties": {
        "name": "Mineralni Bani"
      },
      "geometry": {
        "coordinates": [
          25.35,
          41.91667
        ],
        "type": "Point"
      }
    },
    {
      "type": "Feature",
      "properties": {
        "name": "Montana"
      },
      "geometry": {
        "coordinates": [
          23.225,
          43.4125
        ],
        "type": "Point"
      }
    },
    {
      "type": "Feature",
      "properties": {
        "name": "Tsarevo"
      },
      "geometry": {
        "coordinates": [
          27.84541,
          42.16955
        ],
        "type": "Point"
      }
    },
    {
      "type": "Feature",
      "properties": {
        "name": "Mezdra"
      },
      "geometry": {
        "coordinates": [
          23.7,
          43.15
        ],
        "type": "Point"
      }
    },
    {
      "type": "Feature",
      "properties": {
        "name": "Medovene"
      },
      "geometry": {
        "coordinates": [
          26.51667,
          43.76667
        ],
        "type": "Point"
      }
    },
    {
      "type": "Feature",
      "properties": {
        "name": "Medkovets"
      },
      "geometry": {
        "coordinates": [
          23.18111,
          43.62972
        ],
        "type": "Point"
      }
    },
    {
      "type": "Feature",
      "properties": {
        "name": "Malko Tarnovo"
      },
      "geometry": {
        "coordinates": [
          27.52477,
          41.97958
        ],
        "type": "Point"
      }
    },
    {
      "type": "Feature",
      "properties": {
        "name": "Madzharovo"
      },
      "geometry": {
        "coordinates": [
          25.86439,
          41.63461
        ],
        "type": "Point"
      }
    },
    {
      "type": "Feature",
      "properties": {
        "name": "Madan"
      },
      "geometry": {
        "coordinates": [
          24.93973,
          41.49869
        ],
        "type": "Point"
      }
    },
    {
      "type": "Feature",
      "properties": {
        "name": "Lyubimets"
      },
      "geometry": {
        "coordinates": [
          26.08333,
          41.83333
        ],
        "type": "Point"
      }
    },
    {
      "type": "Feature",
      "properties": {
        "name": "Lyaskovets"
      },
      "geometry": {
        "coordinates": [
          25.72833,
          43.11111
        ],
        "type": "Point"
      }
    },
    {
      "type": "Feature",
      "properties": {
        "name": "Lukovit"
      },
      "geometry": {
        "coordinates": [
          24.16667,
          43.2
        ],
        "type": "Point"
      }
    },
    {
      "type": "Feature",
      "properties": {
        "name": "Laki"
      },
      "geometry": {
        "coordinates": [
          24.81667,
          41.85
        ],
        "type": "Point"
      }
    },
    {
      "type": "Feature",
      "properties": {
        "name": "Loznitsa"
      },
      "geometry": {
        "coordinates": [
          26.6,
          43.36667
        ],
        "type": "Point"
      }
    },
    {
      "type": "Feature",
      "properties": {
        "name": "Lovech"
      },
      "geometry": {
        "coordinates": [
          24.71667,
          43.13333
        ],
        "type": "Point"
      }
    },
    {
      "type": "Feature",
      "properties": {
        "name": "Lom"
      },
      "geometry": {
        "coordinates": [
          23.23611,
          43.81389
        ],
        "type": "Point"
      }
    },
    {
      "type": "Feature",
      "properties": {
        "name": "Levski"
      },
      "geometry": {
        "coordinates": [
          25.13333,
          43.36667
        ],
        "type": "Point"
      }
    },
    {
      "type": "Feature",
      "properties": {
        "name": "Letnitsa"
      },
      "geometry": {
        "coordinates": [
          25.07333,
          43.31167
        ],
        "type": "Point"
      }
    },
    {
      "type": "Feature",
      "properties": {
        "name": "Lesichevo"
      },
      "geometry": {
        "coordinates": [
          24.11667,
          42.35
        ],
        "type": "Point"
      }
    },
    {
      "type": "Feature",
      "properties": {
        "name": "Lakatnik"
      },
      "geometry": {
        "coordinates": [
          23.4,
          43.05
        ],
        "type": "Point"
      }
    },
    {
      "type": "Feature",
      "properties": {
        "name": "Kyustendil"
      },
      "geometry": {
        "coordinates": [
          22.69111,
          42.28389
        ],
        "type": "Point"
      }
    },
    {
      "type": "Feature",
      "properties": {
        "name": "Kardzhali"
      },
      "geometry": {
        "coordinates": [
          25.36667,
          41.65
        ],
        "type": "Point"
      }
    },
    {
      "type": "Feature",
      "properties": {
        "name": "Kula"
      },
      "geometry": {
        "coordinates": [
          22.52139,
          43.88778
        ],
        "type": "Point"
      }
    },
    {
      "type": "Feature",
      "properties": {
        "name": "Kubrat"
      },
      "geometry": {
        "coordinates": [
          26.5,
          43.8
        ],
        "type": "Point"
      }
    },
    {
      "type": "Feature",
      "properties": {
        "name": "Krushari"
      },
      "geometry": {
        "coordinates": [
          27.75552,
          43.81675
        ],
        "type": "Point"
      }
    },
    {
      "type": "Feature",
      "properties": {
        "name": "Krumovgrad"
      },
      "geometry": {
        "coordinates": [
          25.65485,
          41.47127
        ],
        "type": "Point"
      }
    },
    {
      "type": "Feature",
      "properties": {
        "name": "Krivodol"
      },
      "geometry": {
        "coordinates": [
          23.48444,
          43.37444
        ],
        "type": "Point"
      }
    },
    {
      "type": "Feature",
      "properties": {
        "name": "Krichim"
      },
      "geometry": {
        "coordinates": [
          24.46667,
          42.05
        ],
        "type": "Point"
      }
    },
    {
      "type": "Feature",
      "properties": {
        "name": "Kresna"
      },
      "geometry": {
        "coordinates": [
          23.15,
          41.73333
        ],
        "type": "Point"
      }
    },
    {
      "type": "Feature",
      "properties": {
        "name": "Kozloduy"
      },
      "geometry": {
        "coordinates": [
          23.72058,
          43.77864
        ],
        "type": "Point"
      }
    },
    {
      "type": "Feature",
      "properties": {
        "name": "Koynare"
      },
      "geometry": {
        "coordinates": [
          24.13333,
          43.35
        ],
        "type": "Point"
      }
    },
    {
      "type": "Feature",
      "properties": {
        "name": "Kotel"
      },
      "geometry": {
        "coordinates": [
          26.45,
          42.88333
        ],
        "type": "Point"
      }
    },
    {
      "type": "Feature",
      "properties": {
        "name": "Kostinbrod"
      },
      "geometry": {
        "coordinates": [
          23.21667,
          42.81667
        ],
        "type": "Point"
      }
    },
    {
      "type": "Feature",
      "properties": {
        "name": "Koprivshtitsa"
      },
      "geometry": {
        "coordinates": [
          24.35,
          42.63333
        ],
        "type": "Point"
      }
    },
    {
      "type": "Feature",
      "properties": {
        "name": "Kocherinovo"
      },
      "geometry": {
        "coordinates": [
          23.0571,
          42.08439
        ],
        "type": "Point"
      }
    },
    {
      "type": "Feature",
      "properties": {
        "name": "Knezha"
      },
      "geometry": {
        "coordinates": [
          24.08333,
          43.5
        ],
        "type": "Point"
      }
    },
    {
      "type": "Feature",
      "properties": {
        "name": "Klisura"
      },
      "geometry": {
        "coordinates": [
          24.45,
          42.7
        ],
        "type": "Point"
      }
    },
    {
      "type": "Feature",
      "properties": {
        "name": "Kiten"
      },
      "geometry": {
        "coordinates": [
          27.31667,
          43.08333
        ],
        "type": "Point"
      }
    },
    {
      "type": "Feature",
      "properties": {
        "name": "Kiten"
      },
      "geometry": {
        "coordinates": [
          27.7749,
          42.23424
        ],
        "type": "Point"
      }
    },
    {
      "type": "Feature",
      "properties": {
        "name": "Kirkovo"
      },
      "geometry": {
        "coordinates": [
          25.36379,
          41.32715
        ],
        "type": "Point"
      }
    },
    {
      "type": "Feature",
      "properties": {
        "name": "Kilifarevo"
      },
      "geometry": {
        "coordinates": [
          25.63333,
          42.98333
        ],
        "type": "Point"
      }
    },
    {
      "type": "Feature",
      "properties": {
        "name": "Tsar Kaloyan"
      },
      "geometry": {
        "coordinates": [
          26.25,
          43.61667
        ],
        "type": "Point"
      }
    },
    {
      "type": "Feature",
      "properties": {
        "name": "Hisarya"
      },
      "geometry": {
        "coordinates": [
          24.7,
          42.5
        ],
        "type": "Point"
      }
    },
    {
      "type": "Feature",
      "properties": {
        "name": "Hayredin"
      },
      "geometry": {
        "coordinates": [
          23.66667,
          43.6
        ],
        "type": "Point"
      }
    },
    {
      "type": "Feature",
      "properties": {
        "name": "Haskovo"
      },
      "geometry": {
        "coordinates": [
          25.55557,
          41.93415
        ],
        "type": "Point"
      }
    },
    {
      "type": "Feature",
      "properties": {
        "name": "Harmanli"
      },
      "geometry": {
        "coordinates": [
          25.9,
          41.93333
        ],
        "type": "Point"
      }
    },
    {
      "type": "Feature",
      "properties": {
        "name": "Hadzhidimovo"
      },
      "geometry": {
        "coordinates": [
          23.86861,
          41.52222
        ],
        "type": "Point"
      }
    },
    {
      "type": "Feature",
      "properties": {
        "name": "Kermen"
      },
      "geometry": {
        "coordinates": [
          26.25,
          42.5
        ],
        "type": "Point"
      }
    },
    {
      "type": "Feature",
      "properties": {
        "name": "Kazanlak"
      },
      "geometry": {
        "coordinates": [
          25.4,
          42.61667
        ],
        "type": "Point"
      }
    },
    {
      "type": "Feature",
      "properties": {
        "name": "Kaynardzha"
      },
      "geometry": {
        "coordinates": [
          27.5,
          43.98333
        ],
        "type": "Point"
      }
    },
    {
      "type": "Feature",
      "properties": {
        "name": "Kavarna"
      },
      "geometry": {
        "coordinates": [
          28.33333,
          43.43333
        ],
        "type": "Point"
      }
    },
    {
      "type": "Feature",
      "properties": {
        "name": "Kaspichan"
      },
      "geometry": {
        "coordinates": [
          27.16667,
          43.31667
        ],
        "type": "Point"
      }
    },
    {
      "type": "Feature",
      "properties": {
        "name": "Karnobat"
      },
      "geometry": {
        "coordinates": [
          26.98333,
          42.65
        ],
        "type": "Point"
      }
    },
    {
      "type": "Feature",
      "properties": {
        "name": "Karlovo"
      },
      "geometry": {
        "coordinates": [
          24.8,
          42.63333
        ],
        "type": "Point"
      }
    },
    {
      "type": "Feature",
      "properties": {
        "name": "Kaolinovo"
      },
      "geometry": {
        "coordinates": [
          27.11667,
          43.61667
        ],
        "type": "Point"
      }
    },
    {
      "type": "Feature",
      "properties": {
        "name": "Kameno"
      },
      "geometry": {
        "coordinates": [
          27.29387,
          42.57446
        ],
        "type": "Point"
      }
    },
    {
      "type": "Feature",
      "properties": {
        "name": "Kaloyanovo"
      },
      "geometry": {
        "coordinates": [
          24.73333,
          42.35
        ],
        "type": "Point"
      }
    },
    {
      "type": "Feature",
      "properties": {
        "name": "Kalofer"
      },
      "geometry": {
        "coordinates": [
          24.98333,
          42.61667
        ],
        "type": "Point"
      }
    },
    {
      "type": "Feature",
      "properties": {
        "name": "Ivaylovgrad"
      },
      "geometry": {
        "coordinates": [
          26.1249,
          41.52672
        ],
        "type": "Point"
      }
    },
    {
      "type": "Feature",
      "properties": {
        "name": "Ivanovo"
      },
      "geometry": {
        "coordinates": [
          25.95565,
          43.68568
        ],
        "type": "Point"
      }
    },
    {
      "type": "Feature",
      "properties": {
        "name": "Isperih"
      },
      "geometry": {
        "coordinates": [
          26.83333,
          43.71667
        ],
        "type": "Point"
      }
    },
    {
      "type": "Feature",
      "properties": {
        "name": "Iskar"
      },
      "geometry": {
        "coordinates": [
          24.45233,
          43.6708
        ],
        "type": "Point"
      }
    },
    {
      "type": "Feature",
      "properties": {
        "name": "Ihtiman"
      },
      "geometry": {
        "coordinates": [
          23.81667,
          42.43333
        ],
        "type": "Point"
      }
    },
    {
      "type": "Feature",
      "properties": {
        "name": "Garmen"
      },
      "geometry": {
        "coordinates": [
          23.81667,
          41.6
        ],
        "type": "Point"
      }
    },
    {
      "type": "Feature",
      "properties": {
        "name": "Gurkovo"
      },
      "geometry": {
        "coordinates": [
          25.8,
          42.66667
        ],
        "type": "Point"
      }
    },
    {
      "type": "Feature",
      "properties": {
        "name": "Gulyantsi"
      },
      "geometry": {
        "coordinates": [
          24.69368,
          43.64109
        ],
        "type": "Point"
      }
    },
    {
      "type": "Feature",
      "properties": {
        "name": "Gulubovo"
      },
      "geometry": {
        "coordinates": [
          25.85,
          42.13333
        ],
        "type": "Point"
      }
    },
    {
      "type": "Feature",
      "properties": {
        "name": "Sredets"
      },
      "geometry": {
        "coordinates": [
          27.17898,
          42.34747
        ],
        "type": "Point"
      }
    },
    {
      "type": "Feature",
      "properties": {
        "name": "Gramada"
      },
      "geometry": {
        "coordinates": [
          22.65861,
          43.83444
        ],
        "type": "Point"
      }
    },
    {
      "type": "Feature",
      "properties": {
        "name": "Gyovren"
      },
      "geometry": {
        "coordinates": [
          24.37557,
          41.66326
        ],
        "type": "Point"
      }
    },
    {
      "type": "Feature",
      "properties": {
        "name": "Gotse Delchev"
      },
      "geometry": {
        "coordinates": [
          23.73333,
          41.56667
        ],
        "type": "Point"
      }
    },
    {
      "type": "Feature",
      "properties": {
        "name": "Gorna Oryahovitsa"
      },
      "geometry": {
        "coordinates": [
          25.70167,
          43.12778
        ],
        "type": "Point"
      }
    },
    {
      "type": "Feature",
      "properties": {
        "name": "Gorna Malina"
      },
      "geometry": {
        "coordinates": [
          23.7,
          42.68333
        ],
        "type": "Point"
      }
    },
    {
      "type": "Feature",
      "properties": {
        "name": "Gorichevo"
      },
      "geometry": {
        "coordinates": [
          26.45,
          43.85
        ],
        "type": "Point"
      }
    },
    {
      "type": "Feature",
      "properties": {
        "name": "Godech"
      },
      "geometry": {
        "coordinates": [
          23.04852,
          43.01682
        ],
        "type": "Point"
      }
    },
    {
      "type": "Feature",
      "properties": {
        "name": "Glavinitsa"
      },
      "geometry": {
        "coordinates": [
          26.83333,
          43.91667
        ],
        "type": "Point"
      }
    },
    {
      "type": "Feature",
      "properties": {
        "name": "Dolni Chiflik"
      },
      "geometry": {
        "coordinates": [
          27.71667,
          42.98333
        ],
        "type": "Point"
      }
    },
    {
      "type": "Feature",
      "properties": {
        "name": "General-Toshevo"
      },
      "geometry": {
        "coordinates": [
          28.03333,
          43.7
        ],
        "type": "Point"
      }
    },
    {
      "type": "Feature",
      "properties": {
        "name": "Gara Hitrino"
      },
      "geometry": {
        "coordinates": [
          26.91667,
          43.43333
        ],
        "type": "Point"
      }
    },
    {
      "type": "Feature",
      "properties": {
        "name": "Gabrovo"
      },
      "geometry": {
        "coordinates": [
          25.33417,
          42.87472
        ],
        "type": "Point"
      }
    },
    {
      "type": "Feature",
      "properties": {
        "name": "Gabrovo"
      },
      "geometry": {
        "coordinates": [
          25.26667,
          41.8
        ],
        "type": "Point"
      }
    },
    {
      "type": "Feature",
      "properties": {
        "name": "Etropole"
      },
      "geometry": {
        "coordinates": [
          24.0,
          42.83333
        ],
        "type": "Point"
      }
    },
    {
      "type": "Feature",
      "properties": {
        "name": "Elkhovo"
      },
      "geometry": {
        "coordinates": [
          25.43333,
          42.38333
        ],
        "type": "Point"
      }
    },
    {
      "type": "Feature",
      "properties": {
        "name": "Elhovo"
      },
      "geometry": {
        "coordinates": [
          26.56667,
          42.16667
        ],
        "type": "Point"
      }
    },
    {
      "type": "Feature",
      "properties": {
        "name": "Elin Pelin"
      },
      "geometry": {
        "coordinates": [
          23.6,
          42.66667
        ],
        "type": "Point"
      }
    },
    {
      "type": "Feature",
      "properties": {
        "name": "Elena"
      },
      "geometry": {
        "coordinates": [
          25.88333,
          42.93333
        ],
        "type": "Point"
      }
    },
    {
      "type": "Feature",
      "properties": {
        "name": "Dzhebel"
      },
      "geometry": {
        "coordinates": [
          25.30363,
          41.49566
        ],
        "type": "Point"
      }
    },
    {
      "type": "Feature",
      "properties": {
        "name": "Dve Mogili"
      },
      "geometry": {
        "coordinates": [
          25.87486,
          43.59258
        ],
        "type": "Point"
      }
    },
    {
      "type": "Feature",
      "properties": {
        "name": "Dunavtsi"
      },
      "geometry": {
        "coordinates": [
          22.82111,
          43.92111
        ],
        "type": "Point"
      }
    },
    {
      "type": "Feature",
      "properties": {
        "name": "Dulovo"
      },
      "geometry": {
        "coordinates": [
          27.15,
          43.81667
        ],
        "type": "Point"
      }
    },
    {
      "type": "Feature",
      "properties": {
        "name": "Dalgopol"
      },
      "geometry": {
        "coordinates": [
          27.35,
          43.05
        ],
        "type": "Point"
      }
    },
    {
      "type": "Feature",
      "properties": {
        "name": "Dryanovo"
      },
      "geometry": {
        "coordinates": [
          25.4785,
          42.97897
        ],
        "type": "Point"
      }
    },
    {
      "type": "Feature",
      "properties": {
        "name": "Dragoman"
      },
      "geometry": {
        "coordinates": [
          22.93109,
          42.92191
        ],
        "type": "Point"
      }
    },
    {
      "type": "Feature",
      "properties": {
        "name": "Dospat"
      },
      "geometry": {
        "coordinates": [
          24.15857,
          41.64462
        ],
        "type": "Point"
      }
    },
    {
      "type": "Feature",
      "properties": {
        "name": "Dolni Dabnik"
      },
      "geometry": {
        "coordinates": [
          24.43333,
          43.4
        ],
        "type": "Point"
      }
    },
    {
      "type": "Feature",
      "properties": {
        "name": "Dolna Mitropolia"
      },
      "geometry": {
        "coordinates": [
          24.53333,
          43.46667
        ],
        "type": "Point"
      }
    },
    {
      "type": "Feature",
      "properties": {
        "name": "Dolna Banya"
      },
      "geometry": {
        "coordinates": [
          23.76667,
          42.3
        ],
        "type": "Point"
      }
    },
    {
      "type": "Feature",
      "properties": {
        "name": "Dimovo"
      },
      "geometry": {
        "coordinates": [
          22.72694,
          43.74167
        ],
        "type": "Point"
      }
    },
    {
      "type": "Feature",
      "properties": {
        "name": "Dimitrovgrad"
      },
      "geometry": {
        "coordinates": [
          25.6,
          42.05
        ],
        "type": "Point"
      }
    },
    {
      "type": "Feature",
      "properties": {
        "name": "Devnya"
      },
      "geometry": {
        "coordinates": [
          27.56944,
          43.22222
        ],
        "type": "Point"
      }
    },
    {
      "type": "Feature",
      "properties": {
        "name": "Devin"
      },
      "geometry": {
        "coordinates": [
          24.40003,
          41.74327
        ],
        "type": "Point"
      }
    },
    {
      "type": "Feature",
      "properties": {
        "name": "Debelets"
      },
      "geometry": {
        "coordinates": [
          25.61667,
          43.03333
        ],
        "type": "Point"
      }
    },
    {
      "type": "Feature",
      "properties": {
        "name": "Chuprene"
      },
      "geometry": {
        "coordinates": [
          22.66611,
          43.51806
        ],
        "type": "Point"
      }
    },
    {
      "type": "Feature",
      "properties": {
        "name": "Chirpan"
      },
      "geometry": {
        "coordinates": [
          25.33333,
          42.2
        ],
        "type": "Point"
      }
    },
    {
      "type": "Feature",
      "properties": {
        "name": "Chiprovtsi"
      },
      "geometry": {
        "coordinates": [
          22.88083,
          43.38417
        ],
        "type": "Point"
      }
    },
    {
      "type": "Feature",
      "properties": {
        "name": "Cherven Bryag"
      },
      "geometry": {
        "coordinates": [
          24.1,
          43.26667
        ],
        "type": "Point"
      }
    },
    {
      "type": "Feature",
      "properties": {
        "name": "Chernomorets"
      },
      "geometry": {
        "coordinates": [
          27.63834,
          42.44589
        ],
        "type": "Point"
      }
    },
    {
      "type": "Feature",
      "properties": {
        "name": "Chepelare"
      },
      "geometry": {
        "coordinates": [
          24.68333,
          41.73333
        ],
        "type": "Point"
      }
    },
    {
      "type": "Feature",
      "properties": {
        "name": "Chelopech"
      },
      "geometry": {
        "coordinates": [
          24.08333,
          42.7
        ],
        "type": "Point"
      }
    },
    {
      "type": "Feature",
      "properties": {
        "name": "Chavdar"
      },
      "geometry": {
        "coordinates": [
          24.05,
          42.65
        ],
        "type": "Point"
      }
    },
    {
      "type": "Feature",
      "properties": {
        "name": "Byala Slatina"
      },
      "geometry": {
        "coordinates": [
          23.93333,
          43.46667
        ],
        "type": "Point"
      }
    },
    {
      "type": "Feature",
      "properties": {
        "name": "Byala Cherkva"
      },
      "geometry": {
        "coordinates": [
          25.3,
          43.2
        ],
        "type": "Point"
      }
    },
    {
      "type": "Feature",
      "properties": {
        "name": "Byala"
      },
      "geometry": {
        "coordinates": [
          27.88333,
          42.88333
        ],
        "type": "Point"
      }
    },
    {
      "type": "Feature",
      "properties": {
        "name": "Burgas"
      },
      "geometry": {
        "coordinates": [
          27.46781,
          42.50606
        ],
        "type": "Point"
      }
    },
    {
      "type": "Feature",
      "properties": {
        "name": "Buhovo"
      },
      "geometry": {
        "coordinates": [
          23.56667,
          42.76667
        ],
        "type": "Point"
      }
    },
    {
      "type": "Feature",
      "properties": {
        "name": "Brusartsi"
      },
      "geometry": {
        "coordinates": [
          23.06667,
          43.66667
        ],
        "type": "Point"
      }
    },
    {
      "type": "Feature",
      "properties": {
        "name": "Brezovo"
      },
      "geometry": {
        "coordinates": [
          25.08333,
          42.35
        ],
        "type": "Point"
      }
    },
    {
      "type": "Feature",
      "properties": {
        "name": "Breznik"
      },
      "geometry": {
        "coordinates": [
          22.89806,
          42.74139
        ],
        "type": "Point"
      }
    },
    {
      "type": "Feature",
      "properties": {
        "name": "Bregovo"
      },
      "geometry": {
        "coordinates": [
          22.6425,
          44.15167
        ],
        "type": "Point"
      }
    },
    {
      "type": "Feature",
      "properties": {
        "name": "Bratsigovo"
      },
      "geometry": {
        "coordinates": [
          24.36667,
          42.01667
        ],
        "type": "Point"
      }
    },
    {
      "type": "Feature",
      "properties": {
        "name": "Bozhurishte"
      },
      "geometry": {
        "coordinates": [
          23.2,
          42.75
        ],
        "type": "Point"
      }
    },
    {
      "type": "Feature",
      "properties": {
        "name": "Boychinovtsi"
      },
      "geometry": {
        "coordinates": [
          23.33583,
          43.47222
        ],
        "type": "Point"
      }
    },
    {
      "type": "Feature",
      "properties": {
        "name": "Bov"
      },
      "geometry": {
        "coordinates": [
          23.37806,
          43.0325
        ],
        "type": "Point"
      }
    },
    {
      "type": "Feature",
      "properties": {
        "name": "Botevgrad"
      },
      "geometry": {
        "coordinates": [
          23.78333,
          42.9
        ],
        "type": "Point"
      }
    },
    {
      "type": "Feature",
      "properties": {
        "name": "Borovo"
      },
      "geometry": {
        "coordinates": [
          25.80992,
          43.50086
        ],
        "type": "Point"
      }
    },
    {
      "type": "Feature",
      "properties": {
        "name": "Borovan"
      },
      "geometry": {
        "coordinates": [
          23.75,
          43.43333
        ],
        "type": "Point"
      }
    },
    {
      "type": "Feature",
      "properties": {
        "name": "Borino"
      },
      "geometry": {
        "coordinates": [
          24.293,
          41.68408
        ],
        "type": "Point"
      }
    },
    {
      "type": "Feature",
      "properties": {
        "name": "Bolyarovo"
      },
      "geometry": {
        "coordinates": [
          26.81116,
          42.14962
        ],
        "type": "Point"
      }
    },
    {
      "type": "Feature",
      "properties": {
        "name": "Bobovdol"
      },
      "geometry": {
        "coordinates": [
          23.01722,
          42.36972
        ],
        "type": "Point"
      }
    },
    {
      "type": "Feature",
      "properties": {
        "name": "Boboshevo"
      },
      "geometry": {
        "coordinates": [
          23.00146,
          42.15296
        ],
        "type": "Point"
      }
    },
    {
      "type": "Feature",
      "properties": {
        "name": "Blagoevgrad"
      },
      "geometry": {
        "coordinates": [
          23.1,
          42.01667
        ],
        "type": "Point"
      }
    },
    {
      "type": "Feature",
      "properties": {
        "name": "Berkovitsa"
      },
      "geometry": {
        "coordinates": [
          23.12583,
          43.23611
        ],
        "type": "Point"
      }
    },
    {
      "type": "Feature",
      "properties": {
        "name": "Belovo"
      },
      "geometry": {
        "coordinates": [
          24.01667,
          42.21667
        ],
        "type": "Point"
      }
    },
    {
      "type": "Feature",
      "properties": {
        "name": "Belogradchik"
      },
      "geometry": {
        "coordinates": [
          22.68361,
          43.62722
        ],
        "type": "Point"
      }
    },
    {
      "type": "Feature",
      "properties": {
        "name": "Belitsa"
      },
      "geometry": {
        "coordinates": [
          23.5725,
          41.95694
        ],
        "type": "Point"
      }
    },
    {
      "type": "Feature",
      "properties": {
        "name": "Belene"
      },
      "geometry": {
        "coordinates": [
          25.12627,
          43.64594
        ],
        "type": "Point"
      }
    },
    {
      "type": "Feature",
      "properties": {
        "name": "Batak"
      },
      "geometry": {
        "coordinates": [
          24.21667,
          41.95
        ],
        "type": "Point"
      }
    },
    {
      "type": "Feature",
      "properties": {
        "name": "Bata"
      },
      "geometry": {
        "coordinates": [
          27.5,
          42.73333
        ],
        "type": "Point"
      }
    },
    {
      "type": "Feature",
      "properties": {
        "name": "Bansko"
      },
      "geometry": {
        "coordinates": [
          23.48851,
          41.8383
        ],
        "type": "Point"
      }
    },
    {
      "type": "Feature",
      "properties": {
        "name": "Banite"
      },
      "geometry": {
        "coordinates": [
          25.01667,
          41.61667
        ],
        "type": "Point"
      }
    },
    {
      "type": "Feature",
      "properties": {
        "name": "Balchik"
      },
      "geometry": {
        "coordinates": [
          28.16667,
          43.41667
        ],
        "type": "Point"
      }
    },
    {
      "type": "Feature",
      "properties": {
        "name": "Aytos"
      },
      "geometry": {
        "coordinates": [
          27.25,
          42.7
        ],
        "type": "Point"
      }
    },
    {
      "type": "Feature",
      "properties": {
        "name": "Asenovgrad"
      },
      "geometry": {
        "coordinates": [
          24.86667,
          42.01667
        ],
        "type": "Point"
      }
    },
    {
      "type": "Feature",
      "properties": {
        "name": "Asen"
      },
      "geometry": {
        "coordinates": [
          25.2,
          42.65
        ],
        "type": "Point"
      }
    },
    {
      "type": "Feature",
      "properties": {
        "name": "Ardino"
      },
      "geometry": {
        "coordinates": [
          25.13333,
          41.58333
        ],
        "type": "Point"
      }
    },
    {
      "type": "Feature",
      "properties": {
        "name": "Apriltsi"
      },
      "geometry": {
        "coordinates": [
          24.91759,
          42.84142
        ],
        "type": "Point"
      }
    },
    {
      "type": "Feature",
      "properties": {
        "name": "Antonovo"
      },
      "geometry": {
        "coordinates": [
          26.16667,
          43.15
        ],
        "type": "Point"
      }
    },
    {
      "type": "Feature",
      "properties": {
        "name": "Anton"
      },
      "geometry": {
        "coordinates": [
          24.28333,
          42.75
        ],
        "type": "Point"
      }
    },
    {
      "type": "Feature",
      "properties": {
        "name": "Alfatar"
      },
      "geometry": {
        "coordinates": [
          27.28333,
          43.95
        ],
        "type": "Point"
      }
    },
    {
      "type": "Feature",
      "properties": {
        "name": "Aksakovo"
      },
      "geometry": {
        "coordinates": [
          27.81667,
          43.25
        ],
        "type": "Point"
      }
    },
    {
      "type": "Feature",
      "properties": {
        "name": "Ahtopol"
      },
      "geometry": {
        "coordinates": [
          27.93961,
          42.09768
        ],
        "type": "Point"
      }
    },
    {
      "type": "Feature",
      "properties": {
        "name": "Zlatni Pyasatsi"
      },
      "geometry": {
        "coordinates": [
          28.0418,
          43.285
        ],
        "type": "Point"
      }
    },
    {
      "type": "Feature",
      "properties": {
        "name": "Aheloy"
      },
      "geometry": {
        "coordinates": [
          27.64838,
          42.64987
        ],
        "type": "Point"
      }
    },
    {
      "type": "Feature",
      "properties": {
        "name": "Balgarevo"
      },
      "geometry": {
        "coordinates": [
          28.41189,
          43.40296
        ],
        "type": "Point"
      }
    }
  ]
}