{
  "type": "FeatureCollection",
  "features": [
    {
      "type": "Feature",
      "properties": {
        "name": "Vaini"
      },
      "geometry": {
        "coordinates": [
          -175.17678,
          -21.19292
        ],
        "type": "Point"
      }
    },
    {
      "type": "Feature",
      "properties": {
        "name": "Pangai"
      },
      "geometry": {
        "coordinates": [
          -174.35423,
          -19.81468
        ],
        "type": "Point"
      }
    },
    {
      "type": "Feature",
      "properties": {
        "name": "`Ohonua"
      },
      "geometry": {
        "coordinates": [
          -174.95,
          -21.33333
        ],
        "type": "Point"
      }
    },
    {
      "type": "Feature",
      "properties": {
        "name": "Nuku'alofa"
      },
      "geometry": {
        "coordinates": [
          -175.2018,
          -21.13938
        ],
        "type": "Point"
      }
    },
    {
      "type": "Feature",
      "properties": {
        "name": "Neiafu"
      },
      "geometry": {
        "coordinates": [
          -173.98404,
          -18.6506
        ],
        "type": "Point"
      }
    },
    {
      "type": "Feature",
      "properties": {
        "name": "Hihifo"
      },
      "geometry": {
        "coordinates": [
          -173.79616,
          -15.9544
        ],
        "type": "Point"
      }
    },
    {
      "type": "Feature",
      "properties": {
        "name": "Haveluloto"
      },
      "geometry": {
        "coordinates": [
          -175.21333,
          -21.15216
        ],
        "type": "Point"
      }
    }
  ]
}