{
  "type": "FeatureCollection",
  "features": [
    {
      "type": "Feature",
      "properties": {
        "name": "Yate-Barrage"
      },
      "geometry": {
        "coordinates": [
          166.88333,
          -22.15
        ],
        "type": "Point"
      }
    },
    {
      "type": "Feature",
      "properties": {
        "name": "We"
      },
      "geometry": {
        "coordinates": [
          167.26461,
          -20.91687
        ],
        "type": "Point"
      }
    },
    {
      "type": "Feature",
      "properties": {
        "name": "Wala"
      },
      "geometry": {
        "coordinates": [
          163.64702,
          -19.71161
        ],
        "type": "Point"
      }
    },
    {
      "type": "Feature",
      "properties": {
        "name": "Voh"
      },
      "geometry": {
        "coordinates": [
          164.7,
          -20.96667
        ],
        "type": "Point"
      }
    },
    {
      "type": "Feature",
      "properties": {
        "name": "Vao"
      },
      "geometry": {
        "coordinates": [
          167.49627,
          -22.66645
        ],
        "type": "Point"
      }
    },
    {
      "type": "Feature",
      "properties": {
        "name": "Touho"
      },
      "geometry": {
        "coordinates": [
          165.24987,
          -20.79094
        ],
        "type": "Point"
      }
    },
    {
      "type": "Feature",
      "properties": {
        "name": "Thio"
      },
      "geometry": {
        "coordinates": [
          166.21667,
          -21.61667
        ],
        "type": "Point"
      }
    },
    {
      "type": "Feature",
      "properties": {
        "name": "Tadine"
      },
      "geometry": {
        "coordinates": [
          167.88333,
          -21.55
        ],
        "type": "Point"
      }
    },
    {
      "type": "Feature",
      "properties": {
        "name": "Poya"
      },
      "geometry": {
        "coordinates": [
          165.15,
          -21.35
        ],
        "type": "Point"
      }
    },
    {
      "type": "Feature",
      "properties": {
        "name": "Poum"
      },
      "geometry": {
        "coordinates": [
          164.01667,
          -20.23333
        ],
        "type": "Point"
      }
    },
    {
      "type": "Feature",
      "properties": {
        "name": "Pouembout"
      },
      "geometry": {
        "coordinates": [
          164.9,
          -21.13333
        ],
        "type": "Point"
      }
    },
    {
      "type": "Feature",
      "properties": {
        "name": "Pouebo"
      },
      "geometry": {
        "coordinates": [
          164.56667,
          -20.4
        ],
        "type": "Point"
      }
    },
    {
      "type": "Feature",
      "properties": {
        "name": "Ponerihouen"
      },
      "geometry": {
        "coordinates": [
          165.4,
          -21.08333
        ],
        "type": "Point"
      }
    },
    {
      "type": "Feature",
      "properties": {
        "name": "Poindimie"
      },
      "geometry": {
        "coordinates": [
          165.33333,
          -20.93333
        ],
        "type": "Point"
      }
    },
    {
      "type": "Feature",
      "properties": {
        "name": "Paita"
      },
      "geometry": {
        "coordinates": [
          166.35717,
          -22.13105
        ],
        "type": "Point"
      }
    },
    {
      "type": "Feature",
      "properties": {
        "name": "Ouegoa"
      },
      "geometry": {
        "coordinates": [
          164.43333,
          -20.35
        ],
        "type": "Point"
      }
    },
    {
      "type": "Feature",
      "properties": {
        "name": "Noumea"
      },
      "geometry": {
        "coordinates": [
          166.4572,
          -22.27631
        ],
        "type": "Point"
      }
    },
    {
      "type": "Feature",
      "properties": {
        "name": "Mont-Dore"
      },
      "geometry": {
        "coordinates": [
          166.56621,
          -22.26257
        ],
        "type": "Point"
      }
    },
    {
      "type": "Feature",
      "properties": {
        "name": "La Foa"
      },
      "geometry": {
        "coordinates": [
          165.82764,
          -21.71079
        ],
        "type": "Point"
      }
    },
    {
      "type": "Feature",
      "properties": {
        "name": "Koumac"
      },
      "geometry": {
        "coordinates": [
          164.28333,
          -20.56667
        ],
        "type": "Point"
      }
    },
    {
      "type": "Feature",
      "properties": {
        "name": "Kone"
      },
      "geometry": {
        "coordinates": [
          164.86582,
          -21.05951
        ],
        "type": "Point"
      }
    },
    {
      "type": "Feature",
      "properties": {
        "name": "Kaala-Gomen"
      },
      "geometry": {
        "coordinates": [
          164.4,
          -20.66667
        ],
        "type": "Point"
      }
    },
    {
      "type": "Feature",
      "properties": {
        "name": "Houailou"
      },
      "geometry": {
        "coordinates": [
          165.61667,
          -21.28333
        ],
        "type": "Point"
      }
    },
    {
      "type": "Feature",
      "properties": {
        "name": "Hienghene"
      },
      "geometry": {
        "coordinates": [
          164.93333,
          -20.68333
        ],
        "type": "Point"
      }
    },
    {
      "type": "Feature",
      "properties": {
        "name": "Fayaoue"
      },
      "geometry": {
        "coordinates": [
          166.53641,
          -20.65284
        ],
        "type": "Point"
      }
    },
    {
      "type": "Feature",
      "properties": {
        "name": "Dumbea"
      },
      "geometry": {
        "coordinates": [
          166.45,
          -22.15
        ],
        "type": "Point"
      }
    },
    {
      "type": "Feature",
      "properties": {
        "name": "Canala"
      },
      "geometry": {
        "coordinates": [
          165.95,
          -21.53333
        ],
        "type": "Point"
      }
    },
    {
      "type": "Feature",
      "properties": {
        "name": "Bourail"
      },
      "geometry": {
        "coordinates": [
          165.49736,
          -21.5669
        ],
        "type": "Point"
      }
    },
    {
      "type": "Feature",
      "properties": {
        "name": "Bouloupari"
      },
      "geometry": {
        "coordinates": [
          166.05,
          -21.86667
        ],
        "type": "Point"
      }
    }
  ]
}