{
  "type": "FeatureCollection",
  "features": [
    {
      "type": "Feature",
      "properties": {
        "name": "Teaoraereke Village"
      },
      "geometry": {
        "coordinates": [
          173.01162,
          1.33309
        ],
        "type": "Point"
      }
    },
    {
      "type": "Feature",
      "properties": {
        "name": "Rawannawi Village"
      },
      "geometry": {
        "coordinates": [
          173.26354,
          2.05379
        ],
        "type": "Point"
      }
    },
    {
      "type": "Feature",
      "properties": {
        "name": "Buota Village"
      },
      "geometry": {
        "coordinates": [
          173.13082,
          1.39078
        ],
        "type": "Point"
      }
    },
    {
      "type": "Feature",
      "properties": {
        "name": "Betio Village"
      },
      "geometry": {
        "coordinates": [
          172.92105,
          1.35797
        ],
        "type": "Point"
      }
    },
    {
      "type": "Feature",
      "properties": {
        "name": "Banraeaba Village"
      },
      "geometry": {
        "coordinates": [
          173.03464,
          1.3454
        ],
        "type": "Point"
      }
    },
    {
      "type": "Feature",
      "properties": {
        "name": "Tarawa"
      },
      "geometry": {
        "coordinates": [
          172.97696,
          1.3278
        ],
        "type": "Point"
      }
    },
    {
      "type": "Feature",
      "properties": {
        "name": "Makin Village"
      },
      "geometry": {
        "coordinates": [
          172.98352,
          3.3644
        ],
        "type": "Point"
      }
    },
    {
      "type": "Feature",
      "properties": {
        "name": "Bairiki Village"
      },
      "geometry": {
        "coordinates": [
          172.97522,
          1.32924
        ],
        "type": "Point"
      }
    },
    {
      "type": "Feature",
      "properties": {
        "name": "Ambo Village"
      },
      "geometry": {
        "coordinates": [
          173.04259,
          1.35317
        ],
        "type": "Point"
      }
    },
    {
      "type": "Feature",
      "properties": {
        "name": "Bonriki Village"
      },
      "geometry": {
        "coordinates": [
          173.13887,
          1.38081
        ],
        "type": "Point"
      }
    },
    {
      "type": "Feature",
      "properties": {
        "name": "Temaiku Village"
      },
      "geometry": {
        "coordinates": [
          173.16226,
          1.36292
        ],
        "type": "Point"
      }
    },
    {
      "type": "Feature",
      "properties": {
        "name": "Nawerewere Village"
      },
      "geometry": {
        "coordinates": [
          173.13935,
          1.36362
        ],
        "type": "Point"
      }
    },
    {
      "type": "Feature",
      "properties": {
        "name": "Bikenibeu Village"
      },
      "geometry": {
        "coordinates": [
          173.12415,
          1.3673
        ],
        "type": "Point"
      }
    },
    {
      "type": "Feature",
      "properties": {
        "name": "Eita Village"
      },
      "geometry": {
        "coordinates": [
          173.08113,
          1.36154
        ],
        "type": "Point"
      }
    }
  ]
}